{"id": 1, "name": "兵庫県立美術館", "location": "兵庫県神戸市中央区脇浜海岸通1-1-1", "business_hours": "10:00~18:00(入場は17:30まで)、特別展会期中の金・土曜日は夜間開館10:00~20:00(入場は19:30まで)", "admission_fees": "県美プレミアム展(常設展)観覧料:大人510円、65歳以上255円、大学生410円、高校生260円、中学生以下無料、障がいのある方は各観覧料金の半額、介護者(1名)は無料", "website_url": null, "phone_number": "078-262-0901", "area": "兵庫県"}
{"id": 2, "name": "姫路市立美術館", "location": "兵庫県姫路市本町68-25", "business_hours": "10:00~17:00(開門は9:00より)", "admission_fees": "一般200円、大高生150円、中小生100円、どんぐりカード、ココロンカード、姫路市高齢者福祉優待カード提示で常設展は無料", "website_url": null, "phone_number": "079-222-2288", "area": "兵庫県"}
{"id": 3, "name": "中浜稔猫美術館", "location": "兵庫県淡路市浦668-2", "business_hours": "10:00~18:00(入館は17:30まで)", "admission_fees": "大人600円(540円)(480円)、生徒300円(270円)(240円)、児童200円(180円)(160円)、生徒は高校・中学及びこれらに準ずる学校の生徒、児童は小学及びこれらに準ずる学校の児童、特別展の時は別に入館料を定めます、障害者手帳提示で2割引、()内金額は団体料金、★内金額は障害者割引料金", "website_url": null, "phone_number": "0799-75-2011", "area": "兵庫県"}
{"id": 4, "name": "篠山市立歴史美術館", "location": "兵庫県丹波篠山市呉服町53", "business_hours": "9:00~17:00(受付は16:30まで)", "admission_fees": "大人300円、高大生200円、中学生100円", "website_url": null, "phone_number": "079-552-0601", "area": "兵庫県"}
{"id": 5, "name": "小磯記念美術館", "location": "兵庫県神戸市東灘区向洋町中5-7", "business_hours": "10:00~17:00(入館は閉館30分前まで)", "admission_fees": "一般200円、高校・大学生150円、小学・中学以下100円", "website_url": null, "phone_number": "078-857-5880", "area": "兵庫県"}
{"id": 6, "name": "兵庫県立美術館王子分館", "location": "兵庫県神戸市灘区原田通3-8-30", "business_hours": "10:00~18:00", "admission_fees": "展覧会ごとに異なる", "website_url": null, "phone_number": "078-801-1591", "area": "兵庫県"}
{"id": 7, "name": "伊藤清永美術館", "location": "兵庫県豊岡市出石町内町98", "business_hours": "9:30~17:00(入館は16:30まで)", "admission_fees": "常設展:一般500円、JAF会員証400円、但馬ファンクラブ400円、大学生・高校生300円、中学生以下無料、障害者手帳250円、65歳以上250円", "website_url": null, "phone_number": "0796-52-5456", "area": "兵庫県"}
{"id": 8, "name": "兵庫陶芸美術館", "location": "兵庫県丹波篠山市今田町上立杭4", "business_hours": "10:00~18:00、GW期間(4/29~5/5):10:00~19:00、7~8月の土日:9:30~19:00(いずれも入館は閉館の30分前まで)", "admission_fees": "展覧会ごとに異なります", "website_url": null, "phone_number": "079-597-3961", "area": "兵庫県"}
{"id": 9, "name": "神戸ファッション美術館", "location": "兵庫県神戸市東灘区向洋町中2-9-1", "business_hours": "10:00~18:00", "admission_fees": "一般500円、小・中学・高校生・65歳以上250円", "website_url": null, "phone_number": "078-858-0050", "area": "兵庫県"}
{"id": 10, "name": "神戸ゆかりの美術館", "location": "兵庫県神戸市東灘区向洋町中2-9-1", "business_hours": "10:00~17:00(入館は16:30まで)", "admission_fees": "山本二三展リターンズ(7/16~9/4):一般900円、大・高校生700円、中・高校生400円、神戸市、隣接6市1町、淡路3市、鳴門市、徳島市の小中学生は全額免除、神戸市すこやかカード提示で一般の半額、障害者手帳等お持ちの方と介護者1名無料", "website_url": null, "phone_number": "078-858-1520", "area": "兵庫県"}
{"id": 11, "name": "西宮市大谷記念美術館", "location": "兵庫県西宮市中浜町4-38", "business_hours": "10:00~17:00(入館は16:30まで)", "admission_fees": "展覧会の規模によりそのつど定めます", "website_url": null, "phone_number": "0798-33-0164", "area": "兵庫県"}
{"id": 12, "name": "あさご芸術の森美術館", "location": "兵庫県朝来市多々良木739-3", "business_hours": "9月~5月:10:00~17:00、6月~8月:10:00~18:00(入館は閉館30分前まで)", "admission_fees": "大人500円、高校生・大学生300円、小中学生200円、障がい者手帳提示で本人及び同伴者1名無料", "website_url": null, "phone_number": "079-670-4111", "area": "兵庫県"}
{"id": 13, "name": "植野記念美術館", "location": "兵庫県丹波市氷上町西中615-4", "business_hours": "10:00~17:00", "admission_fees": "大人300円、大高生210円、小中生100円", "website_url": null, "phone_number": "0795-82-5945", "area": "兵庫県"}
{"id": 14, "name": "香雪美術館", "location": "兵庫県神戸市東灘区御影郡家2-12-1", "business_hours": "10:00~17:00(ご入館は16:30まで)", "admission_fees": "展覧会(香雪美術館のコレクション展と企画展)によって料金が異なります。コレクション展:大人700円(550円)、企画展:大人800円(600円)、コレクション展:大高生450円(350円)、企画展:大高生500円(400円)、中学生以下無料、()内は団体料金(20名以上)", "website_url": null, "phone_number": "078-841-0652", "area": "兵庫県"}
{"id": 17, "name": "神戸北野美術館", "location": "兵庫県神戸市中央区北野町2-9-6", "business_hours": "9:30~17:30(入館は17:00まで)", "admission_fees": "大人(中学生以上)500円、小学生300円", "website_url": null, "phone_number": "078-251-0581", "area": "兵庫県"}
{"id": 18, "name": "滝川記念美術館玉青館", "location": "兵庫県南あわじ市松帆西路1137-1", "business_hours": "9:00~17:00(入館16:30まで)", "admission_fees": "一般大人300円、高・大学生200円、小・中学生100円、団体大人240円、高・大学生160円、小・中学生80円、特別展は別に定めることがあります", "website_url": null, "phone_number": "0799-36-2314", "area": "兵庫県"}
{"id": 19, "name": "円山川公苑美術館", "location": "兵庫県豊岡市小島1163", "business_hours": "9:00~17:00", "admission_fees": "企画展:大人360円(310円)、65歳以上・高校生180円(150円)、中学生以下無料、常設展:大人210円(150円)、65歳以上・高校生100円(80円)、中学生以下無料、()内は団体料金", "website_url": null, "phone_number": "0796-28-3085", "area": "兵庫県"}
{"id": 22, "name": "加東アート館", "location": "兵庫県加東市下滝野1269-2", "business_hours": "情報なし", "admission_fees": "情報なし", "website_url": null, "phone_number": "0795-48-4915", "area": "兵庫県"}
{"id": 23, "name": "エンバ中国近代美術館", "location": "兵庫県芦屋市奥池町12-1", "business_hours": "会期中10:00~16:00(入館は15:30まで)", "admission_fees": "一般800円、シニア500円、高・大学生400円、中学生以下無料", "website_url": null, "phone_number": "0797-38-0021", "area": "兵庫県"}
{"id": 24, "name": "頴川美術館", "location": "兵庫県西宮市上甲東園1-10-40", "business_hours": "10:00~16:00(入館は15:30まで)", "admission_fees": "大人600円、大学生400円、専門学生400円、70歳以上300円、小・中・高校生無料", "website_url": null, "phone_number": "0798-51-3915", "area": "兵庫県"}
{"id": 25, "name": "宝塚市立文化芸術センター", "location": "兵庫県宝塚市武庫川町7-64", "business_hours": "情報なし", "admission_fees": "情報なし", "website_url": null, "phone_number": "0797-62-6800", "area": "兵庫県"}
{"id": 40,"name":"堀光美術館","location":"兵庫県三木市上の丸町４－５","business_hours":"10:00〜17:00 （入館は16:30まで）","admission_fees":"無料 （ただし、特別展の場合は有料）","website_url":null,"phone_number":"0794-82-9945","area":"兵庫県"}
{"id": 41,"name":"伊丹市立美術館","location":"兵庫県伊丹市宮ノ前２丁目５－２０","business_hours":"10時〜18時","admission_fees":"一般 200円 高大生 150円 小中生 100円","website_url":null,"phone_number":"072-772-7447","area":"兵庫県"}
{"id": 45, "name": "但陽美術館", "location": "兵庫県朝来市生野町口銀谷538", "business_hours": "9:00~17:00", "admission_fees": "但陽信金に確認", "website_url": null, "phone_number": "079-679-2559", "area": "兵庫県"}
{"id": 46, "name": "城崎美術館", "location": "兵庫県豊岡市城崎町湯島985-2", "business_hours": "9:00~16:30", "admission_fees": "大人300円、小学生以下無料", "website_url": null, "phone_number": "0796-32-2851", "area": "兵庫県"}
