{"id": 1, "name": "宮城県美術館", "location": "宮城県仙台市青葉区川内元支倉34-1", "business_hours": "9:30~17:00(観覧券の販売は16:30まで)", "admission_fees": "一般300円、大学生150円、小・中・高校生無料、特別展は展覧会ごとに設定", "website_url": null, "phone_number": "022-221-2111", "area": "宮城県"}
{"id": 2, "name": "高倉勝子美術館桜小路", "location": "宮城県登米市登米町寺池桜小路88-1", "business_hours": "9:00~16:30", "admission_fees": "一般200円、高校生150円、小中学生100円", "website_url": null, "phone_number": "0220-52-2755", "area": "宮城県"}
{"id": 3, "name": "中鉢美術館", "location": "宮城県大崎市岩出山上川原町7-6", "business_hours": "12月~2月:10:00~16:00、3月~11月:10:00~17:00", "admission_fees": "大人500円、高・大学生300円、小・中学生100円", "website_url": null, "phone_number": "0229-29-9833", "area": "宮城県"}
{"id": 4, "name": "リアス・アーク美術館", "location": "宮城県気仙沼市字赤岩牧沢138-5", "business_hours": "9:30~17:00(最終入館16:30)", "admission_fees": "一般500円、大学生・短大生・専門学生400円、高校生300円、小・中学生150円", "website_url": null, "phone_number": "0226-24-1611", "area": "宮城県"}
{"id": 5, "name": "大衡村ふるさと美術館", "location": "宮城県黒川郡大衡村大衡平林39-12", "business_hours": "10:00~16:00", "admission_fees": "大人200円、高校生150円、中学生100円、小学生100円", "website_url": null, "phone_number": "022-345-0945", "area": "宮城県"}