{"id": 1, "name": "山形美術館", "location": "山形県山形市大手町1-63", "business_hours": "10:00~17:00(入館は16:30まで)", "admission_fees": "一般500円、高大生300円、小中生100円、小・中学生とその引率者が教育活動として観覧する場合無料", "website_url": null, "phone_number": "023-622-3090", "area": "山形県"}
{"id": 2, "name": "天童市美術館", "location": "山形県天童市老野森1-2-2", "business_hours": "9:00~18:00(入館は17:30まで)", "admission_fees": "大人400円、高校生・大学生200円、小中学生100円", "website_url": null, "phone_number": "023-654-6300", "area": "山形県"}
{"id": 3, "name": "土門拳記念館", "location": "山形県酒田市飯森山2-13", "business_hours": "9:00~17:00(16:30まで入館)", "admission_fees": "一般430円、学生210円、小中学生無料、特別展期間中は料金変更の場合あり", "website_url": null, "phone_number": "0234-31-0028", "area": "山形県"}
{"id": 4, "name": "東根市美術館", "location": "山形県東根市中央南1-7-3", "business_hours": "9:00~18:00(入場は閉館の30分前まで)、展覧会によって延長する場合あり", "admission_fees": "展覧会・イベントごとに異なります", "website_url": null, "phone_number": "0237-53-0229", "area": "山形県"}
{"id": 5, "name": "本間美術館", "location": "山形県酒田市御成町7-7", "business_hours": "4月~10月:9:00~17:00(入館は16:30まで)、11月~3月:9:00~16:30(入館は16:00まで)", "admission_fees": "一般1000円(900円)、高・大学生450円(400円)、小／中学生無料、()内は15名以上の団体料金", "website_url": null, "phone_number": "0234-24-4311", "area": "山形県"}
{"id": 6, "name": "酒田市美術館", "location": "山形県酒田市飯森山3-17-95", "business_hours": "9:00~17:00(入館は16:30まで)", "admission_fees": "一般540円、大高生270円、小中学生無料", "website_url": null, "phone_number": "0234-31-0095", "area": "山形県"}
{"id": 7, "name": "よねざわ市民ギャラリー", "location": "山形県米沢市中央1-10-6", "business_hours": "情報なし", "admission_fees": "無料", "website_url": null, "phone_number": "0238-22-6400", "area": "山形県"}
{"id": 8, "name": "最上川美術館", "location": "山形県村山市大字大淀1084-1", "business_hours": "9:00~17:00(入館は16:30まで)", "admission_fees": "大人300円、小中学生150円", "website_url": null, "phone_number": "0237-52-3195", "area": "山形県"}