{"id": 1, "name": "鹿児島市立美術館", "location": "鹿児島県鹿児島市城山町4-36", "business_hours": "9:30~18:00(入館は17:30まで)", "admission_fees": "常設展:一般300円、高大生200円、小中生150円", "website_url": null, "phone_number": "099-224-3400", "area": "鹿児島県"}
{"id": 2, "name": "田中一村記念美術館", "location": "鹿児島県奄美市笠利町大字節田1834", "business_hours": "9:00~18:00(最終入館17:30)、7・8月は9:00~19:00(最終入館18:30)", "admission_fees": "大人510円、高校生・大学生360円、小学生・中学生250円、幼児(小学生未満)無料", "website_url": null, "phone_number": "0997-55-2635", "area": "鹿児島県"}
{"id": 3, "name": "長島美術館", "location": "鹿児島県鹿児島市武3-42-18", "business_hours": "9:00~17:00(入館は16:30まで)", "admission_fees": "常設展:一般1000円(800円)、高校生・大学生800円(640円)、小学生・中学生400円(320円)、シニア(65歳以上)500円、()内は団体料金", "website_url": null, "phone_number": "099-250-5400", "area": "鹿児島県"}
{"id": 4, "name": "中村晋也美術館", "location": "鹿児島県鹿児島市石谷町2366-21", "business_hours": "10:00~17:00", "admission_fees": "一般500円、高校生200円、小・中学生100円", "website_url": null, "phone_number": "099-246-7070", "area": "鹿児島県"}
{"id": 5, "name": "笠沙美術館", "location": "鹿児島県南さつま市笠沙町赤生木8670", "business_hours": "9:00~17:00", "admission_fees": "無料", "website_url": null, "phone_number": "0993-63-0990", "area": "鹿児島県"}
{"id": 6, "name": "三宅美術館", "location": "鹿児島県鹿児島市谷山中央1-4319", "business_hours": "10:00~16:30", "admission_fees": "一般500円、高校生300円、小・中学生200円、70歳以上100円", "website_url": null, "phone_number": "099-266-0066", "area": "鹿児島県"}
{"id": 7, "name": "松下美術館", "location": "鹿児島県霧島市福山町福山771", "business_hours": "10:00~17:00(最終入館は16:30まで)", "admission_fees": "一般500円、高・大学生300円、小・中学生200円、幼児無料", "website_url": null, "phone_number": "0995-55-3350", "area": "鹿児島県"}
{"id": 8, "name": "岩崎美術館", "location": "鹿児島県指宿市十二町3755", "business_hours": "8:00~17:00(入館は16:30まで)", "admission_fees": "大学生・一般300円、高校生以下無料", "website_url": null, "phone_number": "0993-22-4056", "area": "鹿児島県"}
{"id": 9, "name": "吉井淳二美術館", "location": "鹿児島県南さつま市加世田武田13877-3", "business_hours": "10:00~17:00(入館は16:30まで)", "admission_fees": "無料", "website_url": null, "phone_number": "0993-53-6778", "area": "鹿児島県"}