{"id": 1, "name": "とりっくあーとぴあ日光", "location": "栃木県日光市小佐越1-4", "business_hours": "7月中旬~8/31:9:00~17:30、9/1~7月中旬:9:30~17:00", "admission_fees": "中学生以上1900円、3歳~小学生1100円、障がい者手帳(中学生以上950円、3歳~小学生550円)、ホログラフィー館は300円追加", "website_url": null, "phone_number": "0288-77-3565", "area": "栃木県"}
{"id": 2, "name": "那珂川町馬頭広重美術館", "location": "栃木県那須郡那珂川町馬頭116-9", "business_hours": "9:30~17:00(入館は16:30まで)", "admission_fees": "一般500円、大高生300円、中学生以下無料、障がい者手帳お持ちの方、付き添いの方は半額", "website_url": null, "phone_number": "0287-92-1199", "area": "栃木県"}
{"id": 3, "name": "車屋美術館", "location": "栃木県小山市乙女3-10-34", "business_hours": "4~9月:9:00~17:00、10~3月:9:00~16:00", "admission_fees": "美術館展示は展示内容により異なる", "website_url": null, "phone_number": "0285-41-0968", "area": "栃木県"}
{"id": 4, "name": "宇都宮美術館", "location": "栃木県宇都宮市長岡町1077", "business_hours": "9:30~17:00", "admission_fees": "一般310円、高・大学生210円、小・中学生100円、宇都宮市内在学もしくは在住の高校生以下は無料、4/1(市民の日)・11/3(文化の日)は宇都宮市民は無料、障害者割引あり(要証明書)", "website_url": null, "phone_number": "028-643-0100", "area": "栃木県"}
{"id": 5, "name": "栃木県立美術館", "location": "栃木県宇都宮市桜4-2-7", "business_hours": "9:30~17:00(入館は16:30まで)", "admission_fees": "企画展ごとに定められています、無料日あり", "website_url": null, "phone_number": "028-621-3566", "area": "栃木県"}
{"id": 6, "name": "うつのみや文化の森", "location": "栃木県宇都宮市長岡町1077", "business_hours": "20:00~22:00(駐車場の利用時間です)", "admission_fees": "無料", "website_url": null, "phone_number": "028-643-0100", "area": "栃木県"}
{"id": 7, "name": "小杉放菴記念日光美術館", "location": "栃木県日光市山内2388-3", "business_hours": "9:30~17:00", "admission_fees": "一般720円、大学生510円、高校生以下無料、障害者手帳等お持ちの方と介護者1名無料", "website_url": null, "phone_number": "0288-50-1200", "area": "栃木県"}
{"id": 8, "name": "川上澄生美術館", "location": "栃木県鹿沼市睦町287-14", "business_hours": "9:00~17:00(入館は16:30まで)", "admission_fees": "一般300円(200円)、高校生・大学生200円(100円)、小学生・中学生100円(50円)、()内は20名以上の団体料金、毎週土曜日は小・中学生無料、毎月第3日曜日は鹿沼市内の小・中学生及び同伴する大人無料、障がい者手帳の交付を受けている方とその介護者1名無料", "website_url": null, "phone_number": "0289-62-8272", "area": "栃木県"}
{"id": 9, "name": "足利市立美術館", "location": "栃木県足利市通2-14-7", "business_hours": "10:00~18:00(入館は17:30まで)", "admission_fees": "展覧会によって異なる、郷土作家コーナーは観覧無料、中学生以下はすべての展覧会無料", "website_url": null, "phone_number": "0284-43-3131", "area": "栃木県"}
{"id": 10, "name": "吉澤記念美術館", "location": "栃木県佐野市葛生東1-14-30", "business_hours": "9:30~17:00", "admission_fees": "一般510円、大学生以下・障害者手帳等をお持ちの方は観覧無料", "website_url": null, "phone_number": "0283-86-2008", "area": "栃木県"}
{"id": 11, "name": "サンバレー美術館", "location": "栃木県那須郡那須町大字湯本203", "business_hours": "10:00~12:00、13:00~17:00", "admission_fees": "大人700円、中・高・大学生500円、小学生以下無料", "website_url": null, "phone_number": "0287-76-6600", "area": "栃木県"}
{"id": 12, "name": "草雲美術館", "location": "栃木県足利市緑町2-3768", "business_hours": "9:00~16:00", "admission_fees": "個人(一般・高校生)210円、中学生以下無料", "website_url": null, "phone_number": "0284-21-3808", "area": "栃木県"}
{"id": 13, "name": "東石美術館", "location": "栃木県佐野市本町2892", "business_hours": "10:00~17:00", "admission_fees": "大人1000円(ペアチケット1800円)、高・大学生800円、小・中学生500円", "website_url": null, "phone_number": "0283-23-8111", "area": "栃木県"}
{"id": 14, "name": "ギャラリーハンナ", "location": "栃木県宇都宮市松が峰2-7-17", "business_hours": "9:00~17:00(17:30閉館)", "admission_fees": "催事による", "website_url": null, "phone_number": "028-638-6123", "area": "栃木県"}