{"id": 1, "name": "MOA美術館", "location": "静岡県熱海市桃山町26-2", "business_hours": "9:30~16:30(最終入館16:00)", "admission_fees": "大人1600円、シニア(65歳以上)1400円、高・大学生1000円、中学生以下無料", "website_url": null, "phone_number": "0557-84-2511", "area": "静岡県"}
{"id": 2, "name": "静岡県立美術館", "location": "静岡県静岡市駿河区谷田53-2", "business_hours": "10:00~17:30(展示室への入室は17:00まで)", "admission_fees": "収蔵品展観覧料:一般300円、大学生以下・70歳以上無料", "website_url": null, "phone_number": "054-263-5755", "area": "静岡県"}
{"id": 3, "name": "佐野美術館", "location": "静岡県三島市中田町1-43", "business_hours": "10:00~17:00(入館の受付は16:30まで)", "admission_fees": "展覧会により異なる", "website_url": null, "phone_number": "055-975-7278", "area": "静岡県"}
{"id": 4, "name": "東海道広重美術館", "location": "静岡県静岡市清水区由比297-1", "business_hours": "9:00~17:00(入館は閉館の30分前まで)", "admission_fees": "一般510円、大学生・高校生300円、中学生・小学生120円", "website_url": null, "phone_number": "054-375-4454", "area": "静岡県"}
{"id": 5, "name": "掛川市二の丸美術館", "location": "静岡県掛川市掛川1142-1", "business_hours": "9:00~17:00(入館は16:30まで)", "admission_fees": "大人200円、中学生まで無料", "website_url": null, "phone_number": "0537-62-2061", "area": "静岡県"}
{"id": 6, "name": "澤田政廣記念美術館", "location": "静岡県熱海市梅園町9-46", "business_hours": "9:00~16:30", "admission_fees": "大人310円、高校生210円、小学生100円、毎週土・日曜日は小・中学生無料", "website_url": null, "phone_number": "0557-81-9211", "area": "静岡県"}
{"id": 7, "name": "静岡市美術館", "location": "静岡県静岡市葵区紺屋町17-1", "business_hours": "10:00~19:00", "admission_fees": "展覧会によって異なる", "website_url": null, "phone_number": "054-273-1515", "area": "静岡県"}
{"id": 8, "name": "芹沢銈介美術館", "location": "静岡県静岡市駿河区登呂5-10-5", "business_hours": "9:00~16:30", "admission_fees": "一般420円、高校生・大学生250円、小学生・中学生100円、未就学児無料", "website_url": null, "phone_number": "054-282-5522", "area": "静岡県"}
{"id": 9, "name": "秋野不矩美術館", "location": "静岡県浜松市天竜区二俣町二俣130", "business_hours": "9:30~17:00", "admission_fees": "展覧会により異なる。大人300~800円、高校生150~500円、小学生・中学生無料~300円", "website_url": null, "phone_number": "0539-22-0315", "area": "静岡県"}
{"id": 10, "name": "浜松市美術館", "location": "静岡県浜松市中央区松城町100-1", "business_hours": "9:30~17:00(最終入館は16:30まで)、展覧会により開館時間及び閉館時間が異なる場合があります", "admission_fees": "大人300円、高校生150円、小中学生無料、特別展・企画展開催中は別料金", "website_url": null, "phone_number": "053-454-6801", "area": "静岡県"}
{"id": 11, "name": "伊豆の長八美術館", "location": "静岡県賀茂郡松崎町松崎23", "business_hours": "9:00~17:00", "admission_fees": "大人500円、中学生以下無料", "website_url": null, "phone_number": "0558-42-2540", "area": "静岡県"}
{"id": 12, "name": "ベルナール・ビュフェ美術館", "location": "静岡県駿東郡長泉町東野515-57", "business_hours": "1月:10:00~16:30、2・3月:10:00~17:00、4・5・6・7・8月:10:00~18:00、9・10月:10:00~17:00、11・12月:10:00~16:30", "admission_fees": "大人1000円、高・大学生500円、中学生以下無料", "website_url": null, "phone_number": "055-986-1300", "area": "静岡県"}
{"id": 13, "name": "静岡陶芸美術館", "location": "静岡県沼津市東椎路50-1", "business_hours": "10:00~17:00(入館は16:30まで)", "admission_fees": "大人1000円、中・高校生400円、小学生以下無料", "website_url": null, "phone_number": "055-919-3456", "area": "静岡県"}
{"id": 14, "name": "沼津市庄司美術館・モンミュゼ沼津", "location": "静岡県沼津市下一丁田900-1", "business_hours": "10:00~17:00", "admission_fees": "大人200円、小人(小中学生)100円(市内の小中学生無料)", "website_url": null, "phone_number": "055-952-8711", "area": "静岡県"}
{"id": 15, "name": "かんなみ仏の里美術館", "location": "静岡県田方郡函南町桑原89-1", "business_hours": "10:00~16:30", "admission_fees": "大人300円、小中学生100円、65歳以上200円", "website_url": null, "phone_number": "055-948-9330", "area": "静岡県"}
{"id": 16, "name": "横井照子富士美術館", "location": "静岡県富士市中野464", "business_hours": "10:00~16:00", "admission_fees": "500円(学生・子供・75歳以上無料)", "website_url": null, "phone_number": "0545-36-0470", "area": "静岡県"}
{"id": 17, "name": "時之栖美術館", "location": "静岡県御殿場市神山719", "business_hours": "4~10月:9:00~18:00(最終入館17:30)、11~3月:9:00~17:00(最終入館16:30)", "admission_fees": "無料", "website_url": null, "phone_number": "0550-87-5016", "area": "静岡県"}
{"id": 18, "name": "駿府の工房 匠宿", "location": "静岡県静岡市駿河区丸子", "business_hours": "10:00~19:00", "admission_fees": "無料、各種体験コース毎に料金設定あり", "website_url": null, "phone_number": "054-256-1521", "area": "静岡県"}
{"id": 19, "name": "上原美術館", "location": "静岡県下田市宇土金341", "business_hours": "9:00~17:00(入館は16:30まで)", "admission_fees": "大人1000円、学生500円、高校生以下無料", "website_url": null, "phone_number": "0558-28-1228", "area": "静岡県"}