{"id": 1, "name": "国立西洋美術館", "location": "東京都台東区上野公園7-7", "business_hours": "9:30~17:30、秋の企画展閉会日以降の開館日から春の企画展開催日までは9:30~17:00、無料観覧日:毎月第2・第4土曜日、文化の日(11/3)(常設展示のみ)", "admission_fees": "一般430円(220円)、大学生130円(70円)", "website_url": null, "phone_number": "03-3828-5131", "area": "東京都"}
{"id": 2, "name": "国立新美術館", "location": "東京都港区六本木7-22-2", "business_hours": "企画展:10:00~18:00、金・土曜日は20:00まで(7月~9月は21:00まで)、公募展:10:00~18:00", "admission_fees": "企画展は展覧会ごとに定めます。公募展は美術団体によって異なります", "website_url": null, "phone_number": "03-5777-8600", "area": "東京都"}
{"id": 3, "name": "東京都美術館", "location": "東京都台東区上野公園8-36", "business_hours": "9:30~17:30", "admission_fees": "企画展示による", "website_url": null, "phone_number": "03-3823-6921", "area": "東京都"}
{"id": 4, "name": "スヌーピーミュージアム", "location": "東京都町田市鶴間3-1-4", "business_hours": "平日:10:00~18:00(最終入場17:30)、土日祝:10:00~19:00(最終入場18:30)", "admission_fees": "前売券:一般・大学生1800円、中高生800円、小学生400円、当日券:一般・大学生2000円、中高生1000円、小学生600円", "website_url": null, "phone_number": "042-812-2723", "area": "東京都"}
{"id": 5, "name": "三鷹の森ジブリ美術館", "location": "東京都三鷹市下連雀1-1-83", "business_hours": "10:00~18:00", "admission_fees": "大人・大学生1000円、高校・中学生700円、小学生400円、幼児(4歳以上)100円、4歳未満無料", "website_url": null, "phone_number": "0570-05-5777", "area": "東京都"}
{"id": 6, "name": "チームラボプラネッツ TOKYO DMM.com", "location": "東京都江東区豊洲6-1-16", "business_hours": "9:00~22:00", "admission_fees": "大人(18歳以上)3800円、中学生・高校生2300円、小人(4歳~12歳)1300円、3歳以下無料、障がい者割引1900円", "website_url": null, "phone_number": "情報なし", "area": "東京都"}
{"id": 7, "name": "上野の森美術館", "location": "東京都台東区上野公園1-2", "business_hours": "10:00~17:00(入場は閉館30分前まで)、展示により変更の場合あり", "admission_fees": "展示により異なります", "website_url": null, "phone_number": "03-3833-4191", "area": "東京都"}
{"id": 8, "name": "岡本太郎記念館", "location": "東京都港区南青山6-1-19", "business_hours": "10:00~18:00(最終入館17:30)", "admission_fees": "一般620円、小学生310円", "website_url": null, "phone_number": "03-3406-0801", "area": "東京都"}
{"id": 9, "name": "東京国立近代美術館-本館", "location": "東京都千代田区北の丸公園3-1", "business_hours": "10:00~17:00、金・土曜日は20:00まで(入館は閉館30分前まで)", "admission_fees": "所蔵作品展:一般500円、大学生150円、17時以降の入館は一般300円/大学生150円、高校生以下、18歳未満、65歳以上、障害者手帳をお持ちの方(付添者は原則1名まで)、キャンパスメンバーズ、MOMATパスポート、賛助会・友の会会員証をお持ちの方は無料、企画展示は展覧会により異なる", "website_url": null, "phone_number": "03-5777-8600", "area": "東京都"}
{"id": 10, "name": "すみだ北斎美術館", "location": "東京都墨田区亀沢2-7-2", "business_hours": "9:30~17:30(入館は閉館の30分前まで)", "admission_fees": "常設展:一般400円(団体320円)、高校生・大学生・専門学校生・65歳以上300円(団体240円)、企画展:展覧会ごとに異なります", "website_url": null, "phone_number": "03-6658-8936", "area": "東京都"}
{"id": 11, "name": "東京都現代美術館", "location": "東京都江東区三好4-1-1", "business_hours": "10:00~18:00(入場は17:30まで)", "admission_fees": "MOTコレクション(常設展):一般500円、大学・専門学校生400円、65歳以上・高校生250円、中学生以下無料、企画展は展覧会ごとに別途設定", "website_url": null, "phone_number": "03-5245-4111", "area": "東京都"}
{"id": 12, "name": "三井記念美術館", "location": "東京都中央区日本橋室町2-1-1 三井本館7階", "business_hours": "10:00~17:00(入館は16:30まで)", "admission_fees": "一般1000円、大学・高校生500円、中学生以下無料、70歳以上割引(要証明)、障害者手帳等お持ちの方は介護者1名とともに無料", "website_url": null, "phone_number": "情報なし", "area": "東京都"}
{"id": 13, "name": "東京富士美術館", "location": "東京都八王子市谷野町492-1", "business_hours": "10:00~17:00(16:30受付終了)", "admission_fees": "特別展入場料:展覧会によって異なる、中学・小学校生:毎週土曜日は入場無料、誕生日当日にご来館された方は、ご本人のみ入場無料、障害者手帳を持参の方および同伴者1名半額、割引券付きチラシ1枚につき10名まで、アートパスポート同伴者5名まで、メルマガ登録者同伴者5名まで、65歳以上、団体割引(20名以上)、各種提携カード割引", "website_url": null, "phone_number": "042-691-4511", "area": "東京都"}
{"id": 14, "name": "練馬区立美術館", "location": "東京都練馬区貫井1-36-16", "business_hours": "10:00~18:00(入館は17:30まで)", "admission_fees": "展覧会により有料・無料", "website_url": null, "phone_number": "03-3577-1821", "area": "東京都"}
{"id": 15, "name": "百段階段", "location": "東京都目黒区下目黒1-8-1", "business_hours": "情報なし", "admission_fees": "イベントにより異なる", "website_url": null, "phone_number": "03-5434-3140", "area": "東京都"}
{"id": 16, "name": "国際版画美術館", "location": "東京都町田市原町田4-28-1", "business_hours": "平日:10:00~17:00(入場は16:30まで)、土日祝:10:00~17:30(入場は17:00まで)", "admission_fees": "企画展示は展覧会によって料金が変わる、身体障害者手帳、東京都愛の手帳、精神障害者保健福祉手帳ご持参の方と付き添いの方は半額、満65歳以上半額、中学生以下無料、ミニ企画展(常設展示室)無料", "website_url": null, "phone_number": "042-726-2771", "area": "東京都"}
{"id": 17, "name": "府中市美術館", "location": "東京都府中市浅間町1-3", "business_hours": "10:00~17:00", "admission_fees": "一般200円、大高生100円、中小生50円", "website_url": null, "phone_number": "042-336-3371", "area": "東京都"}
{"id": 18, "name": "目黒区美術館", "location": "東京都目黒区目黒2-4-36", "business_hours": "10:00~18:00(入館は17:30まで)", "admission_fees": "展覧会ごとに異なります", "website_url": null, "phone_number": "03-3714-1201", "area": "東京都"}
{"id": 19, "name": "森ビル デジタルアート ミュージアム：エプソン チームラボボーダレス", "location": "東京都港区麻布台1-2-4", "business_hours": "情報なし", "admission_fees": "情報なし", "website_url": null, "phone_number": "情報なし", "area": "東京都"}
{"id": 20, "name": "東京都写真美術館", "location": "東京都目黒区三田1-13-3", "business_hours": "10:00~18:00(木・金曜日は20:00まで)(入館は閉館の30分前まで)", "admission_fees": "開催展覧会・上映会によって料金が異なる", "website_url": null, "phone_number": "03-3280-0099", "area": "東京都"}
{"id": 21, "name": "出光美術館", "location": "東京都千代田区丸の内3-1-1 帝劇ビル9階", "business_hours": "10:00~17:00(入館は16:30まで)、毎週金曜日は10:00~19:00(入館は18:30まで)", "admission_fees": "一般1000円、高・大生700円(団体20名以上 各200円引)、中学生以下無料(保護者同伴)、障害者手帳200円引、介護者1名無料、常設展示はございません", "website_url": null, "phone_number": "03-5777-8600", "area": "東京都"}
{"id": 22, "name": "松濤美術館", "location": "東京都渋谷区松濤2-14-14", "business_hours": "特別展期間中:10:00~18:00(金曜のみ20:00まで)、公募展・小中学生絵画展・サロン展期間中:9:00~17:00(最終入館はいずれも閉館30分前まで)", "admission_fees": "展覧会によって異なります", "website_url": null, "phone_number": "03-3465-9421", "area": "東京都"}
{"id": 23, "name": "永青文庫", "location": "東京都文京区目白台1-1-1", "business_hours": "10:00~16:30(入館は16:00まで)", "admission_fees": "一般800円(700円)、シニア(70歳以上)600円(500円)、大学・高校生400円、()内は10名以上の団体料金、中学生以下、障害者手帳をご提示の方及びその介助者(1名)は無料、別館サロンは別途200円(不定休)", "website_url": null, "phone_number": "03-3941-0850", "area": "東京都"}
{"id": 24, "name": "草間彌生美術館", "location": "東京都新宿区弁天町107", "business_hours": "木・金・土・日および国民の祝日:11:00~17:30", "admission_fees": "一般1000円、小中高生600円、入場は日時指定の完全予約・定員制(各回90分)", "website_url": null, "phone_number": "03-5273-1778", "area": "東京都"}
{"id": 25, "name": "太田記念美術館", "location": "東京都渋谷区神宮前1-10-10", "business_hours": "情報なし", "admission_fees": "情報なし", "website_url": null, "phone_number": "03-3403-0880", "area": "東京都"}
{"id": 26, "name": "板橋区立美術館", "location": "東京都板橋区赤塚5-34-27", "business_hours": "9:30~17:00(入館は16:30まで)", "admission_fees": "展覧会ごとに異なります。特別展示観覧料:一般650円、高齢者(65歳以上)325円、大学生450円、高校生450円、小中学生200円、土曜日は小中高校生無料、障がい者手帳半額、引率者1名無料、65歳以上半額(年齢を証明できるものが必要)", "website_url": null, "phone_number": "03-3979-3251", "area": "東京都"}
{"id": 27, "name": "アーティゾン美術館", "location": "東京都中央区京橋1-7-2", "business_hours": "10:00~18:00、祝日を除く金曜日は20:00まで(入館は閉館の30分前まで)、日時指定予約制(①10:00~11:30、②12:00~13:30、③14:00~15:30、④16:00~17:30、⑤金曜日のみ 18:00~19:30(祝日を除く))", "admission_fees": "展示により異なります、大学生・専門学校生・高校生・障がい者と介添者 無料(要ウェブ予約)、中学生以下 無料(予約不要)", "website_url": null, "phone_number": "03-5777-8600", "area": "東京都"}
{"id": 28, "name": "吉祥寺美術館", "location": "東京都武蔵野市吉祥寺本町1-8-16", "business_hours": "10:00~19:30", "admission_fees": "100円", "website_url": null, "phone_number": "0422-22-0385", "area": "東京都"}
{"id": 29, "name": "森美術館", "location": "東京都港区六本木6-10-1", "business_hours": "月・水~日:10:00~22:00(最終入館21:30)、火:10:00~17:00(最終入館16:30)", "admission_fees": "一般1800円、学生(高校・大学生)1200円、子供(4歳~中学生)600円、シニア(65歳以上)1500円(東京シティビューにも入館可)", "website_url": null, "phone_number": "03-5777-8600", "area": "東京都"}
{"id": 30, "name": "宮本三郎記念美術館", "location": "東京都世田谷区奥沢5-38-13", "business_hours": "10:00~18:00(入館は17:30まで)", "admission_fees": "一般200円、大高生150円、65歳以上100円、中小生100円、障害者100円、学生、65歳以上、障害者の方は証明書等提示、障害者で小中高大生、障害者の介助者(1名)無料、小中学生は土日祝・夏休み期間無料", "website_url": null, "phone_number": "03-5483-3836", "area": "東京都"}