{"id": 1, "name": "砂の美術館", "location": "鳥取県鳥取市福部町湯山2083-17", "business_hours": "9:00~16:00 ※公式ホームページ要確認", "admission_fees": "一般800円、小・中・高生400円、小学生未満無料", "website_url": null, "phone_number": "0857-20-2231", "area": "鳥取県"}
{"id": 2, "name": "植田正治写真美術館", "location": "鳥取県西伯郡伯耆町須村353-3", "business_hours": "9:00~17:00(入館は閉館の30分前まで)", "admission_fees": "一般900円(800円)、高校大学生500円(400円)、小中学生300円(200円)", "website_url": null, "phone_number": "0859-39-8000", "area": "鳥取県"}
{"id": 3, "name": "ハピネライフケア文化広場(米子市美術館)", "location": "鳥取県米子市中町12", "business_hours": "10:00~18:00", "admission_fees": "展覧会によって異なります", "website_url": null, "phone_number": "0859-34-2424", "area": "鳥取県"}
{"id": 4, "name": "渡辺美術館", "location": "鳥取県鳥取市覚寺堤下1-55", "business_hours": "土日祝祭日:10:00~17:00、月水木金:10:00~15:00", "admission_fees": "大人900円、大高生500円、中小生300円、障がい者400円", "website_url": null, "phone_number": "0857-24-1152", "area": "鳥取県"}
{"id": 5, "name": "日南町美術館", "location": "鳥取県日野郡日南町霞785", "business_hours": "8:30~17:00", "admission_fees": "企画展によって異なる", "website_url": null, "phone_number": "0859-77-1113", "area": "鳥取県"}
{"id": 6, "name": "本池美術館", "location": "鳥取県米子市大篠津町4841", "business_hours": "情報なし", "admission_fees": "情報なし", "website_url": null, "phone_number": "0859-25-0550", "area": "鳥取県"}
{"id": 7, "name": "三朝バイオリン美術館", "location": "鳥取県東伯郡三朝町三朝199-1", "business_hours": "10:00~18:00", "admission_fees": "大人500円、小・中・高校生250円", "website_url": null, "phone_number": "0858-43-3111", "area": "鳥取県"}
{"id": 8, "name": "モトフサ現代美術館", "location": "鳥取県岩美郡岩美町牧谷693-1", "business_hours": "10:00~17:00", "admission_fees": "大人600円、高校生500円、小・中学生400円", "website_url": null, "phone_number": "0857-72-8881", "area": "鳥取県"}
{"id": 9, "name": "現代工芸美術館", "location": "鳥取県西伯郡大山町羽田井1419-316", "business_hours": "9:00~17:00", "admission_fees": "無料", "website_url": null, "phone_number": "0858-58-4111", "area": "鳥取県"}