{"id":2,"name":"蓼科高原美術館矢崎虎夫記念館","location":"長野県茅野市北山４０３５","business_hours":"10:00〜15:00","admission_fees":"大人：500円子供：300円","website_url":null,"phone_number":"0266-67-6171","area":"長野県"}
{"id":3,"name":"小さな美術館軽井沢草花館","location":"長野県北佐久郡軽井沢町軽井沢東19-40","business_hours":"10：00〜17：00","admission_fees":"中学生以上：500円小学生以下：無料","website_url":null,"phone_number":"0267-42-0716","area":"長野県"}
{"id":4,"name":"長野市立博物館分館信州新町美術館","location":"長野県長野市信州新町上条８８－３","business_hours":"9:00〜16:30　（入館は16:00まで）","admission_fees":"大人：500円高校生：300円小中学生：200円（毎週土曜日は無料）","website_url":null,"phone_number":"026-262-3500","area":"長野県"}
{"id":5,"name":"飯山市美術館","location":"長野県飯山市飯山１４３６－１","business_hours":"午前9時〜午後5時（入館は午後4時30分まで）","admission_fees":"大人　300円　　小中学生　200円","website_url":null,"phone_number":"0269-62-1501","area":"長野県"}
{"id":6,"name":"碌山美術館","location":"長野県安曇野市穂高5095-1","business_hours":"11月〜2月　9：00－16：103月〜10月　9：00－17：10※通年、入場は閉館の３０分前まで","admission_fees":"一    般 ９００円高校生 ３００円小中生 １５０円※障がい者手帳をお持ちの方は半額 20名様以上団体料金大人800円/高校生250円/小中生100円","website_url":null,"phone_number":"0263-82-2094","area":"長野県"}
{"id":7,"name":"トリックアートミュージアム軽井沢","location":"長野県北佐久郡軽井沢町旧軽井沢８０９","business_hours":"開館時間通常営業 10:00~18:00夏季営業(7/25~8/25)9:30~18:00","admission_fees":"大人1,500円 シニア(65歳以上)1,200円高校生1,000円 中学生900円 小学生800円幼児(3歳〜未就学児)500 2歳以下無料ペット 300円","website_url":null,"phone_number":"0267-41-1122","area":"長野県"}
{"id":8,"name":"ル・ヴァン美術館","location":"長野県北佐久郡軽井沢町長倉957-10","business_hours":"10：00〜17：00","admission_fees":"大人：800円　大学・高校生：600円　中学・小学生：400円（障害者割引あり）","website_url":null,"phone_number":"0267-46-1911","area":"長野県"}
{"id":9,"name":"軽井沢ボヘミアンガラス美術館","location":"長野県北佐久郡軽井沢町軽井沢1310-20","business_hours":"開館時間：10:00〜18:00　（7月20日頃〜8月は9：00〜20：00）休館日：冬期休館 11月中旬〜4月下旬","admission_fees":"一般： 800円中高生： 500円小学生以下： 無料","website_url":null,"phone_number":"0267-42-0880","area":"長野県"}
{"id":10,"name":"高橋節郎記念美術館","location":"長野県安曇野市穂高北穂高４０８－１","business_hours":"9:00〜17:00","admission_fees":"大人：400円高校生・大学生：300円中学生以下：無料","website_url":null,"phone_number":"0263-81-3030","area":"長野県"}
{"id":11,"name":"脇田美術館","location":"長野県北佐久郡軽井沢町軽井沢町旧道１５７０－４","business_hours":"4月〜11月 10:00〜17:00","admission_fees":"大人1000円　高・大学生600円　小・中学生0円","website_url":null,"phone_number":"0267-42-2639","area":"長野県"}
{"id":12,"name":"駒ヶ根高原美術館","location":"長野県駒ヶ根市赤穂８８","business_hours":"午前１０:００－午後４:３０（最終受付午後３:３０）","admission_fees":"大人 ８００円　大高生 ５００円　小中生 ３００円※障がい者手帳をお持ちの方は無料、付添いの方（大人1名）は500円に割引いたします。","website_url":null,"phone_number":"0265-83-5100","area":"長野県"}
{"id":14,"name":"斑尾高原絵本美術館","location":"長野県飯山市斑尾高原1492-224","business_hours":"9:30〜18:00","admission_fees":"大人700円","website_url":null,"phone_number":"0269-64-2807","area":"長野県"}
{"id":15,"name":"青木村郷土美術館","location":"長野県小県郡青木村当郷２０５１－１","business_hours":"開館時間：9:00〜16:30","admission_fees":"一般：200円学生（高校、大学）：150円児童生徒（小、中学生）：100円小学生未満：無料障がい者割引：本人と介護者1名50円引き","website_url":null,"phone_number":"0268-49-3838","area":"長野県"}
{"id":16,"name":"北野美術館","location":"長野県長野市若穂綿内７９６３","business_hours":"情報なし","admission_fees":"情報なし","website_url":null,"phone_number":"026-282-3450","area":"長野県"}
{"id":17,"name":"白馬美術館","location":"長野県北安曇郡白馬村北城２９６５","business_hours":"開館時間：9:30〜17:30","admission_fees":"一般：700円小中学生：400円","website_url":null,"phone_number":"0261-72-6084","area":"長野県"}
{"id":18,"name":"泰阜村立学校美術館","location":"長野県下伊那郡泰阜村万場３８１７－２","business_hours":"9:00〜17:00","admission_fees":"入場料0円","website_url":null,"phone_number":"0260-26-2052","area":"長野県"}
{"id":19,"name":"須坂版画美術館平塚運一版画美術館","location":"長野県須坂市野辺１３８６－８","business_hours":"9:00〜17:00","admission_fees":"300円、中学生以下無料","website_url":null,"phone_number":"026-248-6633","area":"長野県"}
{"id":20,"name":"須坂アートパーク","location":"長野県須坂市野辺1386-8","business_hours":"―","admission_fees":"大人：300円小中学生：100円※特別企画展の場合は入館料変更あり","website_url":null,"phone_number":"026-245-2340","area":"長野県"}
{"id":21,"name":"アンフォルメル中川村美術館","location":"長野県上伊那郡中川村大草２１２４","business_hours":"午前10時〜午後5時（入館受付終了午後4時30分）","admission_fees":"一般 … 400円高校生以下 … 無料団体（一般） … 300円","website_url":null,"phone_number":"0265-88-2680","area":"長野県"}
{"id":22,"name":"伊那アルプス美術館","location":"長野県上伊那郡箕輪町大字中箕輪１４８００－５５","business_hours":"開館時間：10:00〜18:00日曜日：13:00〜18:00","admission_fees":"高校生以上：400円中学生以下：無料","website_url":null,"phone_number":"0265-70-7020","area":"長野県"}
{"id":23,"name":"京都造形芸術大学附属康耀堂美術館","location":"長野県茅野市豊平４７３４－２１５","business_hours":"開館時間：10:00〜17：00（最終入館時間16：30）","admission_fees":"一般（高、大生含む）：300円中学生以下：無料","website_url":null,"phone_number":"0266-71-6811","area":"長野県"}
{"id":24,"name":"野花の詩写真美術館","location":"長野県長野市松代町清野１９４８","business_hours":"営業時間：10：00〜17：00","admission_fees":"一般（高校生以上）：300円小中学生：200円","website_url":null,"phone_number":"026-278-7235","area":"長野県"}
{"id":25,"name":"水村喜一郎美術館","location":"長野県東御市本海野６４５","business_hours":"午前10時 ~ 午後5時","admission_fees":"一般　500円65歳以上　400円小中学生無料","website_url":null,"phone_number":"0268-71-5242","area":"長野県"}
{"id":1,"name":"田崎美術館","location":"長野県北佐久郡軽井沢町長倉横吹２１４１－２７９","business_hours":"5月〜11月　10：00〜17：00 5月〜 9月　10：00〜17：00             　10月〜11月 10：30〜16：30      ※　入館は閉館の30分前まで","admission_fees":"一　　 般 　 900円 未就学児　　無　料 小・中学生　400円 高　校　生　700円","website_url":null,"phone_number":"0267-45-1186","area":"長野県"}
{"id":13,"name":"茅野市美術館","location":"長野県茅野市塚原１－１－１","business_hours":"情報なし","admission_fees":"情報なし","website_url":null,"phone_number":"0266-82-8222","area":"長野県"}
