{"id": 1, "name": "箱根ガラスの森美術館", "location": "神奈川県足柄下郡箱根町仙石原940-48", "business_hours": "9:00~17:30(入館は17:00まで)", "admission_fees": "大人1500円、大高生1100円、小中生600円、シニア(65歳以上)1400円、障害者割引800円(本人と付添1名)", "website_url": null, "phone_number": "0460-86-3111", "area": "神奈川県"}
{"id": 2, "name": "彫刻の森美術館", "location": "神奈川県足柄下郡箱根町二ノ平1121", "business_hours": "9:00~17:00(入館は閉館30分前まで)", "admission_fees": "一般1600円、大学生・高校生1200円、中学生・小学生800円、障害者手帳(一般1000円、大学生・高校生700円、中学生・小学生500円)、毎週土曜日はファミリー優待日(保護者1名につき小・中学生5名まで無料)", "website_url": null, "phone_number": "0460-82-1161", "area": "神奈川県"}
{"id": 3, "name": "横浜美術館", "location": "神奈川県横浜市西区みなとみらい3-4-1", "business_hours": "10:00~17:30(閉館は18:00)", "admission_fees": "一般500円、高校・大学生300円、中学生100円、小学生以下無料(企画展は別料金)", "website_url": null, "phone_number": "045-221-0300", "area": "神奈川県"}
{"id": 4, "name": "箱根ラリック美術館", "location": "神奈川県足柄下郡箱根町仙石原186-1", "business_hours": "9:00~17:00(入館は16:30まで)", "admission_fees": "大人1500円、大学生・高校生・シニア(65歳以上)1300円、中学生・小学生800円", "website_url": null, "phone_number": "0460-84-2255", "area": "神奈川県"}
{"id": 5, "name": "平塚市美術館", "location": "神奈川県平塚市西八幡1-3-3", "business_hours": "9:30~17:00(入場は16:30まで)、月曜日休館(祝日の場合は翌日)、年末年始(12/29~1/3)", "admission_fees": "特集展:一般200円、高大生100円、企画展は展覧会ごとに異なります", "website_url": null, "phone_number": "0463-35-2111", "area": "神奈川県"}
{"id": 6, "name": "横須賀美術館", "location": "神奈川県横須賀市鴨居4-1", "business_hours": "10:00~18:00", "admission_fees": "一般310円、高校生・大学生・65歳以上210円、中学生以下無料", "website_url": null, "phone_number": "046-845-1211", "area": "神奈川県"}
{"id": 7, "name": "箱根美術館", "location": "神奈川県足柄下郡箱根町強羅1300", "business_hours": "4月~11月:9:30~16:30、12月~3月:9:30~16:00(最終入館は閉館30分前)、茶室真和亭:10:00~15:30", "admission_fees": "一般1300円、高大生600円、中学生以下無料、シニア割引1100円、障害者割引800円", "website_url": null, "phone_number": "046-082-2623", "area": "神奈川県"}
{"id": 8, "name": "岡本太郎美術館", "location": "神奈川県川崎市多摩区枡形7-1-5", "business_hours": "9:30~17:00(入館は16:30まで)", "admission_fees": "常設展:一般500円、高校・大学生・65歳以上300円、幼児・小中学生無料、企画展は別料金", "website_url": null, "phone_number": "044-900-9898", "area": "神奈川県"}
{"id": 9, "name": "中川一政美術館", "location": "神奈川県足柄下郡真鶴町真鶴1178-1", "business_hours": "9:30~16:30(入館は16:00まで)", "admission_fees": "大人600円、高校生以下350円、障害者無料", "website_url": null, "phone_number": "0465-68-1128", "area": "神奈川県"}
{"id": 10, "name": "箱根・芦ノ湖成川美術館", "location": "神奈川県足柄下郡箱根町元箱根570", "business_hours": "9:00~17:00", "admission_fees": "一般1300円、高・大学生900円、小・中学生600円、幼児無料", "website_url": null, "phone_number": "0460-83-6828", "area": "神奈川県"}
{"id": 11, "name": "茅ケ崎市美術館", "location": "神奈川県茅ヶ崎市東海岸北1-4-45", "business_hours": "10:00~18:00(11月~3月は17:00まで)(入館は閉館30分前まで)", "admission_fees": "一般200円、大学生100円、高校生以下・市内在住65歳以上無料", "website_url": null, "phone_number": "0467-88-1177", "area": "神奈川県"}
{"id": 12, "name": "箱根ドールハウス美術館", "location": "神奈川県足柄下郡箱根町芦之湯84-55", "business_hours": "4月~10月:10:00~17:30(最終入館17:00)、11月~3月:10:00~17:00(最終入館16:30)", "admission_fees": "大人1800円、学生(中高大)1500円、学生(小学校)1200円、未就学児無料、障害者手帳(本人と同伴者1名半額)", "website_url": null, "phone_number": "0460-85-1321", "area": "神奈川県"}
{"id": 13, "name": "湯河原美術館", "location": "神奈川県足柄下郡湯河原町宮上623-1", "business_hours": "9:00~16:30(入館は16:00まで)", "admission_fees": "大人600円、小・中学生300円", "website_url": null, "phone_number": "0465-63-7788", "area": "神奈川県"}
{"id": 14, "name": "鎌倉市鏑木清方記念美術館", "location": "神奈川県鎌倉市雪ノ下1-5-25", "business_hours": "9:00~17:00", "admission_fees": "一般200円、小・中学生100円", "website_url": null, "phone_number": "0467-23-6405", "area": "神奈川県"}
{"id": 15, "name": "近代美術館葉山", "location": "神奈川県三浦郡葉山町一色2208-1", "business_hours": "9:30~17:00(入場は16:30まで)、月曜日休館(祝日の場合は開館)、展示替期間休館(レストランと駐車場は営業)、年末年始(12/29~1/3)", "admission_fees": "展覧会によって異なります(カッコ内は20名以上の団体料金)", "website_url": null, "phone_number": "046-875-2800", "area": "神奈川県"}
{"id": 16, "name": "箱根武士の里美術館", "location": "神奈川県足柄下郡箱根町仙石原817-580", "business_hours": "4月~11月:10:00~17:00、12月~3月:10:00~16:00(閉館30分前)", "admission_fees": "大人(中学生以上)800円、中学生600円、小学生400円", "website_url": null, "phone_number": "0460-84-8177", "area": "神奈川県"}
{"id": 17, "name": "ポーラ美術館", "location": "神奈川県足柄下郡箱根町仙石原小塚山1285", "business_hours": "9:00~17:00(入館は16:30まで)", "admission_fees": "大人1800円、シニア割引(65歳以上)1600円、大学・高校生1300円、中学生以下無料、障害者手帳(本人と付添1名)1000円", "website_url": null, "phone_number": "0460-84-2111", "area": "神奈川県"}
{"id": 18, "name": "そごう美術館", "location": "神奈川県横浜市西区高島2-18-1 そごう横浜店6F", "business_hours": "10:00~19:30(閉館は20:00)", "admission_fees": "企画展により異なる", "website_url": null, "phone_number": "045-465-5515", "area": "神奈川県"}
{"id": 19, "name": "北鎌倉古民家ミュージアム", "location": "神奈川県鎌倉市山ノ内392-1", "business_hours": "10:00~17:00", "admission_fees": "一般500円、中高生300円、小学生200円", "website_url": null, "phone_number": "0467-25-5641", "area": "神奈川県"}
{"id": 20, "name": "川崎浮世絵ギャラリー", "location": "神奈川県川崎市川崎区駅前本町12-1", "business_hours": "11:00~18:30(入館は18:15まで)", "admission_fees": "一般500円、高校生以下無料", "website_url": null, "phone_number": "044-280-9511", "area": "神奈川県"}
{"id": 21, "name": "藤澤浮世絵館", "location": "神奈川県藤沢市辻堂神台2-2-2 ココテラス湘南7階", "business_hours": "10:00~19:00(入館は18:30まで)", "admission_fees": "無料", "website_url": null, "phone_number": "情報なし", "area": "神奈川県"}
{"id": 22, "name": "岡田美術館", "location": "神奈川県足柄下郡箱根町小涌谷493-1", "business_hours": "9:00~17:00(最終入館16:30)", "admission_fees": "一般・大学生2800円、小中高生1800円、前売券(一般・大学生2550円、小中高生1550円)", "website_url": null, "phone_number": "0460-87-3931", "area": "神奈川県"}
{"id": 23, "name": "国立映画アーカイブ 相模原分館", "location": "神奈川県相模原市中央区高根3-1-4", "business_hours": "11:00~18:30(入室は18:00まで)、毎月末金曜日11:00~20:00(入室は19:30まで)", "admission_fees": "一般250円、大学生130円、高校生以下無料", "website_url": null, "phone_number": "042-758-0128", "area": "神奈川県"}
{"id": 24, "name": "光と緑の美術館", "location": "神奈川県相模原市中央区横山3-6-18", "business_hours": "10:00~18:00", "admission_fees": "一般250円、高・大・65歳以上100円、中学生以下無料", "website_url": null, "phone_number": "042-757-7151", "area": "神奈川県"}
{"id": 25, "name": "中村正義の美術館", "location": "神奈川県川崎市麻生区細山7-2-8", "business_hours": "11:00~17:00", "admission_fees": "一般500円、65歳以上300円、学生300円、小中生200円", "website_url": null, "phone_number": "044-953-4936", "area": "神奈川県"}