{"id": 1, "name": "秋田県立美術館", "location": "秋田県秋田市中通1-4-2", "business_hours": "10:00~18:00(竿燈期間中などは延長の場合あり)", "admission_fees": "個人:一般310円、シニア(70歳以上)280円、大学生210円、高校生以下無料、特別展開催時は特別展料金", "website_url": null, "phone_number": "018-853-8686", "area": "秋田県"}
{"id": 2, "name": "仙北市平福記念美術館", "location": "秋田県仙北市角館町表町上丁4-4", "business_hours": "4月~11月:9:00~17:00、12月~3月:9:00~16:30(入場は閉館30分前まで)", "admission_fees": "大人(高校生以上)300円、小人(小中学生)200円", "website_url": null, "phone_number": "0187-54-3888", "area": "秋田県"}
{"id": 3, "name": "秋田県立近代美術館", "location": "秋田県横手市赤坂字富ケ沢62-46", "business_hours": "9:30~17:00", "admission_fees": "無料", "website_url": null, "phone_number": "0182-33-8855", "area": "秋田県"}
{"id": 4, "name": "千秋美術館", "location": "秋田県秋田市中通2-3-8", "business_hours": "10:00~18:00(入館は17:30まで)", "admission_fees": "一般300円(240円)、大学生200円(160円)、()内は20人以上団体割引料金", "website_url": null, "phone_number": "018-836-7860", "area": "秋田県"}
{"id": 5, "name": "鳥海山木のおもちゃ美術館", "location": "秋田県由利本荘市町村字鳴瀬台65-1", "business_hours": "9:00~16:00(最終入館は15:30)", "admission_fees": "大人800円、こども(小学生以下)600円", "website_url": null, "phone_number": "0184-74-9070", "area": "秋田県"}
{"id": 6, "name": "横手市増田まんが美術館", "location": "秋田県横手市増田町増田字新町285", "business_hours": "9:00~17:00(16:30までに入館)", "admission_fees": "常設展は無料(特別企画展は有料)", "website_url": null, "phone_number": "0182-45-5569", "area": "秋田県"}
{"id": 7, "name": "亀田城・佐藤八十八美術館", "location": "秋田県由利本荘市岩城下蛇田高城", "business_hours": "3月~10月:9:00~17:00、11月~2月:9:00~16:00", "admission_fees": "一般210円、学生無料", "website_url": null, "phone_number": "0184-74-2500", "area": "秋田県"}
{"id": 8, "name": "鎌鼬美術館", "location": "秋田県雄勝郡羽後町田代梺67-3", "business_hours": "9:00~16:30(11/23のみ10:00開館)", "admission_fees": "300円", "website_url": null, "phone_number": "0183-62-5009", "area": "秋田県"}