{"id": 1, "name": "ルーブル彫刻美術館", "location": "三重県津市白山町佐田1957", "business_hours": "9:30~17:00(入館は16:30まで)", "admission_fees": "大人(高校生以上)1500円、60歳以上・学生・障害者1000円、小人(小・中学生)800円、小学生未満無料、大観音寺との共通割引券(大人2000円、小人1000円)、前売り入場券1000円", "website_url": null, "phone_number": "059-262-1111", "area": "三重県"}
{"id": 2, "name": "三重県立美術館", "location": "三重県津市大谷町11", "business_hours": "9:30~17:00(最終入館16:30)", "admission_fees": "常設展示観覧料:一般300円、大学生(要学生証)200円、高校生以下無料(中学生以上は要学生証)、障害者割引あり(要証明書)、企画展観覧料:展覧会によって異なる", "website_url": null, "phone_number": "059-227-2100", "area": "三重県"}
{"id": 3, "name": "神宮徴古館", "location": "三重県伊勢市神田久志本町1754-1", "business_hours": "9:00~16:00(観覧は16:30まで)", "admission_fees": "三館共通券:大人700円、小・中学生200円", "website_url": null, "phone_number": "0596-22-1700", "area": "三重県"}
{"id": 4, "name": "神宮美術館", "location": "三重県伊勢市神田久志本町1754-1", "business_hours": "9:00~16:00(観覧は16:30まで)", "admission_fees": "大人500円、小・中学生100円、未就学児は無料", "website_url": null, "phone_number": "0596-22-5533", "area": "三重県"}
{"id": 5, "name": "伊賀市ミュージアム青山讃頌舎", "location": "三重県伊賀市別府718-3", "business_hours": "10:00~16:30(入館は16:00まで)", "admission_fees": "一般300円、高校生以下無料", "website_url": null, "phone_number": "0595-52-2100", "area": "三重県"}
{"id": 6, "name": "ORIBE美術館", "location": "三重県四日市市安島2-4-18", "business_hours": "10:00~17:00", "admission_fees": "一般400円、高・大生300円、中学生以下200円", "website_url": null, "phone_number": "059-351-2147", "area": "三重県"}
{"id": 7, "name": "小坡美術館", "location": "三重県伊勢市宇治浦田2-4-65", "business_hours": "9:30~16:00", "admission_fees": "一般300円、高大生200円、小中生100円", "website_url": null, "phone_number": "0596-22-2554", "area": "三重県"}
{"id": 8, "name": "伊勢現代美術館", "location": "三重県度会郡南伊勢町五ケ所浦湾場102-8", "business_hours": "10:00~17:00(入館受付は16:30まで)", "admission_fees": "一般700円、中高大生500円、小学生以下無料", "website_url": null, "phone_number": "0599-66-1138", "area": "三重県"}
{"id": 9, "name": "澄懐堂美術館", "location": "三重県四日市市水沢町2011", "business_hours": "10:00~16:00(入館は15:30まで)", "admission_fees": "大人800円、高・大学生500円、小・中学生300円", "website_url": null, "phone_number": "059-329-3335", "area": "三重県"}