{"id": 1, "name": "倉敷市立美術館", "location": "岡山県倉敷市中央2-6-1", "business_hours": "9:00~17:15", "admission_fees": "コレクション展:一般210円、大・高校生100円、小・中学生50円、65歳以上・倉敷市内の小・中学生・障害者手帳等お持ちの方と介護者1名無料", "website_url": null, "phone_number": "086-425-6034", "area": "岡山県"}
{"id": 2, "name": "やかげ郷土美術館", "location": "岡山県小田郡矢掛町矢掛3118-1", "business_hours": "9:00~17:00(入館は16:30まで)", "admission_fees": "常設展:一般200円、中高生100円、小学生50円", "website_url": null, "phone_number": "0866-82-2110", "area": "岡山県"}
{"id": 3, "name": "林原美術館", "location": "岡山県岡山市北区丸の内2-7-15", "business_hours": "10:00~17:00", "admission_fees": "一般500円、高校生300円", "website_url": null, "phone_number": "086-223-1733", "area": "岡山県"}
{"id": 4, "name": "岡山県立美術館", "location": "岡山県岡山市北区天神町8-48", "business_hours": "9:00~17:00(入館は閉館30分前まで)", "admission_fees": "一般350円、大学生250円、小中高生無料、65歳以上170円", "website_url": null, "phone_number": "086-225-4800", "area": "岡山県"}
{"id": 5, "name": "オリエント美術館", "location": "岡山県岡山市北区天神町9-31", "business_hours": "9:00~17:00(入館は16:30まで)", "admission_fees": "一般300円、高・大生200円、小・中学生100円 ※特別展は別料金", "website_url": null, "phone_number": "086-232-3636", "area": "岡山県"}
{"id": 6, "name": "倉敷刀剣美術館", "location": "岡山県倉敷市茶屋町173", "business_hours": "10:00~15:00(入館14:30まで)※悪天候時は予告なく閉館", "admission_fees": "1000円(1年間有効のパスポート制)※小学生以下入館不可", "website_url": null, "phone_number": "086-420-0066", "area": "岡山県"}
{"id": 7, "name": "大原美術館", "location": "岡山県倉敷市中央1-1-15", "business_hours": "9:00~17:00(最終入館16:30)", "admission_fees": "一般1500円、高校・中学・小学生500円 ※小学生未満は無料", "website_url": null, "phone_number": "086-422-0005", "area": "岡山県"}
{"id": 8, "name": "奈義町現代美術館", "location": "岡山県勝田郡奈義町豊沢441", "business_hours": "9:30~17:00(入館は16:30まで)", "admission_fees": "一般・大学生700円、高校生500円、中学・小学生300円 ※75歳以上無料", "website_url": null, "phone_number": "0868-36-5811", "area": "岡山県"}
{"id": 9, "name": "高梁市成羽美術館", "location": "岡山県高梁市成羽町下原1068-3", "business_hours": "9:30~17:00", "admission_fees": "一般500円、高大学生300円、小中学生200円 ※特別展・企画展会期中は特別料金", "website_url": null, "phone_number": "0866-42-4455", "area": "岡山県"}
{"id": 10, "name": "新見美術館", "location": "岡山県新見市西方361", "business_hours": "9:30~17:00(入館は16:30まで)", "admission_fees": "各展覧会案内を参照ください", "website_url": null, "phone_number": "0867-72-7851", "area": "岡山県"}
{"id": 11, "name": "吉備川上ふれあい漫画美術館", "location": "岡山県高梁市川上町地頭1834", "business_hours": "9:00~17:00", "admission_fees": "大人400円、高校生・大学生300円、小学生・中学生200円 ももっこカード提示世帯2割引、岡山県郷土文化財団会員証2割引、市内在住65歳以上・未就学児・市内に住所を有する小中学生(土日祝および学校休業日に限る)・身体障害者手帳、療育手帳または精神障害者保健福祉手帳をお持ちの方と介助者1名・学習活動で教職員に引率される市内の小中学生(引率教職員含む)・高梁川流域パスポート提示小学生(土日祝のみ)無料", "website_url": null, "phone_number": "0866-48-3664", "area": "岡山県"}
{"id": 12, "name": "高梁市歴史美術館", "location": "岡山県高梁市原田北町1203-1", "business_hours": "9:00~17:00(入館は16:30まで)", "admission_fees": "大人300円、小中学生150円、65歳以上・障害者無料", "website_url": null, "phone_number": "0866-21-0180", "area": "岡山県"}
{"id": 13, "name": "夢二郷土美術館分館夢二生家", "location": "岡山県瀬戸内市邑久町本庄1992", "business_hours": "9:00~17:00(入館は16:30まで)", "admission_fees": "大人500円、中高大学生250円、小学生200円", "website_url": null, "phone_number": "0869-22-3335", "area": "岡山県"}
{"id": 14, "name": "瀬戸内市立美術館", "location": "岡山県瀬戸内市牛窓町牛窓4911", "business_hours": "9:00~17:00(入館は16:30まで)", "admission_fees": "常設展:一般400円、65歳以上300円、中学生以下無料 特別展:別に定めます", "website_url": null, "phone_number": "0869-34-3130", "area": "岡山県"}
{"id": 15, "name": "竹喬美術館", "location": "岡山県笠岡市六番町1-17", "business_hours": "9:30~17:00(入館は16:30まで)", "admission_fees": "一般500円、高校生300円、市外小中学生150円、特別催事期間中は特別料金、65歳以上(証明書提示)・市内在住または市内小中学校に通学する小中学生(笠岡っ子無料パス提示)無料", "website_url": null, "phone_number": "0865-63-3967", "area": "岡山県"}
{"id": 16, "name": "吉永美術館", "location": "岡山県備前市吉永町吉永中885", "business_hours": "9:00~16:30(企画展の内容により変更有)", "admission_fees": "無料 ※特別展の時は別に定める", "website_url": null, "phone_number": "0869-84-2511", "area": "岡山県"}
{"id": 17, "name": "井原市立平櫛田中美術館", "location": "岡山県井原市井原町315", "business_hours": "9:00~17:00(入館は16:30まで)", "admission_fees": "一般500円、高校生以下・市内在住の65歳以上の方無料、特別展は別に定めます", "website_url": null, "phone_number": "0866-62-8787", "area": "岡山県"}
{"id": 18, "name": "猪風来美術館", "location": "岡山県新見市法曽609", "business_hours": "9:30~17:00", "admission_fees": "一般400円、高校生200円、中学生以下無料", "website_url": null, "phone_number": "0867-75-2444", "area": "岡山県"}
{"id": 19, "name": "かがみの近代美術館", "location": "岡山県苫田郡鏡野町奥津川西692", "business_hours": "9:00~18:00(入館受付は17:00まで)", "admission_fees": "700円(お飲み物付)、小学生以下無料", "website_url": null, "phone_number": "0868-52-0722", "area": "岡山県"}
{"id": 20, "name": "倉敷市立美術館", "location": "岡山県倉敷市中央2-6-1", "business_hours": "9:00~17:15", "admission_fees": "コレクション展:一般210円、大・高校生100円、小・中学生50円、65歳以上の方・倉敷市内の小・中学生・障害者手帳等お持ちの方と介護者1名無料", "website_url": null, "phone_number": "086-425-6034", "area": "岡山県"}
{"id": 21, "name": "やかげ郷土美術館", "location": "岡山県小田郡矢掛町矢掛3118-1", "business_hours": "9:00~17:00(入館は16:30まで)", "admission_fees": "常設展:一般200円、中高生100円、小学生50円", "website_url": null, "phone_number": "0866-82-2110", "area": "岡山県"}
{"id": 22, "name": "林原美術館", "location": "岡山県岡山市北区丸の内2-7-15", "business_hours": "10:00~17:00", "admission_fees": "一般500円、高校生300円", "website_url": null, "phone_number": "086-223-1733", "area": "岡山県"}
{"id": 23, "name": "岡山県立美術館", "location": "岡山県岡山市北区天神町8-48", "business_hours": "9:00~17:00(入館は閉館30分前まで)", "admission_fees": "一般350円、大学生250円、小中高生無料、65歳以上170円", "website_url": null, "phone_number": "086-225-4800", "area": "岡山県"}
{"id": 24, "name": "オリエント美術館", "location": "岡山県岡山市北区天神町9-31", "business_hours": "9:00~17:00(入館は16:30まで)", "admission_fees": "一般300円、高・大生200円、小・中学生100円、特別展は別料金", "website_url": null, "phone_number": "086-232-3636", "area": "岡山県"}
{"id": 25, "name": "倉敷刀剣美術館", "location": "岡山県倉敷市茶屋町173", "business_hours": "10:00~15:00(入館14:30まで)、悪天候時は予告なく閉館", "admission_fees": "1000円(1年間有効のパスポート制)、小学生以下入館不可", "website_url": null, "phone_number": "086-420-0066", "area": "岡山県"}
{"id": 26, "name": "大原美術館", "location": "岡山県倉敷市中央1-1-15", "business_hours": "9:00~17:00(最終入館16:30)", "admission_fees": "一般1500円、高校・中学・小学生500円、小学生未満無料", "website_url": null, "phone_number": "086-422-0005", "area": "岡山県"}
{"id": 27, "name": "奈義町現代美術館", "location": "岡山県勝田郡奈義町豊沢441", "business_hours": "9:30~17:00(入館は16:30まで)", "admission_fees": "一般・大学生700円、高校生500円、中学・小学生300円、75歳以上無料", "website_url": null, "phone_number": "0868-36-5811", "area": "岡山県"}
{"id": 28, "name": "高梁市成羽美術館", "location": "岡山県高梁市成羽町下原1068-3", "business_hours": "9:30~17:00", "admission_fees": "一般500円、高大学生300円、小中学生200円、特別展・企画展会期中は特別料金", "website_url": null, "phone_number": "0866-42-4455", "area": "岡山県"}
{"id": 29, "name": "新見美術館", "location": "岡山県新見市西方361", "business_hours": "9:30~17:00(入館は16:30まで)", "admission_fees": "各展覧会案内を参照", "website_url": null, "phone_number": "0867-72-7851", "area": "岡山県"}
{"id": 30, "name": "吉備川上ふれあい漫画美術館", "location": "岡山県高梁市川上町地頭1834", "business_hours": "9:00~17:00", "admission_fees": "大人400円、高校生・大学生300円、小学生・中学生200円、ももっこカード提示世帯は2割引、岡山県郷土文化財団会員証2割引、市内に住所を有する65歳以上の方、未就学児、市内に住所を有する小中学生(土曜、日曜、祝日および学校休業日に限る)、身体障害者手帳、療育手帳または精神障害者保健福祉手帳をお持ちの方と介助者1名、学習活動のため、教職員に引率されて観覧する市内の小中学生(引率教職員を含む)、高梁川流域パスポートを提示された小学生(土曜日、日曜日、祝日のみ)無料", "website_url": null, "phone_number": "0866-48-3664", "area": "岡山県"}
{"id": 31, "name": "高梁市歴史美術館", "location": "岡山県高梁市原田北町1203-1", "business_hours": "9:00~17:00(入館は16:30まで)", "admission_fees": "大人300円、小中学生150円、65歳以上・障害者無料", "website_url": null, "phone_number": "0866-21-0180", "area": "岡山県"}
{"id": 32, "name": "夢二郷土美術館分館 夢二生家", "location": "岡山県瀬戸内市邑久町本庄1992", "business_hours": "9:00~17:00(入館は16:30まで)", "admission_fees": "大人500円、中高大学生250円、小学生200円", "website_url": null, "phone_number": "0869-22-3335", "area": "岡山県"}
{"id": 33, "name": "瀬戸内市立美術館", "location": "岡山県瀬戸内市牛窓町牛窓4911", "business_hours": "9:00~17:00(入館は16:30まで)", "admission_fees": "常設展:一般400円、65歳以上300円、中学生以下無料、特別展:別に定めます", "website_url": null, "phone_number": "0869-34-3130", "area": "岡山県"}
{"id": 34, "name": "竹喬美術館", "location": "岡山県笠岡市六番町1-17", "business_hours": "9:30~17:00(入館は16:30まで)", "admission_fees": "個人:一般500円、高校生300円、市外小中学生150円、特別催事期間中は特別料金、65歳以上(運転免許証・保険証・高齢者施設利用証など生年月日が記載された証明証)、市内在住または市内小・中学校に通学する小・中学生(笠岡っ子無料パス)は無料", "website_url": null, "phone_number": "0865-63-3967", "area": "岡山県"}
{"id": 35, "name": "吉永美術館", "location": "岡山県備前市吉永町吉永中885", "business_hours": "9:00~16:30(企画展の内容により変更有)", "admission_fees": "無料、特別展の時は別に定める", "website_url": null, "phone_number": "0869-84-2511", "area": "岡山県"}
{"id": 36, "name": "井原市立平櫛田中美術館", "location": "岡山県井原市井原町315", "business_hours": "9:00~17:00(入館は16:30まで)", "admission_fees": "一般500円、高校生以下、市内在住の65歳以上の方無料、特別展は別に定めます", "website_url": null, "phone_number": "0866-62-8787", "area": "岡山県"}
{"id": 37, "name": "猪風来美術館", "location": "岡山県新見市法曽609", "business_hours": "9:30~17:00", "admission_fees": "一般400円、高校生200円、中学生以下無料", "website_url": null, "phone_number": "0867-75-2444", "area": "岡山県"}
{"id": 38, "name": "かがみの近代美術館", "location": "岡山県苫田郡鏡野町奥津川西692", "business_hours": "9:00~18:00(入館受付は17:00まで)", "admission_fees": "お一人様700円(お飲み物付)、小学生以下無料", "website_url": null, "phone_number": "0868-52-0722", "area": "岡山県"}