{"id": 1, "name": "京都市京セラ美術館（京都市美術館）", "location": "京都府京都市左京区岡崎円勝寺町124", "business_hours": "10:00~18:00(最終入場は展覧会により異なります)", "admission_fees": "展示内容によって異なります", "website_url": null, "phone_number": "075-771-4334", "area": "京都府"}
{"id": 2, "name": "京都国立近代美術館", "location": "京都府京都市左京区岡崎円勝寺町", "business_hours": "9:30~17:00(入館は16:30まで)", "admission_fees": "大人430円、大学生220円、高校生以下・18歳未満・65歳以上無料、企画展は別途", "website_url": null, "phone_number": "075-761-4111", "area": "京都府"}
{"id": 3, "name": "佐藤太清記念美術館", "location": "京都府福知山市岡ノ32-64", "business_hours": "9:00~17:00(入館は16:30まで)", "admission_fees": "常設展:個人(大人210円、こども100円)、団体(大人190円、こども90円)※こどもは小中学生、団体は30名以上 共通券(福知山城・郷工資料館):個人(大人470円、こども190円)、団体(大人450円、こども180円)※こどもは小中学生、団体は30名以上", "website_url": null, "phone_number": "0773-23-2316", "area": "京都府"}
{"id": 4, "name": "松花堂庭園・美術館", "location": "京都府八幡市八幡女郎花43", "business_hours": "9:00~17:00(入園・入館は16:30まで)", "admission_fees": "大人400円、学生300円、こども200円", "website_url": null, "phone_number": "075-981-0010", "area": "京都府"}
{"id": 5, "name": "堂本印象美術館", "location": "京都府京都市北区平野上柳町26-3", "business_hours": "9:30~17:00", "admission_fees": "一般500円、大・高校生400円、小・中学生200円、65歳以上・障害者手帳等お持ちの方と介護者1名無料", "website_url": null, "phone_number": "075-463-0007", "area": "京都府"}
{"id": 6, "name": "細見美術館", "location": "京都府京都市左京区岡崎最勝寺町6-3", "business_hours": "情報なし", "admission_fees": "情報なし", "website_url": null, "phone_number": "075-752-5555", "area": "京都府"}
{"id": 7, "name": "ZENBI鍵善良房KAGIZEN ART MUSEUM", "location": "京都府京都市東山区祇園町南側570-107", "business_hours": "情報なし", "admission_fees": "情報なし", "website_url": null, "phone_number": "075-561-2875", "area": "京都府"}
{"id": 8, "name": "樂美術館", "location": "京都府京都市上京区油小路通一条下る油橋詰町87-1", "business_hours": "10:00~16:30(入館は16:00まで)", "admission_fees": "展覧会により異なります", "website_url": null, "phone_number": "075-414-0304", "area": "京都府"}
{"id": 9, "name": "井伊美術館", "location": "京都府京都市東山区花見小路四条下ル4丁目小松町564", "business_hours": "13:00~17:00(入館は16:30まで)", "admission_fees": "大人1500円、大学・高校生1000円、小・中学生500円", "website_url": null, "phone_number": "075-525-3921", "area": "京都府"}
{"id": 10, "name": "堀川新文化ビルヂング", "location": "京都府京都市上京区皀莢町287", "business_hours": "情報なし", "admission_fees": "情報なし", "website_url": null, "phone_number": "075-431-5551", "area": "京都府"}
{"id": 11, "name": "聰山美術館", "location": "京都府南丹市美山町江和下黒田", "business_hours": "9:00~16:30", "admission_fees": "大人500円、高校生以下300円", "website_url": null, "phone_number": "0771-77-0330", "area": "京都府"}
{"id": 12, "name": "京都市美術館 別館", "location": "京都府京都市左京区岡崎最勝寺町13", "business_hours": "情報なし", "admission_fees": "情報なし", "website_url": null, "phone_number": "情報なし", "area": "京都府"}