{"id": 1, "name": "山口県立美術館", "location": "山口県山口市亀山町3-1", "business_hours": "9:00~17:00(入館は16:30まで)", "admission_fees": "一般300円、学生200円、70歳以上及び18歳以下の方無料、高等学校、中等教育学校、特別支援学校に在籍する方等は無料、特別展は展覧会毎に決定", "website_url": null, "phone_number": "083-925-7788", "area": "山口県"}
{"id": 2, "name": "下関市立美術館", "location": "山口県下関市長府黒門東町1-1", "business_hours": "9:30~17:00(入館は16:30まで)", "admission_fees": "所蔵品展:一般200円、大学生100円、18歳以下無料、70歳以上の方などの観覧料が免除、特別展の観覧料はその都度変わります", "website_url": null, "phone_number": "083-245-4131", "area": "山口県"}
{"id": 3, "name": "長門おもちゃ美術館", "location": "山口県長門市仙崎4297-1", "business_hours": "10:00~16:00(最終入館は15:30まで)", "admission_fees": "大人(中学生以上)700円、こども(1歳~小学生)500円、ペア券(大人+こども)1000円、市民大人400円、市民こども200円", "website_url": null, "phone_number": "0837-27-0337", "area": "山口県"}
{"id": 4, "name": "萩美術館・浦上記念館", "location": "山口県萩市平安古町586-1", "business_hours": "9:00~17:00(入館は16:30まで)", "admission_fees": "普通展示:一般300円、学生200円、70歳以上と18歳以下の方、および高等学校、中等教育学校、特別支援学校に在学する生徒は無料", "website_url": null, "phone_number": "0838-24-2400", "area": "山口県"}
{"id": 5, "name": "香月泰男美術館", "location": "山口県長門市三隅中226", "business_hours": "9:00~17:00(入館は16:30まで)", "admission_fees": "一般500円、小中高生200円、未就学児無料、その他、入館料が免除の場合あり", "website_url": null, "phone_number": "0837-43-2500", "area": "山口県"}
{"id": 6, "name": "柏原美術館", "location": "山口県岩国市横山2-10-27", "business_hours": "9:00~17:00、12月~2月は16:00閉館", "admission_fees": "大人800円、高・大学生500円、小・中学生200円、特別展中は料金が異なる場合があります", "website_url": null, "phone_number": "0827-41-0506", "area": "山口県"}
{"id": 7, "name": "和木美術館", "location": "山口県玖珂郡和木町和木1-3-1", "business_hours": "企画展により異なる", "admission_fees": "企画展により異なる", "website_url": null, "phone_number": "0827-54-1009", "area": "山口県"}