{"id": 1, "name": "和歌山県立近代美術館", "location": "和歌山県和歌山市吹上1-4-14", "business_hours": "9:30~17:00(入場は16:30まで)", "admission_fees": "常設展:一般340円、大学生230円 企画展:都度変わる 高校生以下、65歳以上、障がい者、県内に在学中の外国人留学生は常設展・企画展とも無料", "website_url": null, "phone_number": "073-436-8690", "area": "和歌山県"}
{"id": 2, "name": "田辺市立美術館", "location": "和歌山県田辺市たきない町24-43", "business_hours": "10:00~17:00(ただし、入館は16:30まで)", "admission_fees": "館蔵品展(小企画展)250円、特別展は都度定める、18歳未満・学生無料(学生証などの提示が必要)", "website_url": null, "phone_number": "0739-24-3770", "area": "和歌山県"}
{"id": 3, "name": "川久ミュージアム", "location": "和歌山県西牟婁郡白浜町3745", "business_hours": "情報なし", "admission_fees": "情報なし", "website_url": null, "phone_number": "0739-42-2662", "area": "和歌山県"}
{"id": 4, "name": "熊野古道なかへち美術館", "location": "和歌山県田辺市中辺路町近露892", "business_hours": "10:00~17:00(入館は16:30まで)", "admission_fees": "所蔵品展:大人250円、18歳未満・学生無料 特別展は入場料に変更があります", "website_url": null, "phone_number": "0739-65-0390", "area": "和歌山県"}
{"id": 5, "name": "龍神村曼荼羅美術館", "location": "和歌山県田辺市龍神村龍神203", "business_hours": "9:30~16:30", "admission_fees": "無料", "website_url": null, "phone_number": "0739-79-0512", "area": "和歌山県"}
{"id": 6, "name": "白浜美術館", "location": "和歌山県西牟婁郡白浜町坂田1-1", "business_hours": "8:30~17:00", "admission_fees": "大人500円", "website_url": null, "phone_number": "0739-42-2589", "area": "和歌山県"}