{"id": 1, "name": "熊本県立美術館", "location": "熊本県熊本市中央区二の丸2", "business_hours": "9:30~17:30(入館は16:45まで)", "admission_fees": "別棟展示室+本館二階展示室共通券:一般420円、大学生250円", "website_url": null, "phone_number": "096-352-2111", "area": "熊本県"}
{"id": 2, "name": "菊池夢美術館", "location": "熊本県菊池市大字隈府1273-1", "business_hours": "9:00~18:00(12月~2月は17:30まで)", "admission_fees": "無料", "website_url": null, "phone_number": "0968-25-0513", "area": "熊本県"}
{"id": 3, "name": "熊本県立美術館分館", "location": "熊本県熊本市中央区千葉城町2-18", "business_hours": "火~金:9:30~18:30、土日祝:9:30~17:15(入館は30分前まで)", "admission_fees": "無料", "website_url": null, "phone_number": "096-351-8411", "area": "熊本県"}
{"id": 4, "name": "つなぎ美術館", "location": "熊本県葦北郡津奈木町岩城494", "business_hours": "10:00~17:00(入館は16:30まで)", "admission_fees": "無料", "website_url": null, "phone_number": "0966-61-2222", "area": "熊本県"}
{"id": 5, "name": "熊本市現代美術館", "location": "熊本県熊本市中央区上通町2-3", "business_hours": "10:00~20:00(展覧会入場は19:30まで)、余震の状況により変更する場合あり", "admission_fees": "入館料無料(企画展示室を除く)", "website_url": null, "phone_number": "096-278-7500", "area": "熊本県"}
{"id": 6, "name": "不知火美術館", "location": "熊本県宇城市不知火町高良2352", "business_hours": "10:00~18:00(土日祝は10:00~17:00)(入館は閉館30分前まで)", "admission_fees": "大人300円、大学生・高校生200円", "website_url": null, "phone_number": "0964-32-6222", "area": "熊本県"}
{"id": 7, "name": "島田美術館", "location": "熊本県熊本市西区島崎4-5-28", "business_hours": "10:00~17:00(入場は16:30まで)", "admission_fees": "一般700円、大学・高校生400円、小・中学生200円、保護者同伴の小学生は無料", "website_url": null, "phone_number": "096-352-4597", "area": "熊本県"}
{"id": 8, "name": "坂本善三美術館", "location": "熊本県阿蘇郡小国町黒渕2877", "business_hours": "9:00~17:00(入館は30分前まで)", "admission_fees": "一般500円、高・大学生400円、小・中学生200円", "website_url": null, "phone_number": "0967-46-5732", "area": "熊本県"}
{"id": 9, "name": "星野富弘美術館", "location": "熊本県葦北郡芦北町大字湯浦1439-2", "business_hours": "9:00~17:00", "admission_fees": "一般(高校生以上)500円、16歳未満(中学生以下)300円、6歳未満(就学児未満)無料、障害者手帳をお持ちの方とその介護者1名5割引き", "website_url": null, "phone_number": "0966-86-1600", "area": "熊本県"}