{"id": 1, "name": "山梨県立美術館", "location": "山梨県甲府市貢川1-4-27", "business_hours": "9:00~17:00", "admission_fees": "コレクション展:一般510円、大学生210円、高校生以下・65歳以上・障害者手帳等お持ちの方と介護者1名無料、県民の日は無料", "website_url": null, "phone_number": "055-228-3322", "area": "山梨県"}
{"id": 2, "name": "河口湖美術館", "location": "山梨県南都留郡富士河口湖町河口3170", "business_hours": "9:30~17:00(入館は16:30まで)", "admission_fees": "大人・大学生800円、中・高校生500円、小学生以下無料", "website_url": null, "phone_number": "0555-73-2829", "area": "山梨県"}
{"id": 3, "name": "河口湖音楽と森の美術館", "location": "山梨県南都留郡富士河口湖町河口3077-20", "business_hours": "情報なし", "admission_fees": "情報なし", "website_url": null, "phone_number": "0555-20-4111", "area": "山梨県"}
{"id": 4, "name": "富士川・切り絵の森美術館", "location": "山梨県南巨摩郡身延町下山1597", "business_hours": "4月~9月:9:30~17:30、10月~3月:10:00~17:00(入館は閉館30分前まで)", "admission_fees": "一般500円、小・中学生200円", "website_url": null, "phone_number": "0556-62-4500", "area": "山梨県"}
{"id": 5, "name": "昇仙峡影絵の森美術館", "location": "山梨県甲府市高成町1035-2", "business_hours": "情報なし", "admission_fees": "情報なし", "website_url": null, "phone_number": "055-287-2511", "area": "山梨県"}
{"id": 6, "name": "韮崎大村美術館", "location": "山梨県韮崎市神山町鍋山1830-1", "business_hours": "4月~10月:10:00~18:00、11月~3月:10:00~17:00", "admission_fees": "一般500円、小・中・高校生200円", "website_url": null, "phone_number": "0551-23-7775", "area": "山梨県"}
{"id": 7, "name": "南アルプス市立美術館", "location": "山梨県南アルプス市小笠原1281", "business_hours": "情報なし", "admission_fees": "情報なし", "website_url": null, "phone_number": "055-282-6600", "area": "山梨県"}
{"id": 8, "name": "近藤浩一路記念南部町立美術館", "location": "山梨県南巨摩郡南部町大和360", "business_hours": "9:30~17:00(入館は16:30まで)", "admission_fees": "大人(常設展示)300円、小中学生(常設展示)200円", "website_url": null, "phone_number": "0556-62-9292", "area": "山梨県"}
{"id": 9, "name": "清春白樺美術館", "location": "山梨県北杜市長坂町中丸2072", "business_hours": "10:00~17:00(入館は16:30まで)", "admission_fees": "一般900円、大高生800円、小中学生600円", "website_url": null, "phone_number": "0551-32-4865", "area": "山梨県"}
{"id": 10, "name": "笛吹市青楓美術館", "location": "山梨県笛吹市一宮町北野呂3-3", "business_hours": "9:30~17:00(入館は16:30まで)", "admission_fees": "一般300円、高校・大学生200円、小・中学生100円", "website_url": null, "phone_number": "0553-47-2122", "area": "山梨県"}
{"id": 11, "name": "都留市増田誠美術館", "location": "山梨県都留市中央3-9-3", "business_hours": "9:00~17:00(入館は16:30まで)", "admission_fees": "特別展:一般600円、高校生・大学生400円、小学生・中学生200円、企画展・常設展:一般300円、高校生・大学生200円、小学生・中学生100円", "website_url": null, "phone_number": "0554-45-4111", "area": "山梨県"}
{"id": 12, "name": "須玉美術館", "location": "山梨県北杜市須玉町若神子4495-18", "business_hours": "情報なし", "admission_fees": "情報なし", "website_url": null, "phone_number": "0551-42-5007", "area": "山梨県"}
{"id": 13, "name": "藪内正幸美術館", "location": "山梨県北杜市白州町鳥原2913-71", "business_hours": "10:00~17:00(入館は16:00まで)", "admission_fees": "大人(高校生以上)500円、小人(小・中学生)200円、就学前児童無料、ショップのみの利用無料", "website_url": null, "phone_number": "0551-35-0088", "area": "山梨県"}