{"id":1,"name":"足立美術館","location":"島根県安来市古川町320","business_hours":"夏　季 \\t4月-9月 \\t9:00-17:30冬　季 \\t10月-3月 \\t9:00-17:00 新館への入場（本館・新館連絡通路の通行）は、閉館15分前まで  新館休館日    平成28年4月26日 7月14日    10月20日〜21日 11月14日〜15日    平成29年2月2日","admission_fees":"大　人 \\t2,300円大学生 \\t1,800円高校生 \\t1,000円小中生 \\t500円","website_url":null,"phone_number":"0854-28-7111","area":"島根県県"}
{"id":2,"name":"島根県立美術館","location":"島根県松江市袖師町１－５","business_hours":"【10月〜2月】10:00〜18:30【3月〜9月】10:00〜日没後30分","admission_fees":"【企画展】一般1,000円   大学生600円 小中高生300円【コレクション展】一般300円   大学生200円小中高生 無料","website_url":null,"phone_number":"0852-55-4700","area":"島根県県"}
{"id":3,"name":"安野光雅美術館","location":"島根県鹿足郡津和野町後田イ６０－１","business_hours":"午前9：00〜午後5：00（最終入館午後4：45）","admission_fees":"一般800円中高生400円小学生250円","website_url":null,"phone_number":"0856-72-4155","area":"島根県県"}
{"id":4,"name":"奥出雲鉄の彫刻美術館","location":"島根県仁多郡奥出雲町八川２５００－３４","business_hours":"10：00〜16：00","admission_fees":"無料","website_url":null,"phone_number":"0854-52-3111","area":"島根県県"}
{"id":5,"name":"石正美術館","location":"島根県浜田市三隅町古市場５８９","business_hours":"9時〜17時まで開館。特別な催しのある場合は夜8時まで開館","admission_fees":"一般\\t　600円\\t高校・大学生　300円\\t小・中学生　200円","website_url":null,"phone_number":"0855-32-4388","area":"島根県県"}
{"id":6,"name":"浜田市世界こども美術館","location":"島根県浜田市野原町８５９－１","business_hours":"9:30〜17:00","admission_fees":"常設展示大人100円小・中学生20円高・大学生60円　特別展示別額","website_url":null,"phone_number":"0855-23-8451","area":"島根県県"}
{"id":7,"name":"石見美術館","location":"島根県益田市有明町５－１５","business_hours":"10:00〜18:30（展示室への入場は18:00まで）","admission_fees":"■企画展一般1,000円、大学生600円、小中高生300円■コレクション展一般300円、大学生200円、小中高生無料■セット券一般1,150円、大学生700円、小中高生300円","website_url":null,"phone_number":"0856-31-1860","area":"島根県県"}
{"id":8,"name":"田部美術館","location":"島根県松江市北堀町３１０－５","business_hours":"9時〜17時（入館は16時30分迄）","admission_fees":"大人620円、高・大学生410円、中学生以下無料","website_url":null,"phone_number":"0852-26-2211","area":"島根県県"}
{"id":9,"name":"加納美術館","location":"島根県安来市広瀬町布部３４５－２７","business_hours":"午前9：00〜午後16：30（入館は16：00まで）","admission_fees":"一般1000円学生500円","website_url":null,"phone_number":"0854-36-0880","area":"島根県県"}
{"id":10,"name":"資料室はぜくら（津和野美術館）","location":"島根県鹿足郡津和野町後田ロ１９７","business_hours":"１０:００〜１６：００（資料室はぜくら）.","admission_fees":"300円（資料室はぜくら）.","website_url":null,"phone_number":"0856-72-0120","area":"島根県県"}
{"id":11,"name":"足立美術館","location":"島根県安来市古川町320","business_hours":"夏　季 \\t4月-9月 \\t9:00-17:30冬　季 \\t10月-3月 \\t9:00-17:00 新館への入場（本館・新館連絡通路の通行）は、閉館15分前まで  新館休館日    平成28年4月26日 7月14日    10月20日〜21日 11月14日〜15日    平成29年2月2日","admission_fees":"大　人 \\t2,300円大学生 \\t1,800円高校生 \\t1,000円小中生 \\t500円","website_url":null,"phone_number":"0854-28-7111","area":"島根県"}
{"id":12,"name":"島根県立美術館","location":"島根県松江市袖師町１－５","business_hours":"【10月〜2月】10:00〜18:30【3月〜9月】10:00〜日没後30分","admission_fees":"【企画展】一般1,000円   大学生600円 小中高生300円【コレクション展】一般300円   大学生200円小中高生 無料","website_url":null,"phone_number":"0852-55-4700","area":"島根県"}
{"id":13,"name":"安野光雅美術館","location":"島根県鹿足郡津和野町後田イ６０－１","business_hours":"午前9：00〜午後5：00（最終入館午後4：45）","admission_fees":"一般800円中高生400円小学生250円","website_url":null,"phone_number":"0856-72-4155","area":"島根県"}
{"id":14,"name":"奥出雲鉄の彫刻美術館","location":"島根県仁多郡奥出雲町八川２５００－３４","business_hours":"10：00〜16：00","admission_fees":"無料","website_url":null,"phone_number":"0854-52-3111","area":"島根県"}
{"id":15,"name":"石正美術館","location":"島根県浜田市三隅町古市場５８９","business_hours":"9時〜17時まで開館。特別な催しのある場合は夜8時まで開館","admission_fees":"一般\\t　600円\\t高校・大学生　300円\\t小・中学生　200円","website_url":null,"phone_number":"0855-32-4388","area":"島根県"}
{"id":16,"name":"浜田市世界こども美術館","location":"島根県浜田市野原町８５９－１","business_hours":"9:30〜17:00","admission_fees":"常設展示大人100円小・中学生20円高・大学生60円　特別展示別額","website_url":null,"phone_number":"0855-23-8451","area":"島根県"}
{"id":17,"name":"石見美術館","location":"島根県益田市有明町５－１５","business_hours":"10:00〜18:30（展示室への入場は18:00まで）","admission_fees":"■企画展一般1,000円、大学生600円、小中高生300円■コレクション展一般300円、大学生200円、小中高生無料■セット券一般1,150円、大学生700円、小中高生300円","website_url":null,"phone_number":"0856-31-1860","area":"島根県"}
{"id":18,"name":"田部美術館","location":"島根県松江市北堀町３１０－５","business_hours":"9時〜17時（入館は16時30分迄）","admission_fees":"大人620円、高・大学生410円、中学生以下無料","website_url":null,"phone_number":"0852-26-2211","area":"島根県"}
{"id":19,"name":"加納美術館","location":"島根県安来市広瀬町布部３４５－２７","business_hours":"午前9：00〜午後16：30（入館は16：00まで）","admission_fees":"一般1000円学生500円","website_url":null,"phone_number":"0854-36-0880","area":"島根県"}
{"id":20,"name":"資料室はぜくら（津和野美術館）","location":"島根県鹿足郡津和野町後田ロ１９７","business_hours":"１０:００〜１６：００（資料室はぜくら）.","admission_fees":"300円（資料室はぜくら）.","website_url":null,"phone_number":"0856-72-0120","area":"島根県"}
