{"id":1,"name":"ＭＯＡ美術館","location":"静岡県熱海市桃山町26-2","business_hours":"9：30〜16：30（最終入館 16：00）","admission_fees":"大人：1,600円シニア（65歳以上）：1,400円高・大学生：1000円中学生以下：無料","website_url":null,"phone_number":"0557-84-2511","area":"静岡県県"}
{"id":2,"name":"静岡県立美術館","location":"静岡県静岡市駿河区谷田５３－２","business_hours":"午前10時〜午後5時30分（展示室への入室は午後5時まで)","admission_fees":"収蔵品展観覧料 一般：300円大学生以下・70歳以上：無料","website_url":null,"phone_number":"054-263-5755","area":"静岡県県"}
{"id":3,"name":"佐野美術館","location":"静岡県三島市中田町1-43","business_hours":"10：00〜17：00（入館の受付は16：30まで）","admission_fees":"展覧会により異なる","website_url":null,"phone_number":"055-975-7278","area":"静岡県県"}
{"id":4,"name":"東海道広重美術館","location":"静岡県静岡市清水区由比２９７－１","business_hours":"午前9時〜午後5時(入館は閉館の30分前まで)","admission_fees":"一般　510円大学生・高校生　300円中学生・小学生　120円","website_url":null,"phone_number":"054-375-4454","area":"静岡県県"}
{"id":5,"name":"掛川市二の丸美術館","location":"静岡県掛川市掛川１１４２－１","business_hours":"9時から17時（入館は16時30分まで）","admission_fees":"大人　200円 中学生まで　無料","website_url":null,"phone_number":"0537-62-2061","area":"静岡県県"}
{"id":6,"name":"澤田政廣記念美術館","location":"静岡県熱海市梅園町９－４６","business_hours":"9:00〜16:30","admission_fees":"大人：大人:310円高校生：高校生:210円 高校生・大学生小学生：小学生:100円 小学生・中学生　●毎週土・日曜日は小・中学生は無料","website_url":null,"phone_number":"0557-81-9211","area":"静岡県県"}
{"id":7,"name":"静岡市美術館","location":"静岡県静岡市葵区紺屋町１７－１","business_hours":"10:00〜19:00","admission_fees":"展覧会によって異なる","website_url":null,"phone_number":"054-273-1515","area":"静岡県県"}
{"id":9,"name":"秋野不矩美術館","location":"静岡県浜松市天竜区二俣町二俣１３０","business_hours":"午前9時30分〜午後5時","admission_fees":"展覧会により異なる。・大人　300〜800円・高校生　150〜500円・小学生・中学生　無料〜300円","website_url":null,"phone_number":"0539-22-0315","area":"静岡県県"}
{"id":10,"name":"浜松市美術館","location":"静岡県浜松市中央区松城町１００－１","business_hours":"午前9時30分から午後5時まで（最終入館は午後4時30分まで） ※展覧会により開館時間及び閉館時間が異なる場合があります。","admission_fees":"大人：300円高校生：150円 小中学生：無料特別展・企画展開催中は別料金になります。","website_url":null,"phone_number":"053-454-6801","area":"静岡県県"}
{"id":11,"name":"伊豆の長八美術館","location":"静岡県賀茂郡松崎町松崎２３","business_hours":"9:00〜17:00","admission_fees":"大人500円【中学生以下無料】","website_url":null,"phone_number":"0558-42-2540","area":"静岡県県"}
{"id":12,"name":"ベルナール・ビュフェ美術館","location":"静岡県駿東郡長泉町東野５１５－５７","business_hours":"1月 10:00〜16:302・3月 10:00〜17:004・5・6・7・8月 10:00〜18:009・10月 10:00〜17:0011・12月 10:00〜16:30","admission_fees":"大人 1,000円高・大学生 500円中学生以下 無料","website_url":null,"phone_number":"055-986-1300","area":"静岡県県"}
{"id":13,"name":"静岡陶芸美術館","location":"静岡県沼津市東椎路５０－１","business_hours":"10:00〜17:00（入館は16:30まで）","admission_fees":"大人\\t1000円中・高校生\\t400円小学生以下　無料","website_url":null,"phone_number":"055-919-3456","area":"静岡県県"}
{"id":14,"name":"沼津市庄司美術館・モンミュゼ沼津","location":"静岡県沼津市下一丁田９００－１","business_hours":"10：00〜17：00","admission_fees":"大人200円小人100円（小中学生）（市内の小中学生無料）","website_url":null,"phone_number":"055-952-8711","area":"静岡県県"}
{"id":15,"name":"かんなみ仏の里美術館","location":"静岡県田方郡函南町桑原８９－１","business_hours":"午前10：00〜午後4：30","admission_fees":"大人300円、小中学生100円、65歳以上200円","website_url":null,"phone_number":"055-948-9330","area":"静岡県県"}
{"id":16,"name":"横井照子富士美術館","location":"静岡県富士市中野４６４","business_hours":"10:00〜16:00","admission_fees":"500円（学生・子供・75歳以上無料）","website_url":null,"phone_number":"0545-36-0470","area":"静岡県県"}
{"id":17,"name":"時之栖美術館","location":"静岡県御殿場市神山７１９","business_hours":"【4〜10月】9:00〜18:00(最終入館17:30)【11〜3月】9:00〜17:00(最終入館16:30)","admission_fees":"無料","website_url":null,"phone_number":"0550-87-5016","area":"静岡県県"}
{"id":18,"name":"駿府の工房　匠宿","location":"静岡県静岡市駿河区丸子","business_hours":"10：00〜19：00","admission_fees":"無料※各種体験コース毎に料金設定あり","website_url":null,"phone_number":"054-256-1521","area":"静岡県県"}
{"id":19,"name":"上原美術館","location":"静岡県下田市宇土金３４１","business_hours":"午前9時〜午後5時(入館は午後4時30分まで)","admission_fees":"大人1,000円／学生500円／高校生以下無料","website_url":null,"phone_number":"0558-28-1228","area":"静岡県県"}
{"id":20,"name":"ＭＯＡ美術館","location":"静岡県熱海市桃山町26-2","business_hours":"9：30〜16：30（最終入館 16：00）","admission_fees":"大人：1,600円シニア（65歳以上）：1,400円高・大学生：1000円中学生以下：無料","website_url":null,"phone_number":"0557-84-2511","area":"静岡県"}
{"id":21,"name":"静岡県立美術館","location":"静岡県静岡市駿河区谷田５３－２","business_hours":"午前10時〜午後5時30分（展示室への入室は午後5時まで)","admission_fees":"収蔵品展観覧料 一般：300円大学生以下・70歳以上：無料","website_url":null,"phone_number":"054-263-5755","area":"静岡県"}
{"id":22,"name":"佐野美術館","location":"静岡県三島市中田町1-43","business_hours":"10：00〜17：00（入館の受付は16：30まで）","admission_fees":"展覧会により異なる","website_url":null,"phone_number":"055-975-7278","area":"静岡県"}
{"id":23,"name":"東海道広重美術館","location":"静岡県静岡市清水区由比２９７－１","business_hours":"午前9時〜午後5時(入館は閉館の30分前まで)","admission_fees":"一般　510円大学生・高校生　300円中学生・小学生　120円","website_url":null,"phone_number":"054-375-4454","area":"静岡県"}
{"id":24,"name":"掛川市二の丸美術館","location":"静岡県掛川市掛川１１４２－１","business_hours":"9時から17時（入館は16時30分まで）","admission_fees":"大人　200円 中学生まで　無料","website_url":null,"phone_number":"0537-62-2061","area":"静岡県"}
{"id":25,"name":"澤田政廣記念美術館","location":"静岡県熱海市梅園町９－４６","business_hours":"9:00〜16:30","admission_fees":"大人：大人:310円高校生：高校生:210円 高校生・大学生小学生：小学生:100円 小学生・中学生　●毎週土・日曜日は小・中学生は無料","website_url":null,"phone_number":"0557-81-9211","area":"静岡県"}
{"id":26,"name":"静岡市美術館","location":"静岡県静岡市葵区紺屋町１７－１","business_hours":"10:00〜19:00","admission_fees":"展覧会によって異なる","website_url":null,"phone_number":"054-273-1515","area":"静岡県"}
{"id":27,"name":"芹沢銈介美術館","location":"静岡県静岡市駿河区登呂５丁目１０－５","business_hours":"9:00 〜 16:30","admission_fees":"一般420円 / 高校生・大学生250円 / 小学生・中学生100円 / 未就学児無料","website_url":null,"phone_number":"054-282-5522","area":"静岡県"}
{"id":28,"name":"秋野不矩美術館","location":"静岡県浜松市天竜区二俣町二俣１３０","business_hours":"午前9時30分〜午後5時","admission_fees":"展覧会により異なる。・大人　300〜800円・高校生　150〜500円・小学生・中学生　無料〜300円","website_url":null,"phone_number":"0539-22-0315","area":"静岡県"}
{"id":29,"name":"浜松市美術館","location":"静岡県浜松市中央区松城町１００－１","business_hours":"午前9時30分から午後5時まで（最終入館は午後4時30分まで） ※展覧会により開館時間及び閉館時間が異なる場合があります。","admission_fees":"大人：300円高校生：150円 小中学生：無料特別展・企画展開催中は別料金になります。","website_url":null,"phone_number":"053-454-6801","area":"静岡県"}
{"id":30,"name":"伊豆の長八美術館","location":"静岡県賀茂郡松崎町松崎２３","business_hours":"9:00〜17:00","admission_fees":"大人500円【中学生以下無料】","website_url":null,"phone_number":"0558-42-2540","area":"静岡県"}
{"id":31,"name":"ベルナール・ビュフェ美術館","location":"静岡県駿東郡長泉町東野５１５－５７","business_hours":"1月 10:00〜16:302・3月 10:00〜17:004・5・6・7・8月 10:00〜18:009・10月 10:00〜17:0011・12月 10:00〜16:30","admission_fees":"大人 1,000円高・大学生 500円中学生以下 無料","website_url":null,"phone_number":"055-986-1300","area":"静岡県"}
{"id":32,"name":"静岡陶芸美術館","location":"静岡県沼津市東椎路５０－１","business_hours":"10:00〜17:00（入館は16:30まで）","admission_fees":"大人\\t1000円中・高校生\\t400円小学生以下　無料","website_url":null,"phone_number":"055-919-3456","area":"静岡県"}
{"id":33,"name":"沼津市庄司美術館・モンミュゼ沼津","location":"静岡県沼津市下一丁田９００－１","business_hours":"10：00〜17：00","admission_fees":"大人200円小人100円（小中学生）（市内の小中学生無料）","website_url":null,"phone_number":"055-952-8711","area":"静岡県"}
{"id":34,"name":"かんなみ仏の里美術館","location":"静岡県田方郡函南町桑原８９－１","business_hours":"午前10：00〜午後4：30","admission_fees":"大人300円、小中学生100円、65歳以上200円","website_url":null,"phone_number":"055-948-9330","area":"静岡県"}
{"id":8,"name":"芹沢銈介美術館","location":"静岡県静岡市駿河区登呂５丁目１０－５","business_hours":"9:00 〜 16:30","admission_fees":"一般420円 / 高校生・大学生250円 / 小学生・中学生100円 / 未就学児無料","website_url":null,"phone_number":"054-282-5522","area":"静岡県県"}
{"id":35,"name":"横井照子富士美術館","location":"静岡県富士市中野４６４","business_hours":"10:00〜16:00","admission_fees":"500円（学生・子供・75歳以上無料）","website_url":null,"phone_number":"0545-36-0470","area":"静岡県"}
{"id":36,"name":"時之栖美術館","location":"静岡県御殿場市神山７１９","business_hours":"【4〜10月】9:00〜18:00(最終入館17:30)【11〜3月】9:00〜17:00(最終入館16:30)","admission_fees":"無料","website_url":null,"phone_number":"0550-87-5016","area":"静岡県"}
{"id":37,"name":"駿府の工房　匠宿","location":"静岡県静岡市駿河区丸子","business_hours":"10：00〜19：00","admission_fees":"無料※各種体験コース毎に料金設定あり","website_url":null,"phone_number":"054-256-1521","area":"静岡県"}
{"id":38,"name":"上原美術館","location":"静岡県下田市宇土金３４１","business_hours":"午前9時〜午後5時(入館は午後4時30分まで)","admission_fees":"大人1,000円／学生500円／高校生以下無料","website_url":null,"phone_number":"0558-28-1228","area":"静岡県"}
