{"id":1,"name":"名古屋市美術館","location":"愛知県名古屋市中区栄二丁目17番25号(芸術と科学の杜・白川公園内)","business_hours":"午前9時30分〜午後5時、金曜日は午後8時まで（祝日にあたる場合は除く）※入場は閉館の30分前まで","admission_fees":"個人　　　　団体一般　　　　　　　　　300円　　　250円高校・大学生　　　 200円　　　150円65歳以上の方　　 100円　　　  80円中学生以下　　　　無料　　　　無料","website_url":null,"phone_number":"052-212-0001","area":"愛知県県"}
{"id":2,"name":"豊田市美術館","location":"愛知県豊田市小坂本町８丁目５－１","business_hours":"10：00〜17：30(入場は17：00まで)レストラン「TERRACE」も同様","admission_fees":"通常(展示により異なる場合あり）一般：1,400円高校・大学生：1,000円中学生以下：無料豊田市内在住・在学の高校生：無料豊田市在住７５歳以上：無料(要証明)","website_url":null,"phone_number":"0565-34-6610","area":"愛知県県"}
{"id":3,"name":"徳川美術館","location":"愛知県名古屋市東区徳川町1017","business_hours":"午前10時〜午後5時（入館は午後4時30分まで）","admission_fees":"一般：1200円高・大生：700円小・中生：500円","website_url":null,"phone_number":"052-935-6262","area":"愛知県県"}
{"id":4,"name":"愛知県美術館（愛知芸術文化センター）","location":"愛知県名古屋市東区東桜１丁目１３－２ 愛知芸術文化センター10階","business_hours":"10：00〜18：00金曜日は20：00まで（入館は閉館時刻の30分前まで）","admission_fees":"■コレクション展一般：500円高校・大学生：300円中学生以下：無料 ■企画展そのつど定めます","website_url":null,"phone_number":"052-971-5511","area":"愛知県県"}
{"id":5,"name":"マスプロ美術館","location":"愛知県日進市浅田町上納80番地","business_hours":"9：00〜17：00入館は閉館の３０分前","admission_fees":"一般：５００円学生：２５０円","website_url":null,"phone_number":"052-804-6666","area":"愛知県県"}
{"id":6,"name":"刈谷市美術館","location":"愛知県刈谷市住吉町４丁目５","business_hours":"午前9時から午後5時（入館は午後4時30分まで）","admission_fees":"常設展の入場料金は無料有料展の入場料金については展覧会ごとに変わります。","website_url":null,"phone_number":"0566-23-1636","area":"愛知県県"}
{"id":7,"name":"三河工芸ガラス美術館","location":"愛知県西尾市富山町東郷５","business_hours":"10時－17時30分(最終入館17:00)","admission_fees":"一般(中学生以上)７００円小学生４５０円幼児(３歳以上)３００円 ※大人1人につき幼児1人無料","website_url":null,"phone_number":"0563-59-3334","area":"愛知県県"}
{"id":8,"name":"はるひ美術館","location":"愛知県清須市春日夢の森１","business_hours":"午前10時 〜 午後7時 （入館は午後6時30分まで）","admission_fees":"常設展\\t一般\\t高校生以上　２００円\\t中学生以下　　　無料\\t団体\\t高校生以上　１６０円\\t中学生以下　　　無料\\t団体料金は２０名以上\\t特別展\\t特別展により異なります。","website_url":null,"phone_number":"052-401-3881","area":"愛知県県"}
{"id":9,"name":"やきものの里かわら美術館","location":"愛知県高浜市青木町９丁目６－１８","business_hours":"午前10時〜午後5時 （観覧券の販売は、午後4時30分まで）※施設利用は午後9時まで可","admission_fees":"常設展示：無料企画展：大人（高校生以上）２００円特別展：特別展により異なります。小人（中学生以下）は無料","website_url":null,"phone_number":"0566-52-3366","area":"愛知県県"}
{"id":10,"name":"三岸節子記念美術館","location":"愛知県一宮市小信中島郷南３１４７－１","business_hours":"9：00〜17：00（入館は16：30まで）","admission_fees":"一般：320円高校生・大学生：210円小中学生：110円","website_url":null,"phone_number":"0586-63-2892","area":"愛知県県"}
{"id":11,"name":"メナード美術館","location":"愛知県小牧市小牧五丁目250番地","business_hours":"10時から17時（最終入館16時30分まで）","admission_fees":"一般 1,000円 （800円）高大生 600円 （500円）小中生 300円 （250円） ※（　）内は20名以上の団体料金および前売料金※ 障害者手帳（ミライロID可）、被爆者健康手帳、戦傷病者手帳、特定医療費受給者証をお持ちの方および同行者1名は無料。入館時に受付でご提示ください。","website_url":null,"phone_number":"0568-75-5787","area":"愛知県県"}
{"id":12,"name":"愛知県陶磁美術館","location":"愛知県瀬戸市南山口町２３４","business_hours":"午前９時３０分から午後４時３０分まで（入館は午後４時まで） ７月１日から９月３０日は午前９時３０分から午後５時まで（入館は午後４時３０分まで）","admission_fees":"常設展およびテーマ展示一般：400円高校生・大学生：300円中学生以下：無料 企画展および特別企画展は別料金有","website_url":null,"phone_number":"0561-84-4932","area":"愛知県県"}
{"id":13,"name":"名都美術館","location":"愛知県長久手市杁ケ池301番地","business_hours":"午前10時〜午後5時","admission_fees":"一般　600円大学生　300円中高生　150円","website_url":null,"phone_number":"0561-62-8884","area":"愛知県県"}
{"id":15,"name":"貨幣・浮世絵ミュージアム","location":"愛知県名古屋市中区錦3-21-24 三菱ＵＦＪ銀行名古屋ビル１階","business_hours":"9:00〜16:00（入館は15:30まで）","admission_fees":"無料","website_url":null,"phone_number":"052-300-8686","area":"愛知県県"}
{"id":14,"name":"荻須記念美術館","location":"愛知県稲沢市稲沢町前田３６５－８","business_hours":"9：30〜17：00","admission_fees":"常設展示室　一般：310円　大・高校生：210円　小・中学生：50円　市内の小・中学生、市内の障害者手帳等お持ちの方と介護者1名：無料","website_url":null,"phone_number":"0587-23-3300","area":"愛知県県"}
{"id":16,"name":"岡崎市美術館","location":"愛知県岡崎市明大寺町字茶園１１－３","business_hours":"10時から19時まで(10月〜5月は18時まで)","admission_fees":"【無料】市内の中学生以下","website_url":null,"phone_number":"0564-51-4280","area":"愛知県県"}
{"id":17,"name":"藤井達吉現代美術館","location":"愛知県碧南市音羽町１丁目１","business_hours":"・ 開館時間　午前１０時〜午後６時・ 特別展の観覧時間　午前１０時〜午後６時　※入場は観覧時間の終了の３０分前まで","admission_fees":"入館料　無料観覧料　　展覧会ごとに定めます小学生未満の方は無料","website_url":null,"phone_number":"0566-48-6602","area":"愛知県県"}
{"id":18,"name":"かみや美術館","location":"愛知県半田市有脇町１０丁目８－９","business_hours":"午前１０時〜午後４時","admission_fees":"大人：５００円、小・中・高校生：３００円","website_url":null,"phone_number":"0569-29-2626","area":"愛知県県"}
{"id":19,"name":"古川美術館","location":"愛知県名古屋市千種区池下町２丁目５０","business_hours":"午前10時〜午後5時（入館は午後4時30分まで）","admission_fees":"単館券800円〜※展覧会内容によって入館料が変動します。","website_url":null,"phone_number":"052-763-1991","area":"愛知県県"}
{"id":20,"name":"春日井市道風記念館","location":"愛知県春日井市松河戸町5丁目9番地3","business_hours":"9：00〜16：30","admission_fees":"【通常】一般：100円高校・大学生：50円中学生以下無料【特別展】一般：500円高校・大学生：300円中学生以下無料","website_url":null,"phone_number":"0568-82-6110","area":"愛知県県"}
{"id":21,"name":"小原和紙美術館","location":"愛知県豊田市永太郎町洞２１６－１","business_hours":"情報なし","admission_fees":"情報なし","website_url":null,"phone_number":"0565-65-2151","area":"愛知県県"}
{"id":22,"name":"ヤマザキマザック美術館","location":"愛知県名古屋市東区葵1-19-30","business_hours":"平日 10時から17時30分土日祝 10時から17時(最終入館は閉館30分前まで)","admission_fees":"■通常料金一般1,000円団体（10名以上）800円小・中・高生500円小学生未満無料","website_url":null,"phone_number":"052-937-3737","area":"愛知県県"}
{"id":23,"name":"茶臼山高原の美術館","location":"愛知県北設楽郡豊根村字坂宇場御所平７０－１８５","business_hours":"4月 9：00〜16：005月〜10月 9：00〜16：30","admission_fees":"一般400円、小中学生150円","website_url":null,"phone_number":"0536-87-2345","area":"愛知県県"}
{"id":24,"name":"横山美術館","location":"愛知県名古屋市東区葵","business_hours":"午前10時〜午後5時（最終入館時間 午後4時30分）","admission_fees":"【企画展開催時】一般：1,000円（800円） / 高・大学生・65歳以上：800円（600円）/ 中学生：600円（400円）/ 小学生以下：無料 / 障がい者手帳をお持ちの方：700円（500円）【常設展のみ開催時】一般：700円（500円） / 高・大学生・65歳以上：500円（300円）/ 中学生：400円（300円）/ 小学生以下：無料 / 障がい者手帳をお持ちの方：400円（300円）＊（ ）内は20名以上の団体料金","website_url":null,"phone_number":"052-931-0006","area":"愛知県県"}
{"id":25,"name":"文化のみち　堀美術館","location":"愛知県名古屋市東区主税町4丁目4－2","business_hours":"情報なし","admission_fees":"情報なし","website_url":null,"phone_number":"情報なし","area":"愛知県県"}
{"id":46,"name":"小原和紙美術館","location":"愛知県豊田市永太郎町洞２１６－１","business_hours":"情報なし","admission_fees":"情報なし","website_url":null,"phone_number":"0565-65-2151","area":"愛知県"}
{"id":28,"name":"徳川美術館","location":"愛知県名古屋市東区徳川町1017","business_hours":"午前10時〜午後5時（入館は午後4時30分まで）","admission_fees":"一般：1200円高・大生：700円小・中生：500円","website_url":null,"phone_number":"052-935-6262","area":"愛知県"}
{"id":29,"name":"愛知県美術館（愛知芸術文化センター）","location":"愛知県名古屋市東区東桜１丁目１３－２ 愛知芸術文化センター10階","business_hours":"10：00〜18：00金曜日は20：00まで（入館は閉館時刻の30分前まで）","admission_fees":"■コレクション展一般：500円高校・大学生：300円中学生以下：無料 ■企画展そのつど定めます","website_url":null,"phone_number":"052-971-5511","area":"愛知県"}
{"id":26,"name":"名古屋市美術館","location":"愛知県名古屋市中区栄二丁目17番25号(芸術と科学の杜・白川公園内)","business_hours":"午前9時30分〜午後5時、金曜日は午後8時まで（祝日にあたる場合は除く）※入場は閉館の30分前まで","admission_fees":"個人　　　　団体一般　　　　　　　　　300円　　　250円高校・大学生　　　 200円　　　150円65歳以上の方　　 100円　　　  80円中学生以下　　　　無料　　　　無料","website_url":null,"phone_number":"052-212-0001","area":"愛知県"}
{"id":27,"name":"豊田市美術館","location":"愛知県豊田市小坂本町８丁目５－１","business_hours":"10：00〜17：30(入場は17：00まで)レストラン「TERRACE」も同様","admission_fees":"通常(展示により異なる場合あり）一般：1,400円高校・大学生：1,000円中学生以下：無料豊田市内在住・在学の高校生：無料豊田市在住７５歳以上：無料(要証明)","website_url":null,"phone_number":"0565-34-6610","area":"愛知県"}
{"id":30,"name":"マスプロ美術館","location":"愛知県日進市浅田町上納80番地","business_hours":"9：00〜17：00入館は閉館の３０分前","admission_fees":"一般：５００円学生：２５０円","website_url":null,"phone_number":"052-804-6666","area":"愛知県"}
{"id":31,"name":"刈谷市美術館","location":"愛知県刈谷市住吉町４丁目５","business_hours":"午前9時から午後5時（入館は午後4時30分まで）","admission_fees":"常設展の入場料金は無料有料展の入場料金については展覧会ごとに変わります。","website_url":null,"phone_number":"0566-23-1636","area":"愛知県"}
{"id":32,"name":"三河工芸ガラス美術館","location":"愛知県西尾市富山町東郷５","business_hours":"10時－17時30分(最終入館17:00)","admission_fees":"一般(中学生以上)７００円小学生４５０円幼児(３歳以上)３００円 ※大人1人につき幼児1人無料","website_url":null,"phone_number":"0563-59-3334","area":"愛知県"}
{"id":33,"name":"はるひ美術館","location":"愛知県清須市春日夢の森１","business_hours":"午前10時 〜 午後7時 （入館は午後6時30分まで）","admission_fees":"常設展\\t一般\\t高校生以上　２００円\\t中学生以下　　　無料\\t団体\\t高校生以上　１６０円\\t中学生以下　　　無料\\t団体料金は２０名以上\\t特別展\\t特別展により異なります。","website_url":null,"phone_number":"052-401-3881","area":"愛知県"}
{"id":34,"name":"やきものの里かわら美術館","location":"愛知県高浜市青木町９丁目６－１８","business_hours":"午前10時〜午後5時 （観覧券の販売は、午後4時30分まで）※施設利用は午後9時まで可","admission_fees":"常設展示：無料企画展：大人（高校生以上）２００円特別展：特別展により異なります。小人（中学生以下）は無料","website_url":null,"phone_number":"0566-52-3366","area":"愛知県"}
{"id":35,"name":"三岸節子記念美術館","location":"愛知県一宮市小信中島郷南３１４７－１","business_hours":"9：00〜17：00（入館は16：30まで）","admission_fees":"一般：320円高校生・大学生：210円小中学生：110円","website_url":null,"phone_number":"0586-63-2892","area":"愛知県"}
{"id":36,"name":"メナード美術館","location":"愛知県小牧市小牧五丁目250番地","business_hours":"10時から17時（最終入館16時30分まで）","admission_fees":"一般 1,000円 （800円）高大生 600円 （500円）小中生 300円 （250円） ※（　）内は20名以上の団体料金および前売料金※ 障害者手帳（ミライロID可）、被爆者健康手帳、戦傷病者手帳、特定医療費受給者証をお持ちの方および同行者1名は無料。入館時に受付でご提示ください。","website_url":null,"phone_number":"0568-75-5787","area":"愛知県"}
{"id":37,"name":"愛知県陶磁美術館","location":"愛知県瀬戸市南山口町２３４","business_hours":"午前９時３０分から午後４時３０分まで（入館は午後４時まで） ７月１日から９月３０日は午前９時３０分から午後５時まで（入館は午後４時３０分まで）","admission_fees":"常設展およびテーマ展示一般：400円高校生・大学生：300円中学生以下：無料 企画展および特別企画展は別料金有","website_url":null,"phone_number":"0561-84-4932","area":"愛知県"}
{"id":38,"name":"名都美術館","location":"愛知県長久手市杁ケ池301番地","business_hours":"午前10時〜午後5時","admission_fees":"一般　600円大学生　300円中高生　150円","website_url":null,"phone_number":"0561-62-8884","area":"愛知県"}
{"id":39,"name":"荻須記念美術館","location":"愛知県稲沢市稲沢町前田３６５－８","business_hours":"9：30〜17：00","admission_fees":"常設展示室　一般：310円　大・高校生：210円　小・中学生：50円　市内の小・中学生、市内の障害者手帳等お持ちの方と介護者1名：無料","website_url":null,"phone_number":"0587-23-3300","area":"愛知県"}
{"id":40,"name":"貨幣・浮世絵ミュージアム","location":"愛知県名古屋市中区錦3-21-24 三菱ＵＦＪ銀行名古屋ビル１階","business_hours":"9:00〜16:00（入館は15:30まで）","admission_fees":"無料","website_url":null,"phone_number":"052-300-8686","area":"愛知県"}
{"id":41,"name":"岡崎市美術館","location":"愛知県岡崎市明大寺町字茶園１１－３","business_hours":"10時から19時まで(10月〜5月は18時まで)","admission_fees":"【無料】市内の中学生以下","website_url":null,"phone_number":"0564-51-4280","area":"愛知県"}
{"id":42,"name":"藤井達吉現代美術館","location":"愛知県碧南市音羽町１丁目１","business_hours":"・ 開館時間　午前１０時〜午後６時・ 特別展の観覧時間　午前１０時〜午後６時　※入場は観覧時間の終了の３０分前まで","admission_fees":"入館料　無料観覧料　　展覧会ごとに定めます小学生未満の方は無料","website_url":null,"phone_number":"0566-48-6602","area":"愛知県"}
{"id":43,"name":"かみや美術館","location":"愛知県半田市有脇町１０丁目８－９","business_hours":"午前１０時〜午後４時","admission_fees":"大人：５００円、小・中・高校生：３００円","website_url":null,"phone_number":"0569-29-2626","area":"愛知県"}
{"id":44,"name":"古川美術館","location":"愛知県名古屋市千種区池下町２丁目５０","business_hours":"午前10時〜午後5時（入館は午後4時30分まで）","admission_fees":"単館券800円〜※展覧会内容によって入館料が変動します。","website_url":null,"phone_number":"052-763-1991","area":"愛知県"}
{"id":45,"name":"春日井市道風記念館","location":"愛知県春日井市松河戸町5丁目9番地3","business_hours":"9：00〜16：30","admission_fees":"【通常】一般：100円高校・大学生：50円中学生以下無料【特別展】一般：500円高校・大学生：300円中学生以下無料","website_url":null,"phone_number":"0568-82-6110","area":"愛知県"}
{"id":47,"name":"ヤマザキマザック美術館","location":"愛知県名古屋市東区葵1-19-30","business_hours":"平日 10時から17時30分土日祝 10時から17時(最終入館は閉館30分前まで)","admission_fees":"■通常料金一般1,000円団体（10名以上）800円小・中・高生500円小学生未満無料","website_url":null,"phone_number":"052-937-3737","area":"愛知県"}
{"id":48,"name":"茶臼山高原の美術館","location":"愛知県北設楽郡豊根村字坂宇場御所平７０－１８５","business_hours":"4月 9：00〜16：005月〜10月 9：00〜16：30","admission_fees":"一般400円、小中学生150円","website_url":null,"phone_number":"0536-87-2345","area":"愛知県"}
{"id":50,"name":"文化のみち　堀美術館","location":"愛知県名古屋市東区主税町4丁目4－2","business_hours":"情報なし","admission_fees":"情報なし","website_url":null,"phone_number":"情報なし","area":"愛知県"}
{"id":49,"name":"横山美術館","location":"愛知県名古屋市東区葵","business_hours":"午前10時〜午後5時（最終入館時間 午後4時30分）","admission_fees":"【企画展開催時】一般：1,000円（800円） / 高・大学生・65歳以上：800円（600円）/ 中学生：600円（400円）/ 小学生以下：無料 / 障がい者手帳をお持ちの方：700円（500円）【常設展のみ開催時】一般：700円（500円） / 高・大学生・65歳以上：500円（300円）/ 中学生：400円（300円）/ 小学生以下：無料 / 障がい者手帳をお持ちの方：400円（300円）＊（ ）内は20名以上の団体料金","website_url":null,"phone_number":"052-931-0006","area":"愛知県"}
