{"id":1,"name":"宮崎県立美術館","location":"宮崎県宮崎市船塚３丁目２１０","business_hours":"10：00〜18：00（展示室への入室は17：30まで）","admission_fees":"・ コレクション展は観覧無料です。  ・ 特別展はそのつど定めます。・ アートシアター、映像ブース、美術図書室の利用は無料。","website_url":null,"phone_number":"0985-20-3792","area":"宮崎県県"}
{"id":2,"name":"都城市立美術館","location":"宮崎県都城市姫城町７－１８","business_hours":"午前9時〜午後5時(入館は午後4時30分まで)","admission_fees":"常設展：無料特別企画展：有料(その都度入館料が設定されます。)","website_url":null,"phone_number":"0986-25-1447","area":"宮崎県県"}
{"id":3,"name":"高鍋町美術館","location":"宮崎県児湯郡高鍋町南高鍋６９１６－１","business_hours":"午前10時〜午後5時（入館は午後4時30分まで）","admission_fees":"大　人 ：210円（168円） 小中高生 ：100円（80円）小学生未満 ：無　料 特別展：展覧会によって異なります。","website_url":null,"phone_number":"0983-23-8887","area":"宮崎県県"}
{"id":4,"name":"宮崎県立美術館","location":"宮崎県宮崎市船塚３丁目２１０","business_hours":"10：00〜18：00（展示室への入室は17：30まで）","admission_fees":"・ コレクション展は観覧無料です。  ・ 特別展はそのつど定めます。・ アートシアター、映像ブース、美術図書室の利用は無料。","website_url":null,"phone_number":"0985-20-3792","area":"宮崎県"}
{"id":5,"name":"都城市立美術館","location":"宮崎県都城市姫城町７－１８","business_hours":"午前9時〜午後5時(入館は午後4時30分まで)","admission_fees":"常設展：無料特別企画展：有料(その都度入館料が設定されます。)","website_url":null,"phone_number":"0986-25-1447","area":"宮崎県"}
{"id":6,"name":"高鍋町美術館","location":"宮崎県児湯郡高鍋町南高鍋６９１６－１","business_hours":"午前10時〜午後5時（入館は午後4時30分まで）","admission_fees":"大　人 ：210円（168円） 小中高生 ：100円（80円）小学生未満 ：無　料 特別展：展覧会によって異なります。","website_url":null,"phone_number":"0983-23-8887","area":"宮崎県"}
