{"id":1,"name":"福岡アジア美術館","location":"福岡県福岡市博多区下川端町３－１","business_hours":"午前10時開館　午後8時閉館（入室は午後7時30分まで）","admission_fees":"入館料：無料 観覧料：アジアギャラリー  一　　般　200円（150円）高・大生　150円（100円）中学生以下　無料 ※特別展観覧料は別に定めます。（　）内は、20人以上の団体料金","website_url":null,"phone_number":"092-263-1100","area":"福岡県県"}
{"id":2,"name":"福岡市美術館","location":"福岡県福岡市中央区大濠公園１－６","business_hours":"9:30〜17:30（入館は17:00まで）7〜8月は19:30まで開館（入館は19:00まで）ただし日曜・祝日を除く","admission_fees":"常設展示一般200円高大生150円小中生以下無料 ＊次の手帳等をご提示の方は無料。療育手帳・身体障害者手帳・精神障害者保健福祉手帳（以上は介護者1人を含む）／特定医療費（指定難病）受給者証／特定疾患医療受給者証／先天性血液凝固因子障害等医療受給者証／小児慢性特定疾病医療受給者証／福岡市、北九州市、熊本市、鹿児島市在住、住所と65歳以上を確認できる証明書","website_url":null,"phone_number":"092-714-6051","area":"福岡県県"}
{"id":3,"name":"石橋正二郎記念館","location":"福岡県久留米市野中町１０１５","business_hours":"情報なし","admission_fees":"情報なし","website_url":null,"phone_number":"0942-39-1131","area":"福岡県県"}
{"id":4,"name":"福岡県立美術館","location":"福岡県福岡市中央区天神５丁目２－１","business_hours":"【展覧会】午前10時〜午後6時（入場は午後5時30分まで）","admission_fees":"それぞれの展覧会に料金を設定しています","website_url":null,"phone_number":"092-715-3551","area":"福岡県県"}
{"id":5,"name":"北九州市立美術館","location":"福岡県北九州市戸畑区西鞘ケ谷町２１－１","business_hours":"9：30〜17：30但し、入館は17：00まで","admission_fees":"一般：150円高大生：100円小中生：50円","website_url":null,"phone_number":"093-882-7777","area":"福岡県県"}
{"id":6,"name":"伊都郷土美術館","location":"福岡県糸島市前原東２丁目２－８","business_hours":"情報なし","admission_fees":"情報なし","website_url":null,"phone_number":"092-322-5661","area":"福岡県県"}
{"id":7,"name":"北九州市立美術館分館","location":"福岡県北九州市小倉北区室町１丁目１－１－１","business_hours":"午前10時から午後8時（入館は午後7時30分まで）","admission_fees":"企画展により観覧料が異なります。","website_url":null,"phone_number":"093-562-3215","area":"福岡県県"}
{"id":12,"name":"秋月美術館","location":"福岡県朝倉市秋月野鳥６９５－１","business_hours":"情報なし","admission_fees":"情報なし","website_url":null,"phone_number":"0946-25-0895","area":"福岡県県"}
{"id":25,"name":"出光美術館（門司）","location":"福岡県北九州市門司区東港町２－３","business_hours":"情報なし","admission_fees":"情報なし","website_url":null,"phone_number":"093-332-0251","area":"福岡県"}
{"id":26,"name":"直方市美術館","location":"福岡県直方市殿町１０－３５","business_hours":"午前9時30分から午後5時30分（ただし、入館は午後5時まで）","admission_fees":"一般：100円大学生・高校生：50円中学生以下および障がい者の方：無料 土曜日は、高校生は入館無料","website_url":null,"phone_number":"0949-22-0038","area":"福岡県"}
{"id":27,"name":"九州産業大学美術館","location":"福岡県福岡市東区松香台２丁目３－１","business_hours":"情報なし","admission_fees":"情報なし","website_url":null,"phone_number":"092-673-5160","area":"福岡県"}
{"id":28,"name":"田川市美術館","location":"福岡県田川市新町１１－５６","business_hours":"9時30分〜17時30分(入館は17時まで)","admission_fees":"一般100円・高大生50円・小中生30円毎週土曜日は高校生以下無料","website_url":null,"phone_number":"0947-42-6161","area":"福岡県"}
{"id":29,"name":"秋月美術館","location":"福岡県朝倉市秋月野鳥６９５－１","business_hours":"情報なし","admission_fees":"情報なし","website_url":null,"phone_number":"0946-25-0895","area":"福岡県"}
{"id":30,"name":"添田町美術館","location":"福岡県田川郡添田町大字添田１７８８－２","business_hours":"10：00〜17：00","admission_fees":"無料","website_url":null,"phone_number":"0947-82-3325","area":"福岡県"}
{"id":31,"name":"大牟田市ともだちや絵本美術館","location":"福岡県大牟田市若宮町２－１","business_hours":"情報なし","admission_fees":"情報なし","website_url":null,"phone_number":"0944-32-8050","area":"福岡県"}
{"id":32,"name":"中村美術館","location":"福岡県田川市大字弓削田３７８２－１","business_hours":"情報なし","admission_fees":"情報なし","website_url":null,"phone_number":"0947-42-1018","area":"福岡県"}
{"id":33,"name":"行橋市増田美術館","location":"福岡県行橋市行事５丁目４－３８","business_hours":"10時から17時まで（入館は16時半までに）","admission_fees":"・一般　500円、・高校生・大学生　300円、・中学生以下　無料","website_url":null,"phone_number":"0930-23-1824","area":"福岡県"}
{"id":34,"name":"黒川ＩＮＮ美術館","location":"福岡県朝倉市黒川１５４６－１","business_hours":"情報なし","admission_fees":"情報なし","website_url":null,"phone_number":"0946-29-0590","area":"福岡県"}
{"id":8,"name":"出光美術館（門司）","location":"福岡県北九州市門司区東港町２－３","business_hours":"情報なし","admission_fees":"情報なし","website_url":null,"phone_number":"093-332-0251","area":"福岡県県"}
{"id":9,"name":"直方市美術館","location":"福岡県直方市殿町１０－３５","business_hours":"午前9時30分から午後5時30分（ただし、入館は午後5時まで）","admission_fees":"一般：100円大学生・高校生：50円中学生以下および障がい者の方：無料 土曜日は、高校生は入館無料","website_url":null,"phone_number":"0949-22-0038","area":"福岡県県"}
{"id":10,"name":"九州産業大学美術館","location":"福岡県福岡市東区松香台２丁目３－１","business_hours":"情報なし","admission_fees":"情報なし","website_url":null,"phone_number":"092-673-5160","area":"福岡県県"}
{"id":11,"name":"田川市美術館","location":"福岡県田川市新町１１－５６","business_hours":"9時30分〜17時30分(入館は17時まで)","admission_fees":"一般100円・高大生50円・小中生30円毎週土曜日は高校生以下無料","website_url":null,"phone_number":"0947-42-6161","area":"福岡県県"}
{"id":13,"name":"添田町美術館","location":"福岡県田川郡添田町大字添田１７８８－２","business_hours":"10：00〜17：00","admission_fees":"無料","website_url":null,"phone_number":"0947-82-3325","area":"福岡県県"}
{"id":14,"name":"大牟田市ともだちや絵本美術館","location":"福岡県大牟田市若宮町２－１","business_hours":"情報なし","admission_fees":"情報なし","website_url":null,"phone_number":"0944-32-8050","area":"福岡県県"}
{"id":15,"name":"中村美術館","location":"福岡県田川市大字弓削田３７８２－１","business_hours":"情報なし","admission_fees":"情報なし","website_url":null,"phone_number":"0947-42-1018","area":"福岡県県"}
{"id":16,"name":"行橋市増田美術館","location":"福岡県行橋市行事５丁目４－３８","business_hours":"10時から17時まで（入館は16時半までに）","admission_fees":"・一般　500円、・高校生・大学生　300円、・中学生以下　無料","website_url":null,"phone_number":"0930-23-1824","area":"福岡県県"}
{"id":17,"name":"黒川ＩＮＮ美術館","location":"福岡県朝倉市黒川１５４６－１","business_hours":"情報なし","admission_fees":"情報なし","website_url":null,"phone_number":"0946-29-0590","area":"福岡県県"}
{"id":18,"name":"福岡アジア美術館","location":"福岡県福岡市博多区下川端町３－１","business_hours":"午前10時開館　午後8時閉館（入室は午後7時30分まで）","admission_fees":"入館料：無料 観覧料：アジアギャラリー  一　　般　200円（150円）高・大生　150円（100円）中学生以下　無料 ※特別展観覧料は別に定めます。（　）内は、20人以上の団体料金","website_url":null,"phone_number":"092-263-1100","area":"福岡県"}
{"id":19,"name":"福岡市美術館","location":"福岡県福岡市中央区大濠公園１－６","business_hours":"9:30〜17:30（入館は17:00まで）7〜8月は19:30まで開館（入館は19:00まで）ただし日曜・祝日を除く","admission_fees":"常設展示一般200円高大生150円小中生以下無料 ＊次の手帳等をご提示の方は無料。療育手帳・身体障害者手帳・精神障害者保健福祉手帳（以上は介護者1人を含む）／特定医療費（指定難病）受給者証／特定疾患医療受給者証／先天性血液凝固因子障害等医療受給者証／小児慢性特定疾病医療受給者証／福岡市、北九州市、熊本市、鹿児島市在住、住所と65歳以上を確認できる証明書","website_url":null,"phone_number":"092-714-6051","area":"福岡県"}
{"id":20,"name":"石橋正二郎記念館","location":"福岡県久留米市野中町１０１５","business_hours":"情報なし","admission_fees":"情報なし","website_url":null,"phone_number":"0942-39-1131","area":"福岡県"}
{"id":21,"name":"福岡県立美術館","location":"福岡県福岡市中央区天神５丁目２－１","business_hours":"【展覧会】午前10時〜午後6時（入場は午後5時30分まで）","admission_fees":"それぞれの展覧会に料金を設定しています","website_url":null,"phone_number":"092-715-3551","area":"福岡県"}
{"id":22,"name":"北九州市立美術館","location":"福岡県北九州市戸畑区西鞘ケ谷町２１－１","business_hours":"9：30〜17：30但し、入館は17：00まで","admission_fees":"一般：150円高大生：100円小中生：50円","website_url":null,"phone_number":"093-882-7777","area":"福岡県"}
{"id":23,"name":"伊都郷土美術館","location":"福岡県糸島市前原東２丁目２－８","business_hours":"情報なし","admission_fees":"情報なし","website_url":null,"phone_number":"092-322-5661","area":"福岡県"}
{"id":24,"name":"北九州市立美術館分館","location":"福岡県北九州市小倉北区室町１丁目１－１－１","business_hours":"午前10時から午後8時（入館は午後7時30分まで）","admission_fees":"企画展により観覧料が異なります。","website_url":null,"phone_number":"093-562-3215","area":"福岡県"}
