{"id":49,"name":"森ビル　デジタルアート　ミュージアム：エプソン　チームラボボーダレス","location":"東京都港区麻布台1-2-4","business_hours":"情報なし","admission_fees":"情報なし","website_url":null,"phone_number":"情報なし","area":"東京都"}
{"id":3,"name":"東京都美術館","location":"東京都台東区上野公園8-36","business_hours":"9:30〜17：00","admission_fees":"企画展示による","website_url":null,"phone_number":"03-3823-6921","area":"東京都県"}
{"id":33,"name":"東京都美術館","location":"東京都台東区上野公園8-36","business_hours":"9:30〜17：00","admission_fees":"企画展示による","website_url":null,"phone_number":"03-3823-6921","area":"東京都"}
{"id":48,"name":"目黒区美術館","location":"東京都目黒区目黒２丁目４－３６","business_hours":"10:00〜18:00（入館は17:30まで）","admission_fees":"観覧料は展覧会ごとに異なります","website_url":null,"phone_number":"03-3714-1201","area":"東京都"}
{"id":50,"name":"東京都写真美術館","location":"東京都目黒区三田１丁目１３－３","business_hours":"10:00〜18:00（木曜日・金曜日は20:00まで）※入館は閉館の30分前まで","admission_fees":"開催展覧会・上映会によって料金が異なる","website_url":null,"phone_number":"03-3280-0099","area":"東京都"}
{"id":51,"name":"出光美術館","location":"東京都千代田区丸の内3-1-1 帝劇ビル9階","business_hours":"午前10時〜午後5時（入館は午後4時30分まで） 毎週金曜日は午前10時〜午後7時（入館は午後6時30分まで","admission_fees":"一般1,000円／高・大生700円（団体20名以上 各200円引） 中学生以下無料（ただし保護者の同伴が必要です） ※障害者手帳をお持ちの方は200円引、その介護者1名は無料です※7月20日（土）〜31日（水）は「学生無料ウィーク」を開催します ※当館に常設展示はございません。","website_url":null,"phone_number":"03-5777-8600","area":"東京都"}
{"id":52,"name":"松濤美術館","location":"東京都渋谷区松濤２丁目１４－１４","business_hours":"特別展期間中：午前10時〜午後6時（金曜のみ午後8時まで） 公募展・小中学生絵画展・サロン展期間中：午前9時〜午後5時 最終入館はいずれも閉館30分前までです。","admission_fees":"展覧会によって異なります","website_url":null,"phone_number":"03-3465-9421","area":"東京都"}
{"id":53,"name":"永青文庫","location":"東京都文京区目白台1-1-1","business_hours":"10：00〜16：30(入館は16：00まで)","admission_fees":"一　般：800円（700円）シニア（70歳以上）：600円（500円）大学・高校生：400円※(　)内は10名以上の団体料金※中学生以下、障害者手帳をご提示の方及びその介助者（1名）は無料※ 別館サロンは別途200円（不定休）","website_url":null,"phone_number":"03-3941-0850","area":"東京都"}
{"id":54,"name":"草間彌生美術館","location":"東京都新宿区弁天町１０７","business_hours":"木・金・土・日曜日および国民の祝日11:00－17:30","admission_fees":"一般　1,000円（税込）　小中高生　600円（税込）入場は日時指定の完全予約・定員制（各回90分）。毎月１日10:00（日本時間）に翌々月分のチケット販売を開始。 購入後の日時変更、払い戻しは不可。天候等により安全が確保できない場合は5階を閉鎖。ショップの利用は、チケットで入場している方のみ。","website_url":null,"phone_number":"03-5273-1778","area":"東京都"}
{"id":55,"name":"太田記念美術館","location":"東京都渋谷区神宮前1-10-10","business_hours":"情報なし","admission_fees":"情報なし","website_url":null,"phone_number":"03-3403-0880","area":"東京都"}
{"id":8,"name":"岡本太郎記念館","location":"東京都港区南青山6-1-19","business_hours":"10:00〜18:00（最終入館17:30）","admission_fees":"一般　￥620/小学生　￥310","website_url":null,"phone_number":"03-3406-0801","area":"東京都県"}
{"id":56,"name":"板橋区立美術館","location":"東京都板橋区赤塚５丁目３４－２７","business_hours":"９時30分〜17時（入館は16時30分まで）","admission_fees":"展覧会ごとに異なります・特別展示観覧料 一般　　　650円高齢者（65歳以上）325円大学生　　450円高校生　　450円小中学生　200円*土曜日は、小中高校生は無料で観覧できます。*障がい者手帳をお持ちの方は半額、引率者１名のみ無料になります。*65歳以上の方は半額になります。（年齢を証明できるものが必要）","website_url":null,"phone_number":"03-3979-3251","area":"東京都"}
{"id":57,"name":"アーティゾン美術館","location":"東京都中央区京橋1-7-2","business_hours":"10:00 〜 18:00祝日を除く毎週金曜日は20：00まで入館は閉館の30分前まで 日時指定予約制①10:00-11:30②12:00-13:30③14:00-15:30④16:00-17:30⑤金曜日のみ 18:00-19:30（ただし祝日を除く）","admission_fees":"料金は展示により異なります大学生・専門学校生・高校生・障がい者と介添者 無料（要ウェブ予約） 中学生以下 無料（予約不要）","website_url":null,"phone_number":"03-5777-8600","area":"東京都"}
{"id":58,"name":"吉祥寺美術館","location":"東京都武蔵野市吉祥寺本町１丁目８－１６","business_hours":"１０：００〜１９：３０","admission_fees":"１００円","website_url":null,"phone_number":"0422-22-0385","area":"東京都"}
{"id":59,"name":"森美術館","location":"東京都港区六本木６－１０－１","business_hours":"月・水〜日10:00〜22:00（最終入館 21:30）火10:00〜17:00（最終入館 16:30）","admission_fees":"一般\\t1,800円学生（高校・大学生）\\t1,200円子供（4歳〜中学生）\\t600円シニア（65歳以上）\\t1,500円（東京シティビューにも入館可）","website_url":null,"phone_number":"03-5777-8600","area":"東京都"}
{"id":60,"name":"宮本三郎記念美術館","location":"東京都世田谷区奥沢５丁目３８－１３","business_hours":"午前10時〜午後6時　　入館は午後5時30分まで","admission_fees":"一般　　\\t200円\\t大高生\\t150円\\t65歳以上\\t100円\\t中小生\\t100円\\t障害者\\t100円※学生の方、65歳以上の方、障害者の方は証明書などをご提示ください。※障害者で、小・中・高・大学生、および障害者の介助者（該当者一名につき一名に限る）は無料。※小・中学生は、土・日・祝・休日および夏休み期間は無料。","website_url":null,"phone_number":"03-5483-3836","area":"東京都"}
{"id":18,"name":"目黒区美術館","location":"東京都目黒区目黒２丁目４－３６","business_hours":"10:00〜18:00（入館は17:30まで）","admission_fees":"観覧料は展覧会ごとに異なります","website_url":null,"phone_number":"03-3714-1201","area":"東京都県"}
{"id":14,"name":"練馬区立美術館","location":"東京都練馬区貫井1-36-16","business_hours":"午前10時〜午後6時入館は、原則として午後5時30分まで","admission_fees":"展覧会により有料・無料の場合があります","website_url":null,"phone_number":"03-3577-1821","area":"東京都県"}
{"id":31,"name":"国立西洋美術館","location":"東京都台東区上野公園７－７","business_hours":"午前9時30分〜午後5時30分※ただし、秋の企画展閉会日以降の開館日から春の企画展開催日までの開館期間中は午前9時30分〜午後5時無料観覧日毎月の第2、第4土曜日、文化の日（11月3日）※常設展示のみ無料となります。","admission_fees":"一　般：430円 220円  大学生：130円 70円","website_url":null,"phone_number":"03-3828-5131","area":"東京都"}
{"id":32,"name":"国立新美術館","location":"東京都港区六本木７丁目２２－２","business_hours":"企画展10：00-18：00※会期中の毎週金・土曜日は20：00まで（ただし、7月－9月は21:00まで） 公募展10：00-18：00","admission_fees":"企画展は展覧会ごとに定めます。 公募展は美術団体によって異なります。","website_url":null,"phone_number":"03-5777-8600","area":"東京都"}
{"id":34,"name":"スヌーピーミュージアム","location":"東京都町田市鶴間3-1-4","business_hours":"平日　10：00〜18：00　（最終入場17：30）土日祝　10：00〜19：00　（最終入場18：30）","admission_fees":"【前売券】一般・大学生　1800円中高生　800円　　小学生　400円【当日券】一般・大学生　2000円中高生　1000円　　小学生　600円","website_url":null,"phone_number":"042-812-2723","area":"東京都"}
{"id":35,"name":"三鷹の森ジブリ美術館","location":"東京都三鷹市下連雀1-1-83","business_hours":"10時〜18時","admission_fees":"大人・大学生：1,000円高校・中学生：700円小学生：400円幼児（4歳以上）100円4歳未満：無料","website_url":null,"phone_number":"0570-05-5777","area":"東京都"}
{"id":36,"name":"チームラボプラネッツ　ＴＯＫＹＯ　ＤＭＭ.ｃｏｍ","location":"東京都江東区豊洲6-1-16","business_hours":"9:00 - 22:00","admission_fees":"大人 (18歳以上): 3,800円中学生・高校生: 2,300円小人 (4歳~12歳): 1,300円3歳以下: 無料障がい者割引: 1,900円","website_url":null,"phone_number":"情報なし","area":"東京都"}
{"id":37,"name":"上野の森美術館","location":"東京都台東区上野公園１－２","business_hours":"10：00〜17：00（入場は閉館30分前まで） ※展示により変更される場合があります。詳細は、公式サイトより展示のご案内 をご覧ください。","admission_fees":"展示により異なります。 ※入場料につきましては、公式サイトより展示のご案内 をご覧ください。","website_url":null,"phone_number":"03-3833-4191","area":"東京都"}
{"id":38,"name":"岡本太郎記念館","location":"東京都港区南青山6-1-19","business_hours":"10:00〜18:00（最終入館17:30）","admission_fees":"一般　￥620/小学生　￥310","website_url":null,"phone_number":"03-3406-0801","area":"東京都"}
{"id":39,"name":"東京国立近代美術館－本館","location":"東京都千代田区北の丸公園３－１","business_hours":"開館時間　10：00-17：00 金・土曜日は20：00まで（入館は閉館30分前まで）","admission_fees":"【所蔵作品展】一般：500円 大学生：150円（いずれも消費税込）。＊17時以降の入館は一般300円／大学生150円＊高校生以下および18歳未満、65歳以上、障害者手帳をお持ちの方（付添者は原則1名まで）、キャンパスメンバーズ、MOMATパスポート、賛助会・友の会会員証をお持ちの方は無料。 ＊企画展示は展覧会により異なる。","website_url":null,"phone_number":"03-5777-8600","area":"東京都"}
{"id":40,"name":"すみだ北斎美術館","location":"東京都墨田区亀沢２－７－２","business_hours":"9：30〜17：30（入館は閉館の30分前まで）","admission_fees":"【 常設展 】一般　400円（団体320円)高校生、大学生、専門学校生、65歳以上　300円（団体240円）※高校生・大学生・専門学校生の方は生徒手帳・学生証を、65歳以上の方は年齢を証明するもの（健康保険証・運転免許証など）のご提示をお願いいたします。 【 常設展観覧料が無料となる方 】詳細につきましては、公式サイトよりご利用案内をご覧ください。 【 企画展 】展覧会ごとに異なります。詳しくは、公式サイト 各企画展のページをご覧ください。","website_url":null,"phone_number":"03-6658-8936","area":"東京都"}
{"id":41,"name":"東京都現代美術館","location":"東京都江東区三好４丁目１－１","business_hours":"10:00〜18:00（入場は17:30まで）","admission_fees":"MOTコレクション（常設展）一般500円/大学・専門学校生400円/65歳以上・高校生250円/中学生以下無料＊企画展は展覧会ごとに別途設定","website_url":null,"phone_number":"03-5245-4111","area":"東京都"}
{"id":25,"name":"太田記念美術館","location":"東京都渋谷区神宮前1-10-10","business_hours":"情報なし","admission_fees":"情報なし","website_url":null,"phone_number":"03-3403-0880","area":"東京都県"}
{"id":28,"name":"吉祥寺美術館","location":"東京都武蔵野市吉祥寺本町１丁目８－１６","business_hours":"１０：００〜１９：３０","admission_fees":"１００円","website_url":null,"phone_number":"0422-22-0385","area":"東京都県"}
{"id":42,"name":"三井記念美術館","location":"東京都中央区日本橋室町2-1-1 三井本館７階","business_hours":"10：00〜17：00（入館は16：30まで）","admission_fees":"一般　1,000円大学・高校生　500円中学生以下　無料※70歳以上の方は割引料金（要証明）※障害者手帳等お持ちの方は介護者1名とともに無料","website_url":null,"phone_number":"情報なし","area":"東京都"}
{"id":43,"name":"東京富士美術館","location":"東京都八王子市谷野町492-1","business_hours":"10:00〜17:00（16:30受付終了）","admission_fees":"特別展入場料 展覧会によって異なる入場無料・中学・小学校生　毎週土曜日は入場無料・誕生日当日にご来館された方は、ご本人のみ入場無料特別割引・障がい者手帳を持参の方および同伴者1名までは通常料金の半額各種割引・当館が発行する当該展覧会の割引券付きチラシをお持ちの方　1枚に付き10名様まで・アートパスポート同伴者5名様まで・当館メルマガ登録者および同伴者5名様まで・65歳以上のお客様・団体割引（20名様以上）・各種提携カード割引","website_url":null,"phone_number":"042-691-4511","area":"東京都"}
{"id":44,"name":"練馬区立美術館","location":"東京都練馬区貫井1-36-16","business_hours":"午前10時〜午後6時入館は、原則として午後5時30分まで","admission_fees":"展覧会により有料・無料の場合があります","website_url":null,"phone_number":"03-3577-1821","area":"東京都"}
{"id":45,"name":"百段階段","location":"東京都目黒区下目黒１－８－１","business_hours":"―","admission_fees":"イベントにより異なる","website_url":null,"phone_number":"035-434-3140","area":"東京都"}
{"id":46,"name":"国際版画美術館","location":"東京都町田市原町田４丁目２８－１","business_hours":"平日 午前10時〜午後5時（入場は4時30分まで） 土・日・祝日 午前10時〜午後5時30分（入場は5時まで）","admission_fees":"企画展示は展覧会によって料金が変わります。※身体障がい者手帳、および東京都愛の手帳、精神障がい者保健福祉手帳をご持参の方と　付き添いの方は半額です。※満65歳以上の方は半額、中学生以下は無料です。？ミニ企画展（常設展示室）は無料です。","website_url":null,"phone_number":"042-726-2771","area":"東京都"}
{"id":47,"name":"府中市美術館","location":"東京都府中市浅間町１丁目３","business_hours":"午前10時〜午後5時","admission_fees":"一般200円、大高生100円、中小生50円","website_url":null,"phone_number":"042-336-3371","area":"東京都"}
{"id":15,"name":"百段階段","location":"東京都目黒区下目黒１－８－１","business_hours":"―","admission_fees":"イベントにより異なる","website_url":null,"phone_number":"035-434-3140","area":"東京都県"}
{"id":1,"name":"国立西洋美術館","location":"東京都台東区上野公園７－７","business_hours":"午前9時30分〜午後5時30分※ただし、秋の企画展閉会日以降の開館日から春の企画展開催日までの開館期間中は午前9時30分〜午後5時無料観覧日毎月の第2、第4土曜日、文化の日（11月3日）※常設展示のみ無料となります。","admission_fees":"一　般：430円 220円  大学生：130円 70円","website_url":null,"phone_number":"03-3828-5131","area":"東京都県"}
{"id":2,"name":"国立新美術館","location":"東京都港区六本木７丁目２２－２","business_hours":"企画展10：00-18：00※会期中の毎週金・土曜日は20：00まで（ただし、7月－9月は21:00まで） 公募展10：00-18：00","admission_fees":"企画展は展覧会ごとに定めます。 公募展は美術団体によって異なります。","website_url":null,"phone_number":"03-5777-8600","area":"東京都県"}
{"id":4,"name":"スヌーピーミュージアム","location":"東京都町田市鶴間3-1-4","business_hours":"平日　10：00〜18：00　（最終入場17：30）土日祝　10：00〜19：00　（最終入場18：30）","admission_fees":"【前売券】一般・大学生　1800円中高生　800円　　小学生　400円【当日券】一般・大学生　2000円中高生　1000円　　小学生　600円","website_url":null,"phone_number":"042-812-2723","area":"東京都県"}
{"id":5,"name":"三鷹の森ジブリ美術館","location":"東京都三鷹市下連雀1-1-83","business_hours":"10時〜18時","admission_fees":"大人・大学生：1,000円高校・中学生：700円小学生：400円幼児（4歳以上）100円4歳未満：無料","website_url":null,"phone_number":"0570-05-5777","area":"東京都県"}
{"id":6,"name":"チームラボプラネッツ　ＴＯＫＹＯ　ＤＭＭ.ｃｏｍ","location":"東京都江東区豊洲6-1-16","business_hours":"9:00 - 22:00","admission_fees":"大人 (18歳以上): 3,800円中学生・高校生: 2,300円小人 (4歳~12歳): 1,300円3歳以下: 無料障がい者割引: 1,900円","website_url":null,"phone_number":"情報なし","area":"東京都県"}
{"id":7,"name":"上野の森美術館","location":"東京都台東区上野公園１－２","business_hours":"10：00〜17：00（入場は閉館30分前まで） ※展示により変更される場合があります。詳細は、公式サイトより展示のご案内 をご覧ください。","admission_fees":"展示により異なります。 ※入場料につきましては、公式サイトより展示のご案内 をご覧ください。","website_url":null,"phone_number":"03-3833-4191","area":"東京都県"}
{"id":9,"name":"東京国立近代美術館－本館","location":"東京都千代田区北の丸公園３－１","business_hours":"開館時間　10：00-17：00 金・土曜日は20：00まで（入館は閉館30分前まで）","admission_fees":"【所蔵作品展】一般：500円 大学生：150円（いずれも消費税込）。＊17時以降の入館は一般300円／大学生150円＊高校生以下および18歳未満、65歳以上、障害者手帳をお持ちの方（付添者は原則1名まで）、キャンパスメンバーズ、MOMATパスポート、賛助会・友の会会員証をお持ちの方は無料。 ＊企画展示は展覧会により異なる。","website_url":null,"phone_number":"03-5777-8600","area":"東京都県"}
{"id":10,"name":"すみだ北斎美術館","location":"東京都墨田区亀沢２－７－２","business_hours":"9：30〜17：30（入館は閉館の30分前まで）","admission_fees":"【 常設展 】一般　400円（団体320円)高校生、大学生、専門学校生、65歳以上　300円（団体240円）※高校生・大学生・専門学校生の方は生徒手帳・学生証を、65歳以上の方は年齢を証明するもの（健康保険証・運転免許証など）のご提示をお願いいたします。 【 常設展観覧料が無料となる方 】詳細につきましては、公式サイトよりご利用案内をご覧ください。 【 企画展 】展覧会ごとに異なります。詳しくは、公式サイト 各企画展のページをご覧ください。","website_url":null,"phone_number":"03-6658-8936","area":"東京都県"}
{"id":11,"name":"東京都現代美術館","location":"東京都江東区三好４丁目１－１","business_hours":"10:00〜18:00（入場は17:30まで）","admission_fees":"MOTコレクション（常設展）一般500円/大学・専門学校生400円/65歳以上・高校生250円/中学生以下無料＊企画展は展覧会ごとに別途設定","website_url":null,"phone_number":"03-5245-4111","area":"東京都県"}
{"id":12,"name":"三井記念美術館","location":"東京都中央区日本橋室町2-1-1 三井本館７階","business_hours":"10：00〜17：00（入館は16：30まで）","admission_fees":"一般　1,000円大学・高校生　500円中学生以下　無料※70歳以上の方は割引料金（要証明）※障害者手帳等お持ちの方は介護者1名とともに無料","website_url":null,"phone_number":"情報なし","area":"東京都県"}
{"id":13,"name":"東京富士美術館","location":"東京都八王子市谷野町492-1","business_hours":"10:00〜17:00（16:30受付終了）","admission_fees":"特別展入場料 展覧会によって異なる入場無料・中学・小学校生　毎週土曜日は入場無料・誕生日当日にご来館された方は、ご本人のみ入場無料特別割引・障がい者手帳を持参の方および同伴者1名までは通常料金の半額各種割引・当館が発行する当該展覧会の割引券付きチラシをお持ちの方　1枚に付き10名様まで・アートパスポート同伴者5名様まで・当館メルマガ登録者および同伴者5名様まで・65歳以上のお客様・団体割引（20名様以上）・各種提携カード割引","website_url":null,"phone_number":"042-691-4511","area":"東京都県"}
{"id":16,"name":"国際版画美術館","location":"東京都町田市原町田４丁目２８－１","business_hours":"平日 午前10時〜午後5時（入場は4時30分まで） 土・日・祝日 午前10時〜午後5時30分（入場は5時まで）","admission_fees":"企画展示は展覧会によって料金が変わります。※身体障がい者手帳、および東京都愛の手帳、精神障がい者保健福祉手帳をご持参の方と　付き添いの方は半額です。※満65歳以上の方は半額、中学生以下は無料です。？ミニ企画展（常設展示室）は無料です。","website_url":null,"phone_number":"042-726-2771","area":"東京都県"}
{"id":17,"name":"府中市美術館","location":"東京都府中市浅間町１丁目３","business_hours":"午前10時〜午後5時","admission_fees":"一般200円、大高生100円、中小生50円","website_url":null,"phone_number":"042-336-3371","area":"東京都県"}
{"id":19,"name":"森ビル　デジタルアート　ミュージアム：エプソン　チームラボボーダレス","location":"東京都港区麻布台1-2-4","business_hours":"情報なし","admission_fees":"情報なし","website_url":null,"phone_number":"情報なし","area":"東京都県"}
{"id":20,"name":"東京都写真美術館","location":"東京都目黒区三田１丁目１３－３","business_hours":"10:00〜18:00（木曜日・金曜日は20:00まで）※入館は閉館の30分前まで","admission_fees":"開催展覧会・上映会によって料金が異なる","website_url":null,"phone_number":"03-3280-0099","area":"東京都県"}
{"id":21,"name":"出光美術館","location":"東京都千代田区丸の内3-1-1 帝劇ビル9階","business_hours":"午前10時〜午後5時（入館は午後4時30分まで） 毎週金曜日は午前10時〜午後7時（入館は午後6時30分まで","admission_fees":"一般1,000円／高・大生700円（団体20名以上 各200円引） 中学生以下無料（ただし保護者の同伴が必要です） ※障害者手帳をお持ちの方は200円引、その介護者1名は無料です※7月20日（土）〜31日（水）は「学生無料ウィーク」を開催します ※当館に常設展示はございません。","website_url":null,"phone_number":"03-5777-8600","area":"東京都県"}
{"id":22,"name":"松濤美術館","location":"東京都渋谷区松濤２丁目１４－１４","business_hours":"特別展期間中：午前10時〜午後6時（金曜のみ午後8時まで） 公募展・小中学生絵画展・サロン展期間中：午前9時〜午後5時 最終入館はいずれも閉館30分前までです。","admission_fees":"展覧会によって異なります","website_url":null,"phone_number":"03-3465-9421","area":"東京都県"}
{"id":23,"name":"永青文庫","location":"東京都文京区目白台1-1-1","business_hours":"10：00〜16：30(入館は16：00まで)","admission_fees":"一　般：800円（700円）シニア（70歳以上）：600円（500円）大学・高校生：400円※(　)内は10名以上の団体料金※中学生以下、障害者手帳をご提示の方及びその介助者（1名）は無料※ 別館サロンは別途200円（不定休）","website_url":null,"phone_number":"03-3941-0850","area":"東京都県"}
{"id":24,"name":"草間彌生美術館","location":"東京都新宿区弁天町１０７","business_hours":"木・金・土・日曜日および国民の祝日11:00－17:30","admission_fees":"一般　1,000円（税込）　小中高生　600円（税込）入場は日時指定の完全予約・定員制（各回90分）。毎月１日10:00（日本時間）に翌々月分のチケット販売を開始。 購入後の日時変更、払い戻しは不可。天候等により安全が確保できない場合は5階を閉鎖。ショップの利用は、チケットで入場している方のみ。","website_url":null,"phone_number":"03-5273-1778","area":"東京都県"}
{"id":26,"name":"板橋区立美術館","location":"東京都板橋区赤塚５丁目３４－２７","business_hours":"９時30分〜17時（入館は16時30分まで）","admission_fees":"展覧会ごとに異なります・特別展示観覧料 一般　　　650円高齢者（65歳以上）325円大学生　　450円高校生　　450円小中学生　200円*土曜日は、小中高校生は無料で観覧できます。*障がい者手帳をお持ちの方は半額、引率者１名のみ無料になります。*65歳以上の方は半額になります。（年齢を証明できるものが必要）","website_url":null,"phone_number":"03-3979-3251","area":"東京都県"}
{"id":27,"name":"アーティゾン美術館","location":"東京都中央区京橋1-7-2","business_hours":"10:00 〜 18:00祝日を除く毎週金曜日は20：00まで入館は閉館の30分前まで 日時指定予約制①10:00-11:30②12:00-13:30③14:00-15:30④16:00-17:30⑤金曜日のみ 18:00-19:30（ただし祝日を除く）","admission_fees":"料金は展示により異なります大学生・専門学校生・高校生・障がい者と介添者 無料（要ウェブ予約） 中学生以下 無料（予約不要）","website_url":null,"phone_number":"03-5777-8600","area":"東京都県"}
{"id":29,"name":"森美術館","location":"東京都港区六本木６－１０－１","business_hours":"月・水〜日10:00〜22:00（最終入館 21:30）火10:00〜17:00（最終入館 16:30）","admission_fees":"一般\\t1,800円学生（高校・大学生）\\t1,200円子供（4歳〜中学生）\\t600円シニア（65歳以上）\\t1,500円（東京シティビューにも入館可）","website_url":null,"phone_number":"03-5777-8600","area":"東京都県"}
{"id":30,"name":"宮本三郎記念美術館","location":"東京都世田谷区奥沢５丁目３８－１３","business_hours":"午前10時〜午後6時　　入館は午後5時30分まで","admission_fees":"一般　　\\t200円\\t大高生\\t150円\\t65歳以上\\t100円\\t中小生\\t100円\\t障害者\\t100円※学生の方、65歳以上の方、障害者の方は証明書などをご提示ください。※障害者で、小・中・高・大学生、および障害者の介助者（該当者一名につき一名に限る）は無料。※小・中学生は、土・日・祝・休日および夏休み期間は無料。","website_url":null,"phone_number":"03-5483-3836","area":"東京都県"}
