{"id": 1, "name": "奈良県立美術館", "location": "奈良県奈良市登大路町10-6", "business_hours": "9:00~17:00(入館は16:30まで)※特別展期間中の金・土曜日は19:00まで(入館は18:30まで)", "admission_fees": "一般400円、大高生250円、中小生150円", "website_url": null, "phone_number": "0742-23-3968", "area": "奈良県"}
{"id": 2, "name": "奈良金魚ミュージアム", "location": "奈良県奈良市二条大路南1-3-1", "business_hours": "10:00~18:00", "admission_fees": "大人(中学生以上)1200円、小学生800円、65才以上800円、障がい者800円、小学生未満無料", "website_url": null, "phone_number": "080-4689-2142", "area": "奈良県"}
{"id": 3, "name": "入江泰吉記念奈良市写真美術館", "location": "奈良県奈良市高畑町600-1", "business_hours": "9:30~17:00(入館は16:30まで)", "admission_fees": "一般500円、高校・大学生200円(高校生は土曜日無料)、小・中学生100円(土曜日無料)、奈良市在住の70歳以上無料、障がい者手帳・療育手帳・精神障がい者保健福祉手帳をお持ちの方無料", "website_url": null, "phone_number": "0742-22-9811", "area": "奈良県"}
{"id": 4, "name": "杉岡華邨書道美術館", "location": "奈良県奈良市脇戸町3", "business_hours": "9:00~17:00(イベント等により延長あり)", "admission_fees": "一般300円、市内在住の70歳以上・16歳未満・障害者手帳等お持ちの方と介護者1名無料", "website_url": null, "phone_number": "0742-24-4111", "area": "奈良県"}
{"id": 5, "name": "奈良市美術館", "location": "奈良県奈良市二条大路南1-3-1", "business_hours": "10:00~17:30(入館は17:00まで)", "admission_fees": "展覧会により異なる", "website_url": null, "phone_number": "0742-30-1510", "area": "奈良県"}
{"id": 6, "name": "大和文華館", "location": "奈良県奈良市学園南1-11-6", "business_hours": "10:00~17:00(入館は16:00まで)", "admission_fees": "平常展・特別企画展:一般620円、高校・大学生410円、小学・中学生無料 特別展:一般930円、高校・大学生720円、小学・中学生無料", "website_url": null, "phone_number": "0742-45-0544", "area": "奈良県"}
{"id": 7, "name": "喜多美術館", "location": "奈良県桜井市金屋730", "business_hours": "10:00~17:00(入館は16:30まで)", "admission_fees": "大人800円、高・大学生700円、小・中学生200円", "website_url": null, "phone_number": "0744-45-2849", "area": "奈良県"}