[
  {
    "id": 7,
    "name": "ＳＵＷＡガラスの里",
    "location": "長野県諏訪市大字豊田2400-7",
    "business_hours": "情報なし",
    "admission_fees": "情報なし",
    "website_url": null,
    "phone_number": "0266-57-2000",
    "area": "長野県"
  },
  {
    "id": 1,
    "name": "美ヶ原高原美術館",
    "location": "長野県上田市武石上本入美ヶ原高原",
    "business_hours": "9:00~17:00",
    "admission_fees": "大人:1000円 大学・高校生:800円 中学生・小学生:700円",
    "website_url": null,
    "phone_number": "0268-86-2331",
    "area": "長野県"
  },
  {
    "id": 2,
    "name": "松本市美術館",
    "location": "長野県松本市中央4-2-22",
    "business_hours": "9:00~17:00",
    "admission_fees": "【コレクション展】大人410円 大学高校生200円 ※70歳以上の松本市民は無料※中学生以下無料※障害者手帳携帯者とその介助者 1名無料",
    "website_url": null,
    "phone_number": "0263-39-7400",
    "area": "長野県"
  },
  {
    "id": 3,
    "name": "安曇野ちひろ美術館",
    "location": "長野県北安曇郡松川村松川村西原3358-24",
    "business_hours": "9:00~17:00(3月~11月末) 9:00~18:00(GW、お盆)",
    "admission_fees": "大人800円、高校生以下無料",
    "website_url": null,
    "phone_number": "0261-62-0772",
    "area": "長野県"
  },
  {
    "id": 4,
    "name": "諏訪市美術館",
    "location": "長野県諏訪市湖岸通り4-1-14",
    "business_hours": "9:00~17:00",
    "admission_fees": "大人300円、小中学生150円 ※企画展開催時は別料金となります。※障がい者手帳をお持ちの方は、大人150円、小中学生無料、付添いの方1名まで割引料金150円（企画展は別料金となります)",
    "website_url": null,
    "phone_number": "0266-52-1217",
    "area": "長野県"
  },
  {
    "id": 5,
    "name": "信州小布施北斎館",
    "location": "長野県上高井郡小布施町小布施485",
    "business_hours": "9:00~17:00 9:00~18:00(7・8月のみ)",
    "admission_fees": "一般1,000円 高校生700円 中学生以下無料",
    "website_url": null,
    "phone_number": "026-247-5206",
    "area": "長野県"
  },
  {
    "id": 6,
    "name": "信州高遠美術館",
    "location": "長野県伊那市高遠町東高遠400",
    "business_hours": "9:00~17:00",
    "admission_fees": "一般:500円 小・中学生:150円 障害者手帳等お持ちの方は無料",
    "website_url": null,
    "phone_number": "0265-94-3666",
    "area": "長野県"
  },
  {
    "id": 8,
    "name": "長野県立美術館",
    "location": "長野県長野市箱清水1-4-4",
    "business_hours": "情報なし",
    "admission_fees": "情報なし",
    "website_url": null,
    "phone_number": "026-232-0052",
    "area": "長野県"
  },
  {
    "id": 9,
    "name": "蓼科テディベア美術館",
    "location": "長野県北佐久郡立科町芦田八ヶ野1522",
    "business_hours": "4月~10月：9:00~18:00(17:30受付終了) 11月~3月：9:30~17:00(16:30受付終了)",
    "admission_fees": "大人(高校生以上) 1,400円 子ども(小・中学生) 800円 幼児(3才以上) 300円3才未満 入館無料お誕生日当日にご来館の方は、無料でご入館いただけます（ご本人様のみに適応）。 生年月日が明記されている証明書をご提示ください",
    "website_url": null,
    "phone_number": "0267-55-7755",
    "area": "長野県"
  },
  {
    "id": 10,
    "name": "ペイネ美術館",
    "location": "長野県北佐久郡軽井沢町塩沢湖217",
    "business_hours": "9:00~17:00(12月・1月は10:00~16:00)",
    "admission_fees": "●入園券：大人（高校生以上）：800円、小人（小・中学生）：400円、乳幼児（0〜5才）：無料●ペイネ美術館(入園料含む)：大人（高校生以上）：900円、小人（小・中学生）：500円、乳幼児（0〜5才）：無料●ミュージアムセット券（入園料+3館入館券）：大人（高校生以上）：1500円、小人（小・中学生）：800円、乳幼児（0〜5才）：無料●12月・1月は入園無料(美術館は有料／ペイネ美術館900円→700円)",
    "website_url": null,
    "phone_number": "0267-46-6161",
    "area": "長野県"
  },
  {
    "id": 11,
    "name": "市立岡谷美術考古館",
    "location": "長野県岡谷市中央町1-9-8",
    "business_hours": "10:00~19:00",
    "admission_fees": "おとな（高校生以上）350円 こども（小・中学生）150円",
    "website_url": null,
    "phone_number": "0266-22-5854",
    "area": "長野県"
  },
  {
    "id": 12,
    "name": "豊科近代美術館",
    "location": "長野県安曇野市豊科5609-3",
    "business_hours": "9:00~17:00",
    "admission_fees": "個人大人500円 大学生・高校生300円 団体（20名様以上）大人400円 大学生・高校生200円 ※入館料は企画によって変わる事がございます。※入館料の免除について中学生以下の方 安曇野市在住の70歳以上の方 障害者手帳をお持ちの方と介助者1名",
    "website_url": null,
    "phone_number": "0263-73-5638",
    "area": "長野県"
  },
  {
    "id": 13,
    "name": "軽井沢絵本の森美術館",
    "location": "長野県北佐久郡軽井沢町長倉182-1",
    "business_hours": "3月~11月：9:30~17:00 12月~1月：10:00~16:00",
    "admission_fees": "大人900円、中高生600円、小学生450円、小学生未満無料。（エルツおもちゃ博物館・軽井沢との2館共通セット券有り）",
    "website_url": null,
    "phone_number": "0267-48-3340",
    "area": "長野県"
  },
  {
    "id": 14,
    "name": "小海町高原美術館",
    "location": "長野県南佐久郡小海町大字豊里5918-2",
    "business_hours": "4月~12月 9:00~17:00",
    "admission_fees": "一般500円 小中学生150円",
    "website_url": null,
    "phone_number": "0267-93-2133",
    "area": "長野県"
  },
  {
    "id": 15,
    "name": "上田市立美術館",
    "location": "長野県上田市天神3-15-15",
    "business_hours": "9:00~17:00",
    "admission_fees": "一般・大学生：1400円（一般：300円） 高校・中学生：900円（高校生以上：200円） 小学生：700円（小中学生：100円） 未就学児：無料（）内は常設展のみ",
    "website_url": null,
    "phone_number": "0268-27-2300",
    "area": "長野県"
  },
  {
    "id": 16,
    "name": "奥村土牛記念美術館",
    "location": "長野県南佐久郡佐久穂町大字穂積1429-1",
    "business_hours": "9:30~17:00",
    "admission_fees": "大人500円 小中学生300円 団体大人400円 小中学生250円 (注)団体料金は20名以上",
    "website_url": null,
    "phone_number": "0267-88-3881",
    "area": "長野県"
  },
  {
    "id": 17,
    "name": "辰野美術館",
    "location": "長野県上伊那郡辰野町樋口2407-1",
    "business_hours": "9:00~17:00",
    "admission_fees": "大人［高校生以上］ 300円 小・中学生 100円",
    "website_url": null,
    "phone_number": "0266-43-0753",
    "area": "長野県"
  },
  {
    "id": 18,
    "name": "八ヶ岳美術館",
    "location": "長野県諏訪郡原村17217-1611",
    "business_hours": "9:00~17:00",
    "admission_fees": "大人 510円 小人 250円",
    "website_url": null,
    "phone_number": "0266-74-2701",
    "area": "長野県"
  },
  {
    "id": 19,
    "name": "原田泰治美術館",
    "location": "長野県諏訪市渋崎1792-375",
    "business_hours": "9:00~17:00",
    "admission_fees": "大人：820円 中・高校生：410円 小学生：200円 障害者(大人）：410円 ＊障害者（小人）は無料",
    "website_url": null,
    "phone_number": "0266-54-1881",
    "area": "長野県"
  },
  {
    "id": 20,
    "name": "日本童画美術館",
    "location": "長野県岡谷市中央町2-2-1",
    "business_hours": "10:00~19:00",
    "admission_fees": "一般 500円 中・高校生 300円 小学生 150円",
    "website_url": null,
    "phone_number": "0266-24-3319",
    "area": "長野県"
  },
  {
    "id": 21,
    "name": "小山敬三美術館",
    "location": "長野県小諸市丁221",
    "business_hours": "8:30~17:00",
    "admission_fees": "大人200円、小中学生100円",
    "website_url": null,
    "phone_number": "0267-22-3428",
    "area": "長野県"
  },
  {
    "id": 22,
    "name": "飯田市川本喜八郎人形美術館",
    "location": "長野県飯田市本町1丁目2",
    "business_hours": "9:30~18:30",
    "admission_fees": "一般400円 小学生/中学生/高校生200円",
    "website_url": null,
    "phone_number": "0265-23-3594",
    "area": "長野県"
  },
  {
    "id": 23,
    "name": "志賀高原ロマン美術館",
    "location": "長野県下高井郡山ノ内町大字平穏1465",
    "business_hours": "9:00~17:00",
    "admission_fees": "大人：500円 小中学生：300円",
    "website_url": null,
    "phone_number": "0269-33-8855",
    "area": "長野県"
  },
  {
    "id": 24,
    "name": "深沢紅子野の花美術館",
    "location": "長野県北佐久郡軽井沢町長倉塩沢217",
    "business_hours": "10:00~17:00",
    "admission_fees": "大人：500円 大高生：300円 中小生：200円",
    "website_url": null,
    "phone_number": "0267-45-3662",
    "area": "長野県"
  },
  {
    "id": 25,
    "name": "ゼゾン現代美術館",
    "location": "長野県北佐久郡軽井沢町長倉芹ヶ沢2140",
    "business_hours": "10:00~18:00(4月-10月) 10:00~17:00(11月)",
    "admission_fees": "一般1,000円、大高生700円、中小生300円",
    "website_url": null,
    "phone_number": "0267-46-2020",
    "area": "長野県"
  },
  {
    "id": 26,
    "name": "木曽路美術館",
    "location": "長野県木曽郡上松町寝覚2409",
    "business_hours": "10:00~16:00",
    "admission_fees": "大人300円 学生200円 小中学生100円 身障者割引有り",
    "website_url": null,
    "phone_number": "0264-24-0116",
    "area": "長野県"
  },
  {
    "id": 27,
    "name": "小諸高原美術館",
    "location": "長野県小諸市菱平2805-1",
    "business_hours": "9:00~17:00",
    "admission_fees": "大人500円 小・中学生250円",
    "website_url": null,
    "phone_number": "0267-26-2070",
    "area": "長野県"
  },
  {
    "id": 28,
    "name": "池田町立美術館",
    "location": "長野県北安曇郡池田町会染7782",
    "business_hours": "9:00~17:00",
    "admission_fees": "大人／400円 高・大生／250円",
    "website_url": null,
    "phone_number": "0261-62-6600",
    "area": "長野県"
  },
  {
    "id": 29,
    "name": "佐久市立近代美術館",
    "location": "長野県佐久市猿久保35-5",
    "business_hours": "9:30~17:00",
    "admission_fees": "個人 一般500円 高校・大学生400円 団体 一般400円 高校・大学生300円",
    "website_url": null,
    "phone_number": "0267-67-1055",
    "area": "長野県"
  },
  {
    "id": 30,
    "name": "水野美術館",
    "location": "長野県長野市若里6-2-20",
    "business_hours": "9:30~17:30",
    "admission_fees": "一般 800円 中高生 600円 小学生 300円",
    "website_url": null,
    "phone_number": "026-229-6333",
    "area": "長野県"
  }
]
