{"id": 1, "name": "丸亀市猪熊弦一郎現代美術館", "location": "香川県丸亀市浜町80-1", "business_hours": "10:00~18:00(入館は17:30まで)", "admission_fees": "企画展:展覧会ごとに定めます 常設展:一般300円、大学生200円、高校生以下または18歳未満、丸亀市内に在住の65歳以上、各種障害者手帳をお持ちの方無料", "website_url": null, "phone_number": "0877-24-7766", "area": "香川県"}
{"id": 2, "name": "地中美術館", "location": "香川県香川郡直島町3449-1", "business_hours": "3/1~9/30:10:00~18:00(最終入館17:00)、10/1~2月末日:10:00~17:00(最終入館16:00)", "admission_fees": "2060円 ※15歳以下無料", "website_url": null, "phone_number": "087-892-3755", "area": "香川県"}
{"id": 3, "name": "豊島美術館", "location": "香川県小豆郡土庄町豊島唐櫃607", "business_hours": "3/1~10/31:10:00~17:00(最終入館16:30)、11/1~2月末日:10:00~16:00(最終入館15:30)", "admission_fees": "1540円 ※15歳以下無料", "website_url": null, "phone_number": "0879-68-3555", "area": "香川県"}
{"id": 4, "name": "高松市美術館", "location": "香川県高松市紺屋町10-4", "business_hours": "9:30~17:00(入室は閉館30分前まで)※特別展開催期間中の火~土・祝は19:00まで", "admission_fees": "常設展:一般200円、大学生150円、高校生以下無料、65歳以上(長寿手帳等の提示で免除)", "website_url": null, "phone_number": "087-823-1711", "area": "香川県"}
{"id": 5, "name": "中津万象園丸亀美術館", "location": "香川県丸亀市中津町25-1", "business_hours": "9:30~17:00(最終受付16:30)", "admission_fees": "庭園のみ:大人700円、小・中学生300円 絵画館のみ:大人500円、小・中学生200円 セット券:大人1200円、小・中学生500円", "website_url": null, "phone_number": "0877-23-6326", "area": "香川県"}
{"id": 6, "name": "東山魁夷せとうち美術館", "location": "香川県坂出市沙弥島南通224-13", "business_hours": "9:00~17:00(入場は16:30まで)", "admission_fees": "特別展の料金は展覧会ごとに設定、高校生以下・65歳以上無料", "website_url": null, "phone_number": "0877-44-1333", "area": "香川県"}
{"id": 7, "name": "塩江美術館", "location": "香川県高松市塩江町安原上602", "business_hours": "9:00~17:00(入室は閉館30分前まで)", "admission_fees": "常設展:一般300円、大学生150円、高校生以下無料、65歳以上(長寿手帳等の提示で免除)", "website_url": null, "phone_number": "087-893-1800", "area": "香川県"}
{"id": 8, "name": "坂出市民美術館", "location": "香川県坂出市寿町1-3-35", "business_hours": "9:00~17:00", "admission_fees": "無料(有料の時もある)", "website_url": null, "phone_number": "0877-45-7110", "area": "香川県"}
{"id": 9, "name": "香川近代美術館", "location": "香川県三豊市三野町下高瀬542-1", "business_hours": "13:00~17:00", "admission_fees": "大人500円、大・中高生300円、小学生以下無料", "website_url": null, "phone_number": "0875-73-3077", "area": "香川県"}