{"id": 1, "name": "富山市ガラス美術館", "location": "富山県富山市西町5-1", "business_hours": "常設展・企画展:9:30~18:00(金・土曜日は20:00まで)、カフェ・ミュージアムショップ:9:30~19:00(金・土曜日は20:00まで)", "admission_fees": "常設展:一般・大学生200円、企画展は企画展ごとに異なります", "website_url": null, "phone_number": "076-461-3100", "area": "富山県"}
{"id": 2, "name": "秋水美術館", "location": "富山県富山市千石町1-3-6", "business_hours": "10:00~17:00(入館は16:30まで)", "admission_fees": "一般800円、高校生300円、中学生以下無料", "website_url": null, "phone_number": "076-425-5700", "area": "富山県"}
{"id": 3, "name": "富山県美術館", "location": "富山県富山市木場町3-20", "business_hours": "美術館:9:30~18:00(入館は17:30まで)、屋上庭園・オノマトペの屋上:8:00~22:00(入館は21:30まで)", "admission_fees": "コレクション展:一般300円、企画展:展覧会により異なり、企画展観覧料でコレクション展も観覧可", "website_url": null, "phone_number": "076-431-2711", "area": "富山県"}
{"id": 4, "name": "井波彫刻総合会館", "location": "富山県南砺市北川733", "business_hours": "9:00~17:00(入館は16:30まで)", "admission_fees": "大人500円、小中学生250円", "website_url": null, "phone_number": "0763-82-5158", "area": "富山県"}
{"id": 5, "name": "佐藤記念美術館", "location": "富山県富山市本丸1-33", "business_hours": "9:00~17:00(入館は16:30まで)", "admission_fees": "一般210円、小中学生100円(土日祝日は無料)、身体障害者手帳、療育手帳、精神障害者福祉手帳をお持ちの方と介助者は無料", "website_url": null, "phone_number": "076-432-9031", "area": "富山県"}
{"id": 6, "name": "砺波市美術館", "location": "富山県砺波市高道145-1", "business_hours": "10:00~18:00(入館は17:30まで)、金・土曜日に市民アトリエ等の夜間利用がある場合、21:00まで開館", "admission_fees": "常設展示:一般210円、小・中・高100円、65歳以上160円、企画展示:展覧会により異なります", "website_url": null, "phone_number": "0763-32-1001", "area": "富山県"}
{"id": 7, "name": "黒部市美術館", "location": "富山県黒部市堀切1035", "business_hours": "9:30~16:30(入館は16:00まで)", "admission_fees": "企画展により異なる、中学生以下無料", "website_url": null, "phone_number": "0765-52-5011", "area": "富山県"}
{"id": 8, "name": "世界一かわいい美術館", "location": "富山県富山市水橋伊勢屋257", "business_hours": "10:00~17:00(入場受付は16:30まで)", "admission_fees": "無料", "website_url": null, "phone_number": "076-411-9817", "area": "富山県"}
{"id": 9, "name": "高岡市美術館", "location": "富山県高岡市中川1-1-30", "business_hours": "9:30~17:00(入館は16:30まで)", "admission_fees": "企画展・特別展:展覧会によって異なります", "website_url": null, "phone_number": "0766-20-1177", "area": "富山県"}
{"id": 10, "name": "黒部峡谷セレネ美術館", "location": "富山県黒部市宇奈月温泉6-3", "business_hours": "9:00~17:30(入館は閉館の30分前まで)", "admission_fees": "大人610円、高校・大学生510円、中学生以下・障がい者手帳をお持ちの方は無料", "website_url": null, "phone_number": "0765-62-2000", "area": "富山県"}
{"id": 11, "name": "入善町下山芸術の森発電所美術館", "location": "富山県下新川郡入善町下山364-1", "business_hours": "9:00~17:00(入館は16:30まで)、企画展により変更の場合あり", "admission_fees": "企画展:一般600円、大学・高校生300円、中学生以下無料、収蔵品展:一般200円、大学・高校生100円、中学生以下無料", "website_url": null, "phone_number": "0765-78-0621", "area": "富山県"}
{"id": 12, "name": "ふるさと美術館", "location": "富山県下新川郡朝日町東草野466-8", "business_hours": "9:00~17:00(入館は16:30まで)", "admission_fees": "大人300~700円(展覧会によって異なる)、小中高生100円、こどもパスポート持参の場合は付添1名まで無料", "website_url": null, "phone_number": "0765-82-0094", "area": "富山県"}
{"id": 13, "name": "西田美術館", "location": "富山県中新川郡上市町郷柿沢1", "business_hours": "9:30~16:30(入館は16:00まで)", "admission_fees": "常設展・館蔵品展:一般500円(400円)、大学生300円(200円)、高校生以下無料、各種福祉関係手帳200円(引率者1名同料金)、企画展:一般600円(500円)、大学生400円(300円)、高校生以下無料、各種福祉関係手帳300円(引率者1名同料金)、ART BOX:一般300円(200円)、大学生200円(100円)、高校生以下無料、各種福祉関係手帳100円(引率者1名同料金)、上記の料金で常設展・館蔵品展も観覧可", "website_url": null, "phone_number": "076-472-4352", "area": "富山県"}
{"id": 14, "name": "福光美術館", "location": "富山県南砺市法林寺2010", "business_hours": "9:00~17:00(入館は16:30まで)", "admission_fees": "企画展内容により異なります。常設展:一般300円、高大校生200円、小中学生無料、小中学生無料、各種手帳をお持ちの心身障がい者の方は、付き添いの方(1名)も含め300円引き(常設展無料)", "website_url": null, "phone_number": "0763-52-7576", "area": "富山県"}
{"id": 15, "name": "百河豚美術館", "location": "富山県下新川郡朝日町不動堂6", "business_hours": "9:00~17:00(入館は16:00まで)", "admission_fees": "大人700円、大学生・高校生500円、中小学生300円(土曜日無料)", "website_url": null, "phone_number": "0765-83-0100", "area": "富山県"}
{"id": 16, "name": "富山市篁牛人記念美術館", "location": "富山県富山市安養坊1000", "business_hours": "9:00~17:00(入館は16:30まで)", "admission_fees": "大人(高校生以上)100円(全館520円)、小・中学生50円(全館260円)、土日祝は小中学生無料", "website_url": null, "phone_number": "076-433-9215", "area": "富山県"}
{"id": 17, "name": "青井記念館美術館", "location": "富山県高岡市中川1-1-20", "business_hours": "10:00~16:00(15:30まで入館完了)", "admission_fees": "無料", "website_url": null, "phone_number": "0766-21-1630", "area": "富山県"}