{"id": 1, "name": "名古屋市美術館", "location": "愛知県名古屋市中区栄2-17-25(芸術と科学の杜・白川公園内)", "business_hours": "9:30~17:00、金曜日は20:00まで(祝日を除く)(入場は閉館の30分前まで)", "admission_fees": "個人:一般300円、高校・大学生200円、65歳以上100円、中学生以下無料、団体:一般250円、高校・大学生150円、65歳以上80円、中学生以下無料", "website_url": null, "phone_number": "052-212-0001", "area": "愛知県"}
{"id": 2, "name": "豊田市美術館", "location": "愛知県豊田市小坂本町8-5-1", "business_hours": "10:00~17:30(入場は17:00まで)", "admission_fees": "通常(展示により異なる場合あり):一般1400円、高校・大学生1000円、中学生以下無料、豊田市内在住・在学の高校生無料、豊田市在住75歳以上無料(要証明)", "website_url": null, "phone_number": "0565-34-6610", "area": "愛知県"}
{"id": 3, "name": "徳川美術館", "location": "愛知県名古屋市東区徳川町1017", "business_hours": "10:00~17:00(入館は16:30まで)", "admission_fees": "一般1200円、高・大生700円、小・中生500円", "website_url": null, "phone_number": "052-935-6262", "area": "愛知県"}
{"id": 4, "name": "愛知県美術館(愛知芸術文化センター)", "location": "愛知県名古屋市東区東桜1-13-2 愛知芸術文化センター10階", "business_hours": "10:00~18:00、金曜日は20:00まで(入館は閉館30分前まで)", "admission_fees": "コレクション展:一般500円、高校・大学生300円、中学生以下無料、企画展:そのつど定めます", "website_url": null, "phone_number": "052-971-5511", "area": "愛知県"}
{"id": 5, "name": "マスプロ美術館", "location": "愛知県日進市浅田町上納80", "business_hours": "9:00~17:00(入館は閉館の30分前)", "admission_fees": "一般500円、学生250円", "website_url": null, "phone_number": "052-804-6666", "area": "愛知県"}
{"id": 6, "name": "刈谷市美術館", "location": "愛知県刈谷市住吉町4-5", "business_hours": "9:00~17:00(入館は16:30まで)", "admission_fees": "常設展の入場料金は無料、有料展の入場料金は展覧会ごとに変わります", "website_url": null, "phone_number": "0566-23-1636", "area": "愛知県"}
{"id": 7, "name": "三河工芸ガラス美術館", "location": "愛知県西尾市富山町東郷5", "business_hours": "10:00~17:30(最終入館17:00)", "admission_fees": "一般(中学生以上)700円、小学生450円、幼児(3歳以上)300円、大人1人につき幼児1人無料", "website_url": null, "phone_number": "0563-59-3334", "area": "愛知県"}
{"id": 8, "name": "はるひ美術館", "location": "愛知県清須市春日夢の森1", "business_hours": "10:00~19:00(入館は18:30まで)", "admission_fees": "常設展:一般(高校生以上)200円、中学生以下無料、団体(高校生以上)160円、中学生以下無料、団体料金は20名以上、特別展:特別展により異なります", "website_url": null, "phone_number": "052-401-3881", "area": "愛知県"}
{"id": 9, "name": "やきものの里かわら美術館", "location": "愛知県高浜市青木町9-6-18", "business_hours": "10:00~17:00(観覧券の販売は16:30まで)、施設利用は21:00まで", "admission_fees": "常設展示:無料、企画展:大人(高校生以上)200円、特別展:特別展により異なります、小人(中学生以下)無料", "website_url": null, "phone_number": "0566-52-3366", "area": "愛知県"}
{"id": 10, "name": "三岸節子記念美術館", "location": "愛知県一宮市小信中島郷南3147-1", "business_hours": "9:00~17:00(入館は16:30まで)", "admission_fees": "一般320円、高校生・大学生210円、小中学生110円", "website_url": null, "phone_number": "0586-63-2892", "area": "愛知県"}
{"id": 11, "name": "メナード美術館", "location": "愛知県小牧市小牧5-250", "business_hours": "10:00~17:00(最終入館16:30まで)", "admission_fees": "一般1000円(800円)、高大生600円(500円)、小中生300円(250円)、()内は20名以上の団体料金および前売料金、障害者手帳(ミライロID可)、被爆者健康手帳、戦傷病者手帳、特定医療費受給者証をお持ちの方および同行者1名は無料", "website_url": null, "phone_number": "0568-75-5787", "area": "愛知県"}
{"id": 12, "name": "愛知県陶磁美術館", "location": "愛知県瀬戸市南山口町234", "business_hours": "9:30~16:30(入館は16:00まで)、7/1~9/30は9:30~17:00(入館は16:30まで)", "admission_fees": "常設展およびテーマ展示:一般400円、高校生・大学生300円、中学生以下無料、企画展および特別企画展は別料金", "website_url": null, "phone_number": "0561-84-4932", "area": "愛知県"}
{"id": 13, "name": "名都美術館", "location": "愛知県長久手市杁ケ池301", "business_hours": "10:00~17:00", "admission_fees": "一般600円、大学生300円、中高生150円", "website_url": null, "phone_number": "0561-62-8884", "area": "愛知県"}
{"id": 14, "name": "荻須記念美術館", "location": "愛知県稲沢市稲沢町前田365-8", "business_hours": "9:30~17:00", "admission_fees": "常設展示室:一般310円、大・高校生210円、小・中学生50円、市内の小・中学生、市内の障害者手帳等お持ちの方と介護者1名無料", "website_url": null, "phone_number": "0587-23-3300", "area": "愛知県"}
{"id": 15, "name": "貨幣・浮世絵ミュージアム", "location": "愛知県名古屋市中区錦3-21-24 三菱UFJ銀行名古屋ビル1階", "business_hours": "9:00~16:00(入館は15:30まで)", "admission_fees": "無料", "website_url": null, "phone_number": "052-300-8686", "area": "愛知県"}
{"id": 16, "name": "岡崎市美術館", "location": "愛知県岡崎市明大寺町字茶園11-3", "business_hours": "10:00~19:00(10月~5月は18:00まで)", "admission_fees": "市内の中学生以下無料", "website_url": null, "phone_number": "0564-51-4280", "area": "愛知県"}
{"id": 17, "name": "藤井達吉現代美術館", "location": "愛知県碧南市音羽町1-1", "business_hours": "10:00~18:00、特別展の観覧時間:10:00~18:00(入場は観覧時間の終了の30分前まで)", "admission_fees": "入館料無料、観覧料:展覧会ごとに定めます、小学生未満無料", "website_url": null, "phone_number": "0566-48-6602", "area": "愛知県"}
{"id": 18, "name": "かみや美術館", "location": "愛知県半田市有脇町10-8-9", "business_hours": "10:00~16:00", "admission_fees": "大人500円、小・中・高校生300円", "website_url": null, "phone_number": "0569-29-2626", "area": "愛知県"}
{"id": 19, "name": "古川美術館", "location": "愛知県名古屋市千種区池下町2-50", "business_hours": "10:00~17:00(入館は16:30まで)", "admission_fees": "単館券800円~、展覧会内容によって入館料が変動します", "website_url": null, "phone_number": "052-763-1991", "area": "愛知県"}
{"id": 20, "name": "春日井市道風記念館", "location": "愛知県春日井市松河戸町5-9-3", "business_hours": "9:00~16:30", "admission_fees": "通常:一般100円、高校・大学生50円、中学生以下無料、特別展:一般500円、高校・大学生300円、中学生以下無料", "website_url": null, "phone_number": "0568-82-6110", "area": "愛知県"}
{"id": 21, "name": "小原和紙美術館", "location": "愛知県豊田市永太郎町洞216-1", "business_hours": "情報なし", "admission_fees": "情報なし", "website_url": null, "phone_number": "0565-65-2151", "area": "愛知県"}
{"id": 22, "name": "ヤマザキマザック美術館", "location": "愛知県名古屋市東区葵1-19-30", "business_hours": "平日:10:00~17:30、土日祝:10:00~17:00(最終入館は閉館30分前まで)", "admission_fees": "通常料金:一般1000円、団体(10名以上)800円、小・中・高生500円、小学生未満無料", "website_url": null, "phone_number": "052-937-3737", "area": "愛知県"}
{"id": 23, "name": "茶臼山高原の美術館", "location": "愛知県北設楽郡豊根村字坂宇場御所平70-185", "business_hours": "4月:9:00~16:00、5月~10月:9:00~16:30", "admission_fees": "一般400円、小中学生150円", "website_url": null, "phone_number": "0536-87-2345", "area": "愛知県"}
{"id": 24, "name": "横山美術館", "location": "愛知県名古屋市東区葵", "business_hours": "10:00~17:00(最終入館時間16:30)", "admission_fees": "企画展開催時:一般1000円(800円)、高・大学生・65歳以上800円(600円)、中学生600円(400円)、小学生以下無料、障がい者手帳700円(500円)、常設展のみ開催時:一般700円(500円)、高・大学生・65歳以上500円(300円)、中学生400円(300円)、小学生以下無料、障がい者手帳400円(300円)、()内は20名以上の団体料金", "website_url": null, "phone_number": "052-931-0006", "area": "愛知県"}
{"id": 25, "name": "文化のみち 堀美術館", "location": "愛知県名古屋市東区主税町4-4-2", "business_hours": "情報なし", "admission_fees": "情報なし", "website_url": null, "phone_number": "情報なし", "area": "愛知県"}