{"id": 1, "name": "安芸市立書道美術館", "location": "高知県安芸市土居953", "business_hours": "9:00~17:00", "admission_fees": "一般300円、中高生100円、小学生50円", "website_url": null, "phone_number": "0887-34-1613", "area": "高知県"}
{"id": 2, "name": "高知県立美術館", "location": "高知県高知市高須353-2", "business_hours": "9:00~17:00(入場は16:30まで)", "admission_fees": "コレクション展:一般360円、大学生250円、高校生以下無料", "website_url": null, "phone_number": "088-866-8000", "area": "高知県"}
{"id": 3, "name": "佐川おもちゃ美術館", "location": "高知県高岡郡佐川町加茂2711-1", "business_hours": "10:00~16:00(最終入館受付15:30)", "admission_fees": "こども:無料(1歳未満)、500円(1歳以上中学生まで) おとな:800円(高校生以上)", "website_url": null, "phone_number": "0889-20-9977", "area": "高知県"}
{"id": 4, "name": "香美市立美術館", "location": "高知県香美市土佐山田町北本町2-262-1", "business_hours": "9:00~17:00(入館は16:30まで)", "admission_fees": "通常の展示:一般310円(20名以上の団体150円)、長寿手帳提示で一般個人料金の半額、身体障害者手帳・障害者手帳(精神障害者保健福祉手帳)・療育手帳所持者とその介助者(1名)無料 特別展:市長が2000円以内で都度定める額", "website_url": null, "phone_number": "0887-53-5110", "area": "高知県"}
{"id": 5, "name": "香南市立赤岡町絵金蔵", "location": "高知県香南市赤岡町538", "business_hours": "情報なし", "admission_fees": "情報なし", "website_url": null, "phone_number": "0887-57-7117", "area": "高知県"}
{"id": 6, "name": "中土佐町立美術館", "location": "高知県高岡郡中土佐町久礼6584-1", "business_hours": "10:00~17:00(入館16:30まで)", "admission_fees": "一般300円、高校生100円、小・中学生50円", "website_url": null, "phone_number": "0889-52-4444", "area": "高知県"}
{"id": 7, "name": "竜串貝類展示館海のギャラリー", "location": "高知県土佐清水市竜串", "business_hours": "情報なし", "admission_fees": "情報なし", "website_url": null, "phone_number": "0880-85-0137", "area": "高知県"}