{"id": 1, "name": "函館美術館", "location": "北海道函館市五稜郭町37-6", "business_hours": "9:30~17:00(入場は16:30まで)", "admission_fees": "一般260円、高大生150円、中学生以下無料", "website_url": null, "phone_number": "0138-56-6311", "area": "北海道県"}
{"id": 2, "name": "北海道立近代美術館", "location": "北海道札幌市中央区北1条西17", "business_hours": "9:30~17:00", "admission_fees": "常設展:大人510円、高大生250円、特別展は別途", "website_url": null, "phone_number": "011-644-6881", "area": "北海道県"}
{"id": 3, "name": "小樽芸術村", "location": "北海道小樽市色内1-3-1", "business_hours": "美術館:5月~10月/9:30~17:00、11月~4月/10:00~16:00(入場は閉館30分前まで)、ミュージアムショップ:5月~10月/9:30~18:00(土曜は20:00まで)、11月~4月/10:00~16:00、閉館日:5月~10月の第4水曜日、11月~4月の水曜日(祝日の場合木曜日)、年末年始(12/30~1/2)、展示の準備等による不定期の閉館あり、ミュージアムショップは年中無休", "admission_fees": "4館共通券(大人2900円、大学生2000円、高校生1500円、中学生1000円、小学生500円)、西洋美術館(大人1500円、大学生1000円、高校生700円、中学生500円、小学生300円)、似鳥美術館(大人1500円、大学生1000円、高校生700円、中学生500円、小学生300円)、ステンドグラス美術館(大人1000円、大学生800円、高校生600円、中学生500円、小学生300円)、旧三井銀行小樽支店(大人700円、大学生500円、高校生400円、中学生300円、小学生200円)、小樽市民の小中学生は無料", "website_url": null, "phone_number": "0134-31-1033", "area": "北海道県"}
{"id": 4, "name": "小樽美術館", "location": "北海道小樽市色内1-9-5", "business_hours": "9:30~17:00", "admission_fees": "無料", "website_url": null, "phone_number": "0134-34-0035", "area": "北海道県"}
{"id": 5, "name": "札幌芸術の森美術館", "location": "北海道札幌市南区芸術の森2-75", "business_hours": "9:45~17:00、6~8月は17:30まで(入館は閉館30分前まで)", "admission_fees": "展示により異なる、札幌芸術の森野外美術館:大人700円、中学生以下無料", "website_url": null, "phone_number": "011-591-0090", "area": "北海道県"}
{"id": 6, "name": "釧路湿原美術館", "location": "北海道釧路市阿寒町上阿寒23線38-18", "business_hours": "4~10月:10:00~17:00(入場16:30まで)、11~3月:10:00~16:00(入場15:30まで)", "admission_fees": "大人500円、高・大学生300円、小・中学生(父母同伴)無料", "website_url": null, "phone_number": "0154-66-1117", "area": "北海道県"}
{"id": 7, "name": "木田金次郎美術館", "location": "北海道岩内郡岩内町字万代51-3", "business_hours": "10:00~18:00(入館は17:30まで)", "admission_fees": "一般500円(400円)、高校生200円(150円)、小・中学生100円(80円)、()内は団体料金(10名以上、JAF割引、リピーター割引)", "website_url": null, "phone_number": "0135-63-2221", "area": "北海道県"}
{"id": 8, "name": "旭川美術館", "location": "北海道旭川市常磐公園内", "business_hours": "9:30~17:00(入場は16:30まで)", "admission_fees": "第1展示室(企画展):展覧会によって異なります、第2展示室(所蔵品展):一般260円、高校・大学生150円、65歳以上無料、中学生以下無料", "website_url": null, "phone_number": "0166-25-2577", "area": "北海道県"}
{"id": 9, "name": "帯広美術館", "location": "北海道帯広市緑ケ丘2", "business_hours": "9:30~17:00", "admission_fees": "コレクションギャラリー:一般260円、高・大学生150円", "website_url": null, "phone_number": "0155-22-6963", "area": "北海道県"}
{"id": 10, "name": "北のアルプ美術館", "location": "北海道斜里郡斜里町朝日町11-2", "business_hours": "夏期(6月~10月):10:00~17:00、冬期(11月~5月):10:00~16:00", "admission_fees": "無料", "website_url": null, "phone_number": "0152-23-4000", "area": "北海道県"}
{"id": 11, "name": "神田日勝記念美術館", "location": "北海道河東郡鹿追町東町3-2", "business_hours": "10:00~17:00", "admission_fees": "一般520円、高校生310円、小・中学生210円、障害者手帳等お持ちの方は無料", "website_url": null, "phone_number": "0156-66-1555", "area": "北海道県"}
{"id": 12, "name": "森の美術館・木夢", "location": "北海道紋別郡西興部村字西興部276", "business_hours": "夏期(4月~10月):10:00~17:00、冬期(11月~3月):10:00~16:30", "admission_fees": "1日利用券:高校生以上500円、小学校4年生~中学生300円、3歳~小学3年生以下100円", "website_url": null, "phone_number": "0158-87-2600", "area": "北海道県"}
{"id": 13, "name": "中原悌二郎記念旭川市彫刻美術館", "location": "北海道旭川市春光5条7丁目", "business_hours": "8:45~17:15 ※平成29年まで長期休館中", "admission_fees": "一般300円、高校生200円、中学生以下無料", "website_url": null, "phone_number": "0166-52-0033", "area": "北海道県"}
{"id": 14, "name": "トリックアート美術館", "location": "北海道空知郡上富良野町西8線北33号 深山峠", "business_hours": "4月・9月・10月・11月:9:00~17:00、5月・6月・7月・8月:9:00~18:00、12月・1月・2月・3月:10:00~16:00(入館は閉館30分前まで)", "admission_fees": "大人1300円、中高生1000円、小学5年生以上700円、小学4年生以下無料", "website_url": null, "phone_number": "0167-45-3788", "area": "北海道県"}
{"id": 15, "name": "金田心象書道美術館", "location": "北海道天塩郡幌延町幌延102-1", "business_hours": "10:00~16:00", "admission_fees": "一般300円、小・中・高校生150円", "website_url": null, "phone_number": "01632-5-2720", "area": "北海道県"}
{"id": 16, "name": "網走市立美術館", "location": "北海道網走市南6条西1丁目", "business_hours": "火~日曜日:10:00~16:00", "admission_fees": "高校生以上120円、小中学生60円、土曜日は市内小中学生無料", "website_url": null, "phone_number": "0152-44-5045", "area": "北海道県"}
{"id": 17, "name": "後藤純男美術館", "location": "北海道空知郡上富良野町東4線北26号", "business_hours": "9:00~17:00(11月~3月は9:00~16:00)", "admission_fees": "大人1000円、小~高校生500円", "website_url": null, "phone_number": "0167-45-6181", "area": "北海道県"}
{"id": 18, "name": "太陽の森ディマシオ幻想美術館", "location": "北海道新冠郡新冠町字太陽204-5", "business_hours": "3/30~11/24 、無休期間(4/25~5/6、7/18~9/29):9:00~17:00(17:00まで入館可)、通常期間:9:30~16:30(16:30まで入館可)", "admission_fees": "大人1100円、高・大学生900円、中学生300円、小学生以下無料", "website_url": null, "phone_number": "0146-45-3312", "area": "北海道県"}
{"id": 19, "name": "三岸好太郎美術館", "location": "北海道札幌市中央区北2条西15丁目", "business_hours": "9:30~17:00(入館は16:30まで)", "admission_fees": "大人510円、高大学生250円、中学生以下無料", "website_url": null, "phone_number": "011-644-8901", "area": "北海道県"}
{"id": 20, "name": "小川原脩記念美術館", "location": "北海道虻田郡倶知安町北6条東7-1", "business_hours": "9:00~17:00(入館時間は16:30まで)", "admission_fees": "一般500円、高校生300円、小中学生100円", "website_url": null, "phone_number": "0136-21-4141", "area": "北海道県"}
{"id": 21, "name": "西村計雄記念美術館", "location": "北海道岩内郡共和町南幌似143-2", "business_hours": "9:00~17:00", "admission_fees": "一般500円、高校生200円、小・中学生100円", "website_url": null, "phone_number": "0135-71-2525", "area": "北海道県"}
{"id": 22, "name": "釧路市立美術館", "location": "北海道釧路市幣舞町4-28", "business_hours": "10:00~17:00", "admission_fees": "展覧会ごとに設定", "website_url": null, "phone_number": "0154-42-6116", "area": "北海道県"}
{"id": 23, "name": "室蘭市民美術館", "location": "北海道室蘭市幸町6-23", "business_hours": "10:00~17:00", "admission_fees": "無料", "website_url": null, "phone_number": "0143-22-1124", "area": "北海道県"}
{"id": 24, "name": "伏木田光夫美術館", "location": "北海道浦河郡浦河町字西幌別", "business_hours": "9:00~16:00", "admission_fees": "無料", "website_url": null, "phone_number": "0146-28-1304", "area": "北海道県"}
{"id": 25, "name": "本郷新記念札幌彫刻美術館", "location": "北海道札幌市中央区宮の森4条12-2", "business_hours": "10:00~17:00(入館は16:30まで)", "admission_fees": "一般300円、65歳以上250円、高大生200円、中学生以下無料", "website_url": null, "phone_number": "011-642-5709", "area": "北海道県"}
{"id": 26, "name": "相原求一朗美術館", "location": "北海道河西郡中札内村栄東5線173-1", "business_hours": "4月下旬~9月:10:00~17:00、10月~11月上旬:10:00~16:00", "admission_fees": "大人(高校生以上)500円、中学生300円、小学生300円", "website_url": null, "phone_number": "0155-68-3003", "area": "北海道県"}
{"id": 27, "name": "荒井記念美術館", "location": "北海道岩内郡岩内町字野束505", "business_hours": "9:00~17:00(入館は16:30まで)", "admission_fees": "一般1000円、高・大学生700円、小中学生400円", "website_url": null, "phone_number": "0135-63-1111", "area": "北海道県"}
{"id": 28, "name": "荒川版画美術館", "location": "北海道標津郡中標津町字俣落2000-8", "business_hours": "10:00~17:00", "admission_fees": "無料", "website_url": null, "phone_number": "0153-73-7151", "area": "北海道県"}
{"id": 29, "name": "かたるべの森美術館", "location": "北海道上川郡当麻町伊香牛2区", "business_hours": "10:00~15:00", "admission_fees": "300円", "website_url": null, "phone_number": "0166-84-2880", "area": "北海道県"}