{"id": 1, "name": "金沢21世紀美術館", "location": "石川県金沢市広坂1-2-1", "business_hours": "展覧会ゾーン:10:00~18:00(金・土曜は20:00まで)", "admission_fees": "展覧会により異なる", "website_url": null, "phone_number": "076-220-2800", "area": "石川県"}
{"id": 2, "name": "能登島ガラス美術館", "location": "石川県七尾市能登島向田町125-10", "business_hours": "4月~11月:9:00~17:00(入館は16:30まで)、12月~3月:9:00~16:30(入館は16:00まで)", "admission_fees": "大人(高校生以上)800円、中学生以下無料", "website_url": null, "phone_number": "0767-84-1175", "area": "石川県"}
{"id": 3, "name": "石川県立美術館", "location": "石川県金沢市出羽町2-1", "business_hours": "9:30~18:00、カフェ:10:00~19:00(年中無休)", "admission_fees": "コレクション展示室:一般360円、大学生290円、高校生以下無料、65歳以上290円、無料の日あり", "website_url": null, "phone_number": "076-231-7580", "area": "石川県"}
{"id": 4, "name": "金沢能楽美術館", "location": "石川県金沢市広坂1-2-25", "business_hours": "10:00~18:00(入館は17:30まで)", "admission_fees": "一般300円、65歳以上200円、高校生以下無料", "website_url": null, "phone_number": "076-220-2790", "area": "石川県"}
{"id": 5, "name": "中村記念美術館", "location": "石川県金沢市本多町3-2-29", "business_hours": "9:30~17:00(受付は16:30まで)", "admission_fees": "一般300円、65歳以上200円、障害者手帳をお持ちの方およびその介護人200円(日祝日は無料)、高校生以下無料、茶菓券:200円・300円", "website_url": null, "phone_number": "076-221-0751", "area": "石川県"}
{"id": 6, "name": "本陣記念美術館", "location": "石川県小松市丸の内公園町19", "business_hours": "9:00~17:00(ただし、入館は16:30まで)", "admission_fees": "平常展:一般400円、大学生200円、高校生以下無料、団体(20名以上):一般300円、大学生150円、高校生以下無料、特別展はその都度定めます、こまつミュージアム・パス1週間券500円、年間券1500円(対象施設の平常展を有効期限内であれば何度でも観覧可)", "website_url": null, "phone_number": "0761-22-3384", "area": "石川県"}
{"id": 7, "name": "七尾美術館", "location": "石川県七尾市小丸山台1-1", "business_hours": "9:00~17:00(入館は16:30まで)", "admission_fees": "一般500円、大高校生350円、中学生以下無料、展示内容により料金が変わります", "website_url": null, "phone_number": "0767-53-1500", "area": "石川県"}
{"id": 8, "name": "宮本三郎美術館", "location": "石川県小松市小馬出町5", "business_hours": "9:00~17:00(但し、入場は16:30まで)", "admission_fees": "個人:一般400円、大学生200円、高校生以下無料、特別展はその都度定めます", "website_url": null, "phone_number": "0761-20-3600", "area": "石川県"}
{"id": 9, "name": "九谷焼美術館", "location": "石川県加賀市大聖寺地方町1-10-13", "business_hours": "9:00~17:00(ご入館は16:30まで)", "admission_fees": "一般500円、高齢者(75歳以上)250円、高校生以下無料、障害者無料", "website_url": null, "phone_number": "0761-72-7466", "area": "石川県"}
{"id": 10, "name": "石川県輪島漆芸美術館", "location": "石川県輪島市水守町四十苅11", "business_hours": "9:00~17:00", "admission_fees": "大人600円、大学生300円、高校生300円、中学生150円、小学生150円", "website_url": null, "phone_number": "0768-22-9788", "area": "石川県"}
{"id": 11, "name": "浅蔵五十吉美術館", "location": "石川県能美市泉台町南1", "business_hours": "9:00~17:00(受付終了は16:30まで)", "admission_fees": "大人430円、75歳以上320円、高校生以下無料", "website_url": null, "phone_number": "0761-58-6789", "area": "石川県"}
{"id": 12, "name": "松任中川一政記念美術館", "location": "石川県白山市旭町61-1", "business_hours": "9:00~17:00(入館は16:30まで)", "admission_fees": "大人200円、高校生100円、中学生以下無料、同日に限り白山市立松任博物館入館無料", "website_url": null, "phone_number": "076-275-7532", "area": "石川県"}
{"id": 13, "name": "宮本三郎美術館分館 宮本三郎ふるさと館", "location": "石川県小松市松崎町16-1", "business_hours": "9:00~17:00(入館は16:30まで)", "admission_fees": "平常展:一般400円、大学生200円、高校生以下無料、団体(20名以上):一般300円、大学生150円、高校生以下無料、特別展はその都度定めます。こまつミュージアム・パス1週間券500円、年間券1500円(対象施設の平常展を有効期限内であれば何度でも観覧可)", "website_url": null, "phone_number": "0761-43-3032", "area": "石川県"}
{"id": 14, "name": "羽根万象美術館", "location": "石川県鳳珠郡能登町宇出津イ112-5", "business_hours": "9:00~17:00(入館は16:30まで)", "admission_fees": "大人300円、小・中・高校生150円", "website_url": null, "phone_number": "0768-62-3669", "area": "石川県"}
{"id": 15, "name": "硲伊之助美術館", "location": "石川県加賀市吸坂町4-3", "business_hours": "10:00~17:00(入館は16:30まで)", "admission_fees": "大人500円、高校生以下無料", "website_url": null, "phone_number": "0761-72-0872", "area": "石川県"}
{"id": 16, "name": "能美市九谷焼美術館", "location": "石川県能美市泉台町56", "business_hours": "9:00~17:00、五彩館・浅蔵五十吉記念館は16:30まで、体験館は16:00まで", "admission_fees": "大人430円、75歳以上320円、高校生以下無料", "website_url": null, "phone_number": "0761-58-6100", "area": "石川県"}