{"id": 1, "name": "角川武蔵野ミュージアム", "location": "埼玉県所沢市東所沢和田3-31-3", "business_hours": "日~木曜:10:00~18:00(最終入館17:30)、金・土曜:10:00~21:00(最終入館20:30)", "admission_fees": "スタンダードチケット(大人1200円、中高生1000円、小学生800円)、1DAYパスポート(月~木曜:大人3000円、中高生2100円、小学生1600円、金土日:大人4000円、中高生3100円、小学生2600円)、企画展によって入場料異なる", "website_url": null, "phone_number": "0570-017-396", "area": "埼玉県"}
{"id": 2, "name": "埼玉県立近代美術館", "location": "埼玉県さいたま市浦和区常盤9-30-1", "business_hours": "10:00~17:00", "admission_fees": "無料", "website_url": null, "phone_number": "048-824-0111", "area": "埼玉県"}
{"id": 3, "name": "川越市立美術館", "location": "埼玉県川越市郭町2-30-1", "business_hours": "9:00~17:00(入場は16:30まで)", "admission_fees": "常設展:一般200円、大学生・高校生100円、中学生以下無料、特別展:展覧会ごとに設定", "website_url": null, "phone_number": "049-228-8080", "area": "埼玉県"}
{"id": 4, "name": "うらわ美術館", "location": "埼玉県さいたま市浦和区仲町2-5-1", "business_hours": "平日:10:00~17:00、土日:10:00~20:00(入場は閉館30分前まで)", "admission_fees": "展示物によって観覧料が変わります", "website_url": null, "phone_number": "048-827-3215", "area": "埼玉県"}
{"id": 5, "name": "大宮盆栽美術館", "location": "埼玉県さいたま市北区土呂町2-24-3", "business_hours": "3月~10月:9:00~16:30、11月~2月:9:00~16:00", "admission_fees": "一般300円、高大生・65歳以上150円、小中学生100円、障害者手帳所有者と付添人1名は半額", "website_url": null, "phone_number": "048-780-2091", "area": "埼玉県"}
{"id": 6, "name": "アートギャラリー・アトリア", "location": "埼玉県川口市並木元町1-76", "business_hours": "10:00~18:00", "admission_fees": "無料", "website_url": null, "phone_number": "048-253-0222", "area": "埼玉県"}
{"id": 7, "name": "原爆の図丸木美術館", "location": "埼玉県東松山市下唐子1401", "business_hours": "3月~11月:9:00~17:00、12月~2月:9:30~16:30", "admission_fees": "大人900円、中高生600円、小学生400円、60歳以上800円", "website_url": null, "phone_number": "0493-22-3266", "area": "埼玉県"}
{"id": 8, "name": "河鍋暁斎記念美術館", "location": "埼玉県蕨市南町4-36-4", "business_hours": "10:00~16:00(16:00まで入館可)", "admission_fees": "一般500円、高・大学生400円、小・中学生200円、65歳以上400円、幼児無料、特別展開催時は100円加算", "website_url": null, "phone_number": "048-441-9780", "area": "埼玉県"}
{"id": 9, "name": "しのぎ刀剣美術館", "location": "埼玉県比企郡ときがわ町五明267-5", "business_hours": "9:00~18:00", "admission_fees": "無料", "website_url": null, "phone_number": "0493-65-0282", "area": "埼玉県"}
{"id": 10, "name": "秩父美術館", "location": "埼玉県秩父市永田町7-1", "business_hours": "10:00~16:00(最終入館時間17:00まで)", "admission_fees": "大人500円、学生400円", "website_url": null, "phone_number": "0494-23-1177", "area": "埼玉県"}