{"id":1,"name":"万代島美術館","location":"新潟県新潟市中央区万代島5-1","business_hours":"10:00~18:00","admission_fees":"310円:一般 150円:大学生・高校生 無料:中学生以下","website_url":null,"phone_number":"025-290-6655","area":"新潟県"}
{"id":2,"name":"新潟市美術館","location":"新潟県新潟市中央区西大畑町5191-9","business_hours":"09:30~18:00","admission_fees":"200円:一般 150円:大高生 100円:中小生","website_url":null,"phone_number":"025-223-1622","area":"新潟県"}
{"id":3,"name":"新潟市新津美術館","location":"新潟県新潟市秋葉区蒲ヶ沢109-1","business_hours":"10:00~17:00","admission_fees":"展覧会によって異なります。","website_url":null,"phone_number":"0250-25-1300","area":"新潟県"}
{"id":4,"name":"新潟県立近代美術館","location":"新潟県長岡市千秋3丁目278-14","business_hours":"09:00~17:00","admission_fees":"430円:一般 200円:高校・大学生 無料:中学生以下 ※特別展の入館料は、お問い合わせください。","website_url":null,"phone_number":"0258-28-4111","area":"新潟県"}
{"id":5,"name":"雪梁舎美術館","location":"新潟県新潟市西区山田451","business_hours":"09:30~17:00","admission_fees":"500円:一般 無料:中学生以下","website_url":null,"phone_number":"025-377-1888","area":"新潟県"}
{"id":6,"name":"胎内市美術館","location":"新潟県胎内市下赤谷387-15","business_hours":"情報なし","admission_fees":"情報なし","website_url":null,"phone_number":"0254-47-2288","area":"新潟県"}
{"id":7,"name":"駒形十吉記念美術館","location":"新潟県長岡市今朝白2丁目1-4","business_hours":"情報なし","admission_fees":"情報なし","website_url":null,"phone_number":"0258-35-6111","area":"新潟県"}
{"id":8,"name":"知足美術館","location":"新潟県新潟市中央区新光町10-2","business_hours":"情報なし","admission_fees":"情報なし","website_url":null,"phone_number":"025-281-2001","area":"新潟県"}
{"id":9,"name":"トミオカホワイト美術館","location":"新潟県南魚沼市上薬師堂142","business_hours":"09:00~17:00","admission_fees":"500円:一般 250円:小中高生","website_url":null,"phone_number":"025-775-3646","area":"新潟県"}
{"id":10,"name":"良寛の里美術館","location":"新潟県長岡市島崎3938","business_hours":"09:00~17:00","admission_fees":"500円:大人（高校生以上） 300円:小・中学生 無料:未就学児は無料","website_url":null,"phone_number":"0258-74-3700","area":"新潟県"}
{"id":11,"name":"池田記念美術館","location":"新潟県南魚沼市浦佐5493-3","business_hours":"情報なし","admission_fees":"情報なし","website_url":null,"phone_number":"025-780-4080","area":"新潟県"}
{"id":12,"name":"谷村美術館","location":"新潟県糸魚川市京ケ峰2丁目1-13","business_hours":"情報なし","admission_fees":"情報なし","website_url":null,"phone_number":"025-552-9277","area":"新潟県"}
{"id":13,"name":"潟東樋口記念美術館","location":"新潟県新潟市西蒲区三方92","business_hours":"09:00~16:00","admission_fees":"500円:一般 300円:小・中学生 無料:身体障害者手帳、療育手帳、精神障がい者保健福祉手帳のお持ちの方:本人は無料、介助者は手帳提示者1名につき1名無料","website_url":null,"phone_number":"0256-86-3444","area":"新潟県"}
{"id":14,"name":"長岡市栃尾美術館","location":"新潟県長岡市上の原町1-13","business_hours":"09:00~17:00","admission_fees":"200円:大人（館所蔵品展） 150円:高校・大学生 100円:小・中学生 無料:幼児","website_url":null,"phone_number":"0258-53-6300","area":"新潟県"}
{"id":15,"name":"小林古径記念美術館","location":"新潟県上越市本城町7-7","business_hours":"09:00~17:00","admission_fees":"300円:一般 150円:小中高校生","website_url":null,"phone_number":"025-523-8680","area":"新潟県"}
{"id":16,"name":"木村茶道美術館","location":"新潟県柏崎市緑町3-1","business_hours":"情報なし","admission_fees":"情報なし","website_url":null,"phone_number":"0257-23-8061","area":"新潟県"}
{"id":17,"name":"佐渡版画村美術館","location":"新潟県佐渡市相川米屋町38-2","business_hours":"情報なし","admission_fees":"情報なし","website_url":null,"phone_number":"0259-74-3931","area":"新潟県"}
{"id":18,"name":"樹下美術館","location":"新潟県上越市頸城区城野腰451","business_hours":"情報なし","admission_fees":"情報なし","website_url":null,"phone_number":"025-530-4155","area":"新潟県"}
{"id":19,"name":"日本アマチュア秀作美術館","location":"新潟県佐渡市小木町1946-6","business_hours":"情報なし","admission_fees":"情報なし","website_url":null,"phone_number":"0259-86-3841","area":"新潟県"}
{"id":20,"name":"星と森の詩美術館","location":"新潟県十日町市稲葉1099-1","business_hours":"情報なし","admission_fees":"情報なし","website_url":null,"phone_number":"025-752-7202","area":"新潟県"}
{"id":2,"name":"蓼科高原美術館矢崎虎夫記念館","location":"長野県茅野市北山4035","business_hours":"10:00~15:00","admission_fees":"500円:大人 300円:子供","website_url":null,"phone_number":"0266-67-6171","area":"長野県"}
{"id":3,"name":"小さな美術館軽井沢草花館","location":"長野県北佐久郡軽井沢町軽井沢東19-40","business_hours":"10:00~17:00","admission_fees":"500円:中学生以上 無料:小学生以下","website_url":null,"phone_number":"0267-42-0716","area":"長野県"}
{"id":4,"name":"長野市立博物館分館信州新町美術館","location":"長野県長野市信州新町上条88-3","business_hours":"09:00~16:30","admission_fees":"500円:大人 300円:高校生 200円:小中学生 （毎週土曜日は無料）","website_url":null,"phone_number":"026-262-3500","area":"長野県"}
{"id":5,"name":"飯山市美術館","location":"長野県飯山市飯山1436-1","business_hours":"09:00~17:00","admission_fees":"300円:大人 200円:小中学生","website_url":null,"phone_number":"0269-62-1501","area":"長野県"}
{"id":6,"name":"碌山美術館","location":"長野県安曇野市穂高5095-1","business_hours":"09:00~16:10","admission_fees":"900円:一般 300円:高校生 150円:小中生 半額:※障がい者手帳をお持ちの方は半額 20名様以上団体料金 大人800円/高校生250円/小中生100円","website_url":null,"phone_number":"0263-82-2094","area":"長野県"}
{"id":7,"name":"トリックアートミュージアム軽井沢","location":"長野県北佐久郡軽井沢町旧軽井沢809","business_hours":"10:00~18:00","admission_fees":"1,500円:大人 1,200円:シニア(65歳以上) 1,000円:高校生 900円:中学生 800円:小学生 500円:幼児(3歳〜未就学児) 2歳以下無料 300円:ペット","website_url":null,"phone_number":"0267-41-1122","area":"長野県"}
{"id":8,"name":"ル・ヴァン美術館","location":"長野県北佐久郡軽井沢町長倉957-10","business_hours":"10:00~17:00","admission_fees":"800円:大人 600円:大学・高校生 400円:中学・小学生 （障害者割引あり）","website_url":null,"phone_number":"0267-46-1911","area":"長野県"}
{"id":9,"name":"軽井沢ボヘミアンガラス美術館","location":"長野県北佐久郡軽井沢町軽井沢1310-20","business_hours":"10:00~18:00","admission_fees":"800円:一般 500円:中高生 無料:小学生以下","website_url":null,"phone_number":"0267-42-0880","area":"長野県"}
{"id":10,"name":"高橋節郎記念美術館","location":"長野県安曇野市穂高北穂高408-1","business_hours":"09:00~17:00","admission_fees":"400円:一般 300円:高校生・大学生 無料:中学生以下","website_url":null,"phone_number":"0263-81-3030","area":"長野県"}
{"id":11,"name":"脇田美術館","location":"長野県北佐久郡軽井沢町軽井沢町旧道1570-4","business_hours":"10:00~17:00","admission_fees":"1000円:大人 600円:高・大学生 0円:小・中学生","website_url":null,"phone_number":"0267-42-2639","area":"長野県"}
{"id":12,"name":"駒ヶ根高原美術館","location":"長野県駒ヶ根市赤穂88","business_hours":"10:00~16:30","admission_fees":"800円:大人 500円:大高生 300円:小中生 無料:※障がい者手帳をお持ちの方は無料、付添いの方（大人1名）は500円に割引いたします。","website_url":null,"phone_number":"0265-83-5100","area":"長野県"}
{"id":14,"name":"斑尾高原絵本美術館","location":"長野県飯山市斑尾高原1492-224","business_hours":"09:30~18:00","admission_fees":"700円:大人","website_url":null,"phone_number":"0269-64-2807","area":"長野県"}
{"id":15,"name":"青木村郷土美術館","location":"長野県小県郡青木村当郷2051-1","business_hours":"09:00~16:30","admission_fees":"200円:一般 150円:学生（高校、大学） 100円:児童生徒（小、中学生） 無料:小学生未満 50円引き:障がい者割引:本人と介護者1名50円引き","website_url":null,"phone_number":"0268-49-3838","area":"長野県"}
{"id":16,"name":"北野美術館","location":"長野県長野市若穂綿内7963","business_hours":"情報なし","admission_fees":"情報なし","website_url":null,"phone_number":"026-282-3450","area":"長野県"}
{"id":17,"name":"白馬美術館","location":"長野県北安曇郡白馬村北城2965","business_hours":"09:30~17:30","admission_fees":"700円:一般 400円:小中学生","website_url":null,"phone_number":"0261-72-6084","area":"長野県"}
{"id":18,"name":"泰阜村立学校美術館","location":"長野県下伊那郡泰阜村万場3817-2","business_hours":"09:00~17:00","admission_fees":"0円:入場料","website_url":null,"phone_number":"0260-26-2052","area":"長野県"}
{"id":19,"name":"須坂版画美術館平塚運一版画美術館","location":"長野県須坂市野辺1386-8","business_hours":"09:00~17:00","admission_fees":"300円:300円、中学生以下無料","website_url":null,"phone_number":"026-248-6633","area":"長野県"}
{"id":20,"name":"須坂アートパーク","location":"長野県須坂市野辺1386-8","business_hours":"-","admission_fees":"300円:大人 100円:小中学生 ※特別企画展の場合は入館料変更あり","website_url":null,"phone_number":"026-245-2340","area":"長野県"}
{"id":21,"name":"アンフォルメル中川村美術館","location":"長野県上伊那郡中川村大草2124","business_hours":"10:00~17:00","admission_fees":"400円:一般 無料:高校生以下 300円:団体（一般）","website_url":null,"phone_number":"0265-88-2680","area":"長野県"}
{"id":22,"name":"伊那アルプス美術館","location":"長野県上伊那郡箕輪町大字中箕輪14800-55","business_hours":"10:00~18:00","admission_fees":"400円:高校生以上 無料:中学生以下","website_url":null,"phone_number":"0265-70-7020","area":"長野県"}
{"id":23,"name":"京都造形芸術大学附属康耀堂美術館","location":"長野県茅野市豊平4734-215","business_hours":"10:00~17:00","admission_fees":"300円:一般（高、大生含む） 無料:中学生以下","website_url":null,"phone_number":"0266-71-6811","area":"長野県"}
{"id":24,"name":"野花の詩写真美術館","location":"長野県長野市松代町清野1948","business_hours":"10:00~17:00","admission_fees":"300円:一般（高校生以上） 200円:小中学生","website_url":null,"phone_number":"026-278-7235","area":"長野県"}
{"id":25,"name":"水村喜一郎美術館","location":"長野県東御市本海野645","business_hours":"10:00~17:00","admission_fees":"500円:一般 400円:65歳以上 無料:小中学生","website_url":null,"phone_number":"0268-71-5242","area":"長野県"}
{"id":1,"name":"田崎美術館","location":"長野県北佐久郡軽井沢町長倉横吹2141-279","business_hours":"10:00~17:00","admission_fees":"900円:一般 無料:未就学児 400円:小・中学生 700円:高校生","website_url":null,"phone_number":"0267-45-1186","area":"長野県"}
{"id":13,"name":"茅野市美術館","location":"長野県茅野市塚原1-1-1","business_hours":"情報なし","admission_fees":"情報なし","website_url":null,"phone_number":"0266-82-8222","area":"長野県"}
{"id":1,"name":"聖徳記念絵画館","location":"東京都新宿区霞ケ丘町1番1号","business_hours":"09:00~17:00","admission_fees":"500円","website_url":null,"phone_number":"03-3401-5179","area":"東京都"}
{"id":2,"name":"黒田記念館","location":"東京都台東区上野公園13-9","business_hours":"09:30~17:00","admission_fees":"無料","website_url":null,"phone_number":"03-5777-8600","area":"東京都"}
{"id":3,"name":"SOMPO美術館","location":"東京都新宿区西新宿1丁目26-1","business_hours":"10:00~18:00","admission_fees":"1,500円:大人 1,100円:大学生 無料:小・中・高校生 無料:障がい者の方","website_url":null,"phone_number":"050-5541-8600","area":"東京都"}
{"id":4,"name":"熊谷守一美術館","location":"東京都豊島区千早2-27-6","business_hours":"10:30~17:30","admission_fees":"500円:一般 300円:高・大学生 100円:小・中学生 無料:小学生未満","website_url":null,"phone_number":"03-3957-3779","area":"東京都"}
{"id":5,"name":"世田谷美術館","location":"東京都世田谷区砧公園1-2","business_hours":"10:00~18:00","admission_fees":"200円:一般 100円:65歳以上 150円:大高生 100円:中小生","website_url":null,"phone_number":"03-3415-6011","area":"東京都"}
{"id":6,"name":"PLAY!","location":"東京都立川市緑町3-1","business_hours":"10:00~17:00","admission_fees":"展覧会毎に設定","website_url":null,"phone_number":"042-518-9625","area":"東京都"}
{"id":7,"name":"小平市平櫛田中彫刻美術館","location":"東京都小平市学園西町1丁目7-5","business_hours":"10:00~16:00","admission_fees":"300円:一般150円:小・中学生*特別展はその都度定めます","website_url":null,"phone_number":"042-341-0098","area":"東京都"}
{"id":8,"name":"檜原森のおもちゃ美術館","location":"東京都西多摩郡檜原村3783","business_hours":"10:00~16:00","admission_fees":"1000円:大人（中学生以上）700円:子供（小学生以下）無料:子供（生後6ヶ月未満）500円:シニア（65歳以上）無料:障害者500円:檜原村民大人（中学生以上）※パスポート有り","website_url":null,"phone_number":"042-588-4044","area":"東京都"}
{"id":9,"name":"世田谷文学館","location":"東京都世田谷区南烏山1-10-10","business_hours":"10:00~18:00","admission_fees":"200円:一般150円:大学生・高校生100円:中学生・小学生100円:65歳以上その他条件あり【企画展】展示会ごとに異なります","website_url":null,"phone_number":"03-5374-9111","area":"東京都"}
{"id":10,"name":"みどりの美術館","location":"東京都立川市西砂町4丁目1-3","business_hours":"10:00~16:00","admission_fees":"無料","website_url":null,"phone_number":"042-531-0123","area":"東京都"}
{"id":11,"name":"たましん美術館","location":"東京都立川市緑町3-4","business_hours":"情報なし","admission_fees":"情報なし","website_url":null,"phone_number":"042-526-7788","area":"東京都"}
{"id":12,"name":"サントリー美術館","location":"東京都港区赤坂9-7-4東京ミッドタウンガレリア3階","business_hours":"情報なし","admission_fees":"情報なし","website_url":null,"phone_number":"情報なし","area":"東京都"}
{"id":13,"name":"たましん歴史・美術館","location":"東京都国立市中1丁目9-52","business_hours":"10:00~18:00","admission_fees":"100円:100円、中学生以下無料但し、企画展によって入館料を変更する場合があります（中学生以下は常に無料）","website_url":null,"phone_number":"042-574-1360","area":"東京都"}
{"id":14,"name":"東京タロット美術館","location":"東京都台東区柳橋2-4-2","business_hours":"10:00~19:00","admission_fees":"800円（キャッシュレス決済）","website_url":null,"phone_number":"情報なし","area":"東京都"}
{"id":15,"name":"中村研一記念小金井市立はけの森美術館","location":"東京都小金井市中町1丁目11-3","business_hours":"10:00~17:00","admission_fees":"200円:一般200円、小中学生100円、未就学児および障害者手帳をお持ちの方は無料です。企画展は別","website_url":null,"phone_number":"042-384-9800","area":"東京都"}
{"id":16,"name":"国立映画アーカイブ","location":"東京都中央区京橋3丁目7-6","business_hours":"11:00~18:30","admission_fees":"520円:一般310円:大学生・高校生・65歳以上100円:小学生・中学生210円:一般70円:大学生・シニア無料:高校生以下・障害者手帳提示とその介護者1名 無料","website_url":null,"phone_number":"050-5541-8600","area":"東京都"}
{"id":17,"name":"奥多摩せせらぎの里美術館","location":"東京都西多摩郡奥多摩町川井丹縄53","business_hours":"10:00~17:00","admission_fees":"300円:大人300円・小中学生200円","website_url":null,"phone_number":"0428-85-1109","area":"東京都"}
{"id":18,"name":"東京藝術大学大学美術館","location":"東京都台東区上野公園12-8","business_hours":"展覧会ごとに異なる","admission_fees":"観覧料は展覧会ごとに異なります","website_url":null,"phone_number":"03-5685-7755","area":"東京都"}
{"id":19,"name":"石洞美術館","location":"東京都足立区千住橋戸町23","business_hours":"10:00~17:00","admission_fees":"500円:大人500円、学生300円、小学生以下無料","website_url":null,"phone_number":"03-3888-7520","area":"東京都"}
{"id":20,"name":"八王子市夢美術館","location":"東京都八王子市八日町8-1","business_hours":"10:00~19:00","admission_fees":"100円:小学生以上","website_url":null,"phone_number":"042-621-6777","area":"東京都"}
{"id":21,"name":"小島善太郎美術館","location":"東京都青梅市滝ノ上町1346-1","business_hours":"09:00~17:00","admission_fees":"200円:大人200円、小・中学生50円 〈特別展〉別に定めます。 ##次の方は無料です。 1.市内在住の65歳以上の方 （要証明） 2.障害をお持ちの方 （要証明） 3.市内在住の小・中学生 （土曜日のみ）","website_url":null,"phone_number":"0428-24-1195","area":"東京都"}
{"id":25,"name":"静嘉堂文庫美術館","location":"東京都千代田区丸の内2-1-1明治生命館1F","business_hours":"情報なし","admission_fees":"情報なし","website_url":null,"phone_number":"情報なし","area":"東京都"}
{"id":22,"name":"古代エジプト美術館","location":"東京都渋谷区神南1-12-18メゾン渋谷801","business_hours":"12:00~18:00","admission_fees":"1,500円:一般1,200円:大学生1,000円:高校生以下","website_url":null,"phone_number":"03-6809-0718","area":"東京都"}
{"id":23,"name":"ヨックモックミュージアム","location":"東京都港区南青山6-15-1","business_hours":"情報なし","admission_fees":"情報なし","website_url":null,"phone_number":"03-3486-8000","area":"東京都"}
{"id":24,"name":"WHATMUSEUM","location":"東京都品川区東品川2-6-10寺田倉庫G号","business_hours":"11:00~18:00","admission_fees":"1,500円:一般800円:大学生/専門学生無料:高校生以下","website_url":null,"phone_number":"情報なし","area":"東京都"}
{"id":26,"name":"森アーツセンターギャラリー","location":"東京都港区六本木6丁目10-1六本木ヒルズ森タワー","business_hours":"情報なし","admission_fees":"情報なし","website_url":null,"phone_number":"情報なし","area":"東京都"}
{"id":27,"name":"三菱一号館美術館","location":"東京都千代田区丸の内2丁目6-2","business_hours":"情報なし","admission_fees":"情報なし","website_url":null,"phone_number":"情報なし","area":"東京都"}
