{"id":1,"name":"茨城県陶芸美術館","location":"茨城県笠間市笠間２３４５","business_hours":"9：30〜17：00","admission_fees":"コレクション展　一般：310円　大・高校生：260円　小・中学生：150円　70歳以上の方・障害者手帳等お持ちの方と付き添い1名・土曜入館の小・中・高校生：無料","website_url":null,"phone_number":"0296-70-0011","area":"茨城県"}
{"id":2,"name":"茨城県近代美術館","location":"茨城県水戸市千波町東久保６６６－１","business_hours":"9:30〜17:00(入場は16:30まで)","admission_fees":"一般  310円高校生・大学生  240円小学生・中学生  170円","website_url":null,"phone_number":"029-243-5111","area":"茨城県"}
{"id":3,"name":"古河歴史博物館別館古河街角美術館","location":"茨城県古河市中央町２丁目６－６０","business_hours":"09:00-17:00","admission_fees":"入館無料","website_url":null,"phone_number":"0280-22-5911","area":"茨城県"}
{"id":4,"name":"大野潮騒はまなす公園美術館・資料館","location":"茨城県鹿嶋市大字角折２０９６－１","business_hours":"9:00〜16:30","admission_fees":"大人：300円小中学生：200円4歳〜就学前：100円","website_url":null,"phone_number":"0299-69-4411","area":"茨城県"}
{"id":6,"name":"古河歴史博物館別館篆刻美術館","location":"茨城県古河市中央町２丁目４－１８","business_hours":"？午前9時から午後5時(入館は4時30分まで）","admission_fees":"？一般200円？小中高生50円","website_url":null,"phone_number":"0280-22-5611","area":"茨城県"}
{"id":5,"name":"天心記念五浦美術館","location":"茨城県北茨城市大津町椿２０８３","business_hours":"4/1〜9/30：9：00〜17：0010/1〜3/31：9：30〜17：00","admission_fees":"企画展　一般：620円　大・高校生：410円　小・中学生：210円所蔵品展　一般：190円　大・高校生：110円　小・中学生：80円70歳以上・障害者手帳等お持ちの方と付き添い1名・土曜の小・中・高校生の利用：無料","website_url":null,"phone_number":"0293-46-5311","area":"茨城県"}
{"id":7,"name":"茨城県近代美術館つくば分館","location":"茨城県つくば市吾妻２丁目８","business_hours":"9:30〜17:00","admission_fees":"展覧会毎に設定","website_url":null,"phone_number":"029-856-3711","area":"茨城県"}
{"id":8,"name":"しもだて美術館","location":"茨城県筑西市丙３７２","business_hours":"10:00〜18:00　（入館は17:30まで）","admission_fees":"一般：200円高校生以下：無料","website_url":null,"phone_number":"0296-23-1601","area":"茨城県"}
{"id":9,"name":"東京藝術大学大学美術館取手館","location":"茨城県取手市小文間５０００","business_hours":"開館時間、観覧料は展覧会ごとに異なります","admission_fees":"開館時間、観覧料は展覧会ごとに異なります","website_url":null,"phone_number":"0297-73-9111","area":"茨城県"}
{"id":10,"name":"ひょうたん美術館","location":"茨城県小美玉市小岩戸１６７７","business_hours":"9:30〜16:30（入館は16:00まで）","admission_fees":"大人：８００円、小･中学生：４００円","website_url":null,"phone_number":"0299-48-4088","area":"茨城県"}
{"id":11,"name":"チームラボ　幽谷隠田跡","location":"茨城県北茨城市大津町2132番地","business_hours":"情報なし","admission_fees":"情報なし","website_url":null,"phone_number":"情報なし","area":"茨城県"}
