{"id":1,"name":"岩手県立美術館","location":"岩手県盛岡市本宮字松幅１２－３","business_hours":"9:90~18:00","admission_fees":"一般410円学生310円高校生以下は無料","website_url":null,"phone_number":"019-658-1711","area":"岩手県"}
{"id":2,"name":"石神の丘美術館","location":"岩手県岩手郡岩手町大字五日市１０－１２１－２１","business_hours":"9：00〜17：00","admission_fees":"屋外展示　一般：100円　大・高校生：50円　中学生以下：無料　75歳以上：一般の半額　障害者手帳等お持ちの方と介助者1名：無料","website_url":null,"phone_number":"0195-62-1453","area":"岩手県"}
{"id":3,"name":"花巻おもちゃ美術館","location":"岩手県花巻市上町6－2","business_hours":"情報なし","admission_fees":"情報なし","website_url":null,"phone_number":"080-9257-7987","area":"岩手県"}
{"id":4,"name":"萬鉄五郎記念美術館","location":"岩手県花巻市東和町土沢５区１３５","business_hours":"8:30〜17:00 入館は16:30まで","admission_fees":"大人:400円大学生:250円 高校生:250円 中学生:150円小学生:150円","website_url":null,"phone_number":"0198-42-4405","area":"岩手県"}
{"id":5,"name":"川村美術館","location":"岩手県和賀郡西和賀町上野々３９地割１９０－２","business_hours":"午前９時３０分〜午後５時","admission_fees":"大人　５００円小中学生　４００円","website_url":null,"phone_number":"0197-82-3240","area":"岩手県"}
{"id":6,"name":"利根山光人記念美術館","location":"岩手県北上市立花５－１５３－２","business_hours":"午前10：00〜午後４：00（入館は午後３：30まで）","admission_fees":"一般　300円高校生　120円小・中学生　60円小学生未満　無料障がい者　無料（付添い１名無料）","website_url":null,"phone_number":"0197-65-1808","area":"岩手県"}
{"id":7,"name":"川村美術館デッサン館","location":"岩手県和賀郡西和賀町上野々３９地割１４２－１","business_hours":"■開館期間／４月中旬〜11月中旬■開館時間／午前９時〜午後４時30分","admission_fees":"■入館料／一般100円　小・中学生50円","website_url":null,"phone_number":"0197-82-3240","area":"岩手県"}
