{"id":1,"name":"安芸市立書道美術館","location":"高知県安芸市土居９５３","business_hours":"午前９時〜午後５時","admission_fees":"一般：３００円、中高生：１００円小学生：５０円","website_url":null,"phone_number":"0887-34-1613","area":"高知県県"}
{"id":2,"name":"高知県立美術館","location":"高知県高知市高須３５３－２","business_hours":"午前9時〜午後5時入場は午後4時30分まで","admission_fees":"・コレクション展一般：360円大学生：250円高校生以下は無料","website_url":null,"phone_number":"088-866-8000","area":"高知県県"}
{"id":3,"name":"佐川おもちゃ美術館","location":"高知県高岡郡佐川町加茂2711番地1","business_hours":"午前10時〜午後4時最終入館受付15時30分","admission_fees":"【一般】こども　無料(1歳未満)こども　500円(1歳以上中学生迄)おとな　800円(高校生以上)","website_url":null,"phone_number":"0889-20-9977","area":"高知県県"}
{"id":4,"name":"香美市立美術館","location":"高知県香美市土佐山田町北本町２丁目２６２－１","business_hours":"午前9時00分から、午後5時00分（但し、入館は4時30分まで）","admission_fees":"「通常の展示」　　一般310円（20名以上の団体150円）　長寿手帳提示の場合、一般個人料金の半額　身体障害者手帳、障害者手帳（精神障害者保健福祉手帳）、又は療育手帳を所持する者及びこれらの者を介助するために必要な者（身体障害者等1人につき1人）は無料 「特別展」　市長が2,000円以内でその都度定める額","website_url":null,"phone_number":"0887-53-5110","area":"高知県県"}
{"id":5,"name":"香南市立赤岡町絵金蔵","location":"高知県香南市赤岡町５３８","business_hours":"情報なし","admission_fees":"情報なし","website_url":null,"phone_number":"0887-57-7117","area":"高知県県"}
{"id":6,"name":"中土佐町立美術館","location":"高知県高岡郡中土佐町久礼6584番地1","business_hours":"10：00〜17：00（入館16：30まで）","admission_fees":"一般 ：300円高校生：100円小・中学生：50円","website_url":null,"phone_number":"0889-52-4444","area":"高知県県"}
{"id":7,"name":"竜串貝類展示館海のギャラリー","location":"高知県土佐清水市竜串","business_hours":"情報なし","admission_fees":"情報なし","website_url":null,"phone_number":"0880-85-0137","area":"高知県県"}
{"id":8,"name":"安芸市立書道美術館","location":"高知県安芸市土居９５３","business_hours":"午前９時〜午後５時","admission_fees":"一般：３００円、中高生：１００円小学生：５０円","website_url":null,"phone_number":"0887-34-1613","area":"高知県"}
{"id":9,"name":"高知県立美術館","location":"高知県高知市高須３５３－２","business_hours":"午前9時〜午後5時入場は午後4時30分まで","admission_fees":"・コレクション展一般：360円大学生：250円高校生以下は無料","website_url":null,"phone_number":"088-866-8000","area":"高知県"}
{"id":10,"name":"佐川おもちゃ美術館","location":"高知県高岡郡佐川町加茂2711番地1","business_hours":"午前10時〜午後4時最終入館受付15時30分","admission_fees":"【一般】こども　無料(1歳未満)こども　500円(1歳以上中学生迄)おとな　800円(高校生以上)","website_url":null,"phone_number":"0889-20-9977","area":"高知県"}
{"id":11,"name":"香美市立美術館","location":"高知県香美市土佐山田町北本町２丁目２６２－１","business_hours":"午前9時00分から、午後5時00分（但し、入館は4時30分まで）","admission_fees":"「通常の展示」　　一般310円（20名以上の団体150円）　長寿手帳提示の場合、一般個人料金の半額　身体障害者手帳、障害者手帳（精神障害者保健福祉手帳）、又は療育手帳を所持する者及びこれらの者を介助するために必要な者（身体障害者等1人につき1人）は無料 「特別展」　市長が2,000円以内でその都度定める額","website_url":null,"phone_number":"0887-53-5110","area":"高知県"}
{"id":12,"name":"香南市立赤岡町絵金蔵","location":"高知県香南市赤岡町５３８","business_hours":"情報なし","admission_fees":"情報なし","website_url":null,"phone_number":"0887-57-7117","area":"高知県"}
{"id":13,"name":"中土佐町立美術館","location":"高知県高岡郡中土佐町久礼6584番地1","business_hours":"10：00〜17：00（入館16：30まで）","admission_fees":"一般 ：300円高校生：100円小・中学生：50円","website_url":null,"phone_number":"0889-52-4444","area":"高知県"}
{"id":14,"name":"竜串貝類展示館海のギャラリー","location":"高知県土佐清水市竜串","business_hours":"情報なし","admission_fees":"情報なし","website_url":null,"phone_number":"0880-85-0137","area":"高知県"}
