{"id":1,"name":"丸亀市猪熊弦一郎現代美術館","location":"香川県丸亀市浜町80-1","business_hours":"10:00－18:00（入館は17:30まで）","admission_fees":"企画展：展覧会ごとに定めます 常設展：一般 300円　大学生 200円   高校生以下または18歳未満、丸亀市内に在住の65歳以上、各種障害者手帳をお持ちの方は無料","website_url":null,"phone_number":"0877-24-7766","area":"香川県県県県県"}
{"id":2,"name":"地中美術館","location":"香川県香川郡直島町3449-1","business_hours":"【3月1日 〜 9月30日】10:00 〜 18:00（ 最終入館17:00 ）【10月1日 〜 2月末日】 10:00 〜 17:00（ 最終入館16:00 ）","admission_fees":"2,060円※15歳以下無料","website_url":null,"phone_number":"087-892-3755","area":"香川県県県県県"}
{"id":3,"name":"豊島美術館","location":"香川県小豆郡土庄町豊島唐櫃６０７","business_hours":"【3月1日 〜 10月31日】10:00 〜 17:00（最終入館16:30）【11月1日 〜 2月末日】10:00 〜 16:00（最終入館15:30）","admission_fees":"1,540円※15歳以下無料","website_url":null,"phone_number":"0879-68-3555","area":"香川県県県県県"}
{"id":4,"name":"高松市美術館","location":"香川県高松市紺屋町１０－４","business_hours":"9:30〜17:00※入室は閉館時間の30分前まで※特別展開催期間中の火〜土・祝は19:00まで","admission_fees":"常設展一般 200円大学生 150円高校生以下 無料65歳以上 長寿手帳等の提示で免除","website_url":null,"phone_number":"087-823-1711","area":"香川県県県県県"}
{"id":6,"name":"東山魁夷せとうち美術館","location":"香川県坂出市沙弥島南通２２４－１３","business_hours":"午前9時から午後5時まで（入場は午後4時30分まで）","admission_fees":"※特別展の料金は展覧会ごとに設定します。 ※高校生以下、満65歳以上の方は無料です","website_url":null,"phone_number":"0877-44-1333","area":"香川県県県県県"}
{"id":7,"name":"塩江美術館","location":"香川県高松市塩江町安原上６０２","business_hours":"9:00〜17:00 ※入室は閉館時間の30分前まで","admission_fees":"常設展？一般 300円？大学生 150円？高校生以下 無料？65歳以上 長寿手帳等の提示で免除","website_url":null,"phone_number":"087-893-1800","area":"香川県県県県県"}
{"id":8,"name":"坂出市民美術館","location":"香川県坂出市寿町１丁目３－３５","business_hours":"午前９時〜午後５時","admission_fees":"無料（有料の時もある）","website_url":null,"phone_number":"0877-45-7110","area":"香川県県県県県"}
{"id":9,"name":"香川近代美術館","location":"香川県三豊市三野町下高瀬５４２－１","business_hours":"13:00〜17:00","admission_fees":"大人500円、大・中高生300円、小学生以下無料","website_url":null,"phone_number":"0875-73-3077","area":"香川県県県県県"}
{"id":18,"name":"香川近代美術館","location":"香川県三豊市三野町下高瀬５４２－１","business_hours":"13:00〜17:00","admission_fees":"大人500円、大・中高生300円、小学生以下無料","website_url":null,"phone_number":"0875-73-3077","area":"香川県県県県"}
{"id":5,"name":"中津万象園丸亀美術館","location":"香川県丸亀市中津町２５－１","business_hours":"AM9：30〜PM5：00（最終受付 PM4:30）","admission_fees":"庭園のみ：大人700円、小・中学生300円絵画館のみ：大人500円、小・中学生200円セット券：大人1,200円、小・中学生500円","website_url":null,"phone_number":"0877-23-6326","area":"香川県県県県県"}
{"id":10,"name":"丸亀市猪熊弦一郎現代美術館","location":"香川県丸亀市浜町80-1","business_hours":"10:00－18:00（入館は17:30まで）","admission_fees":"企画展：展覧会ごとに定めます 常設展：一般 300円　大学生 200円   高校生以下または18歳未満、丸亀市内に在住の65歳以上、各種障害者手帳をお持ちの方は無料","website_url":null,"phone_number":"0877-24-7766","area":"香川県県県県"}
{"id":11,"name":"地中美術館","location":"香川県香川郡直島町3449-1","business_hours":"【3月1日 〜 9月30日】10:00 〜 18:00（ 最終入館17:00 ）【10月1日 〜 2月末日】 10:00 〜 17:00（ 最終入館16:00 ）","admission_fees":"2,060円※15歳以下無料","website_url":null,"phone_number":"087-892-3755","area":"香川県県県県"}
{"id":19,"name":"丸亀市猪熊弦一郎現代美術館","location":"香川県丸亀市浜町80-1","business_hours":"10:00－18:00（入館は17:30まで）","admission_fees":"企画展：展覧会ごとに定めます 常設展：一般 300円　大学生 200円   高校生以下または18歳未満、丸亀市内に在住の65歳以上、各種障害者手帳をお持ちの方は無料","website_url":null,"phone_number":"0877-24-7766","area":"香川県県県"}
{"id":20,"name":"地中美術館","location":"香川県香川郡直島町3449-1","business_hours":"【3月1日 〜 9月30日】10:00 〜 18:00（ 最終入館17:00 ）【10月1日 〜 2月末日】 10:00 〜 17:00（ 最終入館16:00 ）","admission_fees":"2,060円※15歳以下無料","website_url":null,"phone_number":"087-892-3755","area":"香川県県県"}
{"id":21,"name":"豊島美術館","location":"香川県小豆郡土庄町豊島唐櫃６０７","business_hours":"【3月1日 〜 10月31日】10:00 〜 17:00（最終入館16:30）【11月1日 〜 2月末日】10:00 〜 16:00（最終入館15:30）","admission_fees":"1,540円※15歳以下無料","website_url":null,"phone_number":"0879-68-3555","area":"香川県県県"}
{"id":22,"name":"高松市美術館","location":"香川県高松市紺屋町１０－４","business_hours":"9:30〜17:00※入室は閉館時間の30分前まで※特別展開催期間中の火〜土・祝は19:00まで","admission_fees":"常設展一般 200円大学生 150円高校生以下 無料65歳以上 長寿手帳等の提示で免除","website_url":null,"phone_number":"087-823-1711","area":"香川県県県"}
{"id":23,"name":"中津万象園丸亀美術館","location":"香川県丸亀市中津町２５－１","business_hours":"AM9：30〜PM5：00（最終受付 PM4:30）","admission_fees":"庭園のみ：大人700円、小・中学生300円絵画館のみ：大人500円、小・中学生200円セット券：大人1,200円、小・中学生500円","website_url":null,"phone_number":"0877-23-6326","area":"香川県県県"}
{"id":24,"name":"東山魁夷せとうち美術館","location":"香川県坂出市沙弥島南通２２４－１３","business_hours":"午前9時から午後5時まで（入場は午後4時30分まで）","admission_fees":"※特別展の料金は展覧会ごとに設定します。 ※高校生以下、満65歳以上の方は無料です","website_url":null,"phone_number":"0877-44-1333","area":"香川県県県"}
{"id":25,"name":"塩江美術館","location":"香川県高松市塩江町安原上６０２","business_hours":"9:00〜17:00 ※入室は閉館時間の30分前まで","admission_fees":"常設展？一般 300円？大学生 150円？高校生以下 無料？65歳以上 長寿手帳等の提示で免除","website_url":null,"phone_number":"087-893-1800","area":"香川県県県"}
{"id":26,"name":"坂出市民美術館","location":"香川県坂出市寿町１丁目３－３５","business_hours":"午前９時〜午後５時","admission_fees":"無料（有料の時もある）","website_url":null,"phone_number":"0877-45-7110","area":"香川県県県"}
{"id":27,"name":"香川近代美術館","location":"香川県三豊市三野町下高瀬５４２－１","business_hours":"13:00〜17:00","admission_fees":"大人500円、大・中高生300円、小学生以下無料","website_url":null,"phone_number":"0875-73-3077","area":"香川県県県"}
{"id":12,"name":"豊島美術館","location":"香川県小豆郡土庄町豊島唐櫃６０７","business_hours":"【3月1日 〜 10月31日】10:00 〜 17:00（最終入館16:30）【11月1日 〜 2月末日】10:00 〜 16:00（最終入館15:30）","admission_fees":"1,540円※15歳以下無料","website_url":null,"phone_number":"0879-68-3555","area":"香川県県県県"}
{"id":13,"name":"高松市美術館","location":"香川県高松市紺屋町１０－４","business_hours":"9:30〜17:00※入室は閉館時間の30分前まで※特別展開催期間中の火〜土・祝は19:00まで","admission_fees":"常設展一般 200円大学生 150円高校生以下 無料65歳以上 長寿手帳等の提示で免除","website_url":null,"phone_number":"087-823-1711","area":"香川県県県県"}
{"id":14,"name":"中津万象園丸亀美術館","location":"香川県丸亀市中津町２５－１","business_hours":"AM9：30〜PM5：00（最終受付 PM4:30）","admission_fees":"庭園のみ：大人700円、小・中学生300円絵画館のみ：大人500円、小・中学生200円セット券：大人1,200円、小・中学生500円","website_url":null,"phone_number":"0877-23-6326","area":"香川県県県県"}
{"id":15,"name":"東山魁夷せとうち美術館","location":"香川県坂出市沙弥島南通２２４－１３","business_hours":"午前9時から午後5時まで（入場は午後4時30分まで）","admission_fees":"※特別展の料金は展覧会ごとに設定します。 ※高校生以下、満65歳以上の方は無料です","website_url":null,"phone_number":"0877-44-1333","area":"香川県県県県"}
{"id":16,"name":"塩江美術館","location":"香川県高松市塩江町安原上６０２","business_hours":"9:00〜17:00 ※入室は閉館時間の30分前まで","admission_fees":"常設展？一般 300円？大学生 150円？高校生以下 無料？65歳以上 長寿手帳等の提示で免除","website_url":null,"phone_number":"087-893-1800","area":"香川県県県県"}
{"id":17,"name":"坂出市民美術館","location":"香川県坂出市寿町１丁目３－３５","business_hours":"午前９時〜午後５時","admission_fees":"無料（有料の時もある）","website_url":null,"phone_number":"0877-45-7110","area":"香川県県県県"}
{"id":28,"name":"丸亀市猪熊弦一郎現代美術館","location":"香川県丸亀市浜町80-1","business_hours":"10:00－18:00（入館は17:30まで）","admission_fees":"企画展：展覧会ごとに定めます 常設展：一般 300円　大学生 200円   高校生以下または18歳未満、丸亀市内に在住の65歳以上、各種障害者手帳をお持ちの方は無料","website_url":null,"phone_number":"0877-24-7766","area":"香川県県"}
{"id":29,"name":"地中美術館","location":"香川県香川郡直島町3449-1","business_hours":"【3月1日 〜 9月30日】10:00 〜 18:00（ 最終入館17:00 ）【10月1日 〜 2月末日】 10:00 〜 17:00（ 最終入館16:00 ）","admission_fees":"2,060円※15歳以下無料","website_url":null,"phone_number":"087-892-3755","area":"香川県県"}
{"id":30,"name":"豊島美術館","location":"香川県小豆郡土庄町豊島唐櫃６０７","business_hours":"【3月1日 〜 10月31日】10:00 〜 17:00（最終入館16:30）【11月1日 〜 2月末日】10:00 〜 16:00（最終入館15:30）","admission_fees":"1,540円※15歳以下無料","website_url":null,"phone_number":"0879-68-3555","area":"香川県県"}
{"id":31,"name":"高松市美術館","location":"香川県高松市紺屋町１０－４","business_hours":"9:30〜17:00※入室は閉館時間の30分前まで※特別展開催期間中の火〜土・祝は19:00まで","admission_fees":"常設展一般 200円大学生 150円高校生以下 無料65歳以上 長寿手帳等の提示で免除","website_url":null,"phone_number":"087-823-1711","area":"香川県県"}
{"id":32,"name":"中津万象園丸亀美術館","location":"香川県丸亀市中津町２５－１","business_hours":"AM9：30〜PM5：00（最終受付 PM4:30）","admission_fees":"庭園のみ：大人700円、小・中学生300円絵画館のみ：大人500円、小・中学生200円セット券：大人1,200円、小・中学生500円","website_url":null,"phone_number":"0877-23-6326","area":"香川県県"}
{"id":33,"name":"東山魁夷せとうち美術館","location":"香川県坂出市沙弥島南通２２４－１３","business_hours":"午前9時から午後5時まで（入場は午後4時30分まで）","admission_fees":"※特別展の料金は展覧会ごとに設定します。 ※高校生以下、満65歳以上の方は無料です","website_url":null,"phone_number":"0877-44-1333","area":"香川県県"}
{"id":34,"name":"塩江美術館","location":"香川県高松市塩江町安原上６０２","business_hours":"9:00〜17:00 ※入室は閉館時間の30分前まで","admission_fees":"常設展？一般 300円？大学生 150円？高校生以下 無料？65歳以上 長寿手帳等の提示で免除","website_url":null,"phone_number":"087-893-1800","area":"香川県県"}
{"id":35,"name":"坂出市民美術館","location":"香川県坂出市寿町１丁目３－３５","business_hours":"午前９時〜午後５時","admission_fees":"無料（有料の時もある）","website_url":null,"phone_number":"0877-45-7110","area":"香川県県"}
{"id":36,"name":"香川近代美術館","location":"香川県三豊市三野町下高瀬５４２－１","business_hours":"13:00〜17:00","admission_fees":"大人500円、大・中高生300円、小学生以下無料","website_url":null,"phone_number":"0875-73-3077","area":"香川県県"}
{"id":37,"name":"丸亀市猪熊弦一郎現代美術館","location":"香川県丸亀市浜町80-1","business_hours":"10:00－18:00（入館は17:30まで）","admission_fees":"企画展：展覧会ごとに定めます 常設展：一般 300円　大学生 200円   高校生以下または18歳未満、丸亀市内に在住の65歳以上、各種障害者手帳をお持ちの方は無料","website_url":null,"phone_number":"0877-24-7766","area":"香川県"}
{"id":38,"name":"地中美術館","location":"香川県香川郡直島町3449-1","business_hours":"【3月1日 〜 9月30日】10:00 〜 18:00（ 最終入館17:00 ）【10月1日 〜 2月末日】 10:00 〜 17:00（ 最終入館16:00 ）","admission_fees":"2,060円※15歳以下無料","website_url":null,"phone_number":"087-892-3755","area":"香川県"}
{"id":39,"name":"豊島美術館","location":"香川県小豆郡土庄町豊島唐櫃６０７","business_hours":"【3月1日 〜 10月31日】10:00 〜 17:00（最終入館16:30）【11月1日 〜 2月末日】10:00 〜 16:00（最終入館15:30）","admission_fees":"1,540円※15歳以下無料","website_url":null,"phone_number":"0879-68-3555","area":"香川県"}
{"id":40,"name":"高松市美術館","location":"香川県高松市紺屋町１０－４","business_hours":"9:30〜17:00※入室は閉館時間の30分前まで※特別展開催期間中の火〜土・祝は19:00まで","admission_fees":"常設展一般 200円大学生 150円高校生以下 無料65歳以上 長寿手帳等の提示で免除","website_url":null,"phone_number":"087-823-1711","area":"香川県"}
{"id":41,"name":"中津万象園丸亀美術館","location":"香川県丸亀市中津町２５－１","business_hours":"AM9：30〜PM5：00（最終受付 PM4:30）","admission_fees":"庭園のみ：大人700円、小・中学生300円絵画館のみ：大人500円、小・中学生200円セット券：大人1,200円、小・中学生500円","website_url":null,"phone_number":"0877-23-6326","area":"香川県"}
{"id":42,"name":"東山魁夷せとうち美術館","location":"香川県坂出市沙弥島南通２２４－１３","business_hours":"午前9時から午後5時まで（入場は午後4時30分まで）","admission_fees":"※特別展の料金は展覧会ごとに設定します。 ※高校生以下、満65歳以上の方は無料です","website_url":null,"phone_number":"0877-44-1333","area":"香川県"}
{"id":43,"name":"塩江美術館","location":"香川県高松市塩江町安原上６０２","business_hours":"9:00〜17:00 ※入室は閉館時間の30分前まで","admission_fees":"常設展？一般 300円？大学生 150円？高校生以下 無料？65歳以上 長寿手帳等の提示で免除","website_url":null,"phone_number":"087-893-1800","area":"香川県"}
{"id":44,"name":"坂出市民美術館","location":"香川県坂出市寿町１丁目３－３５","business_hours":"午前９時〜午後５時","admission_fees":"無料（有料の時もある）","website_url":null,"phone_number":"0877-45-7110","area":"香川県"}
{"id":45,"name":"香川近代美術館","location":"香川県三豊市三野町下高瀬５４２－１","business_hours":"13:00〜17:00","admission_fees":"大人500円、大・中高生300円、小学生以下無料","website_url":null,"phone_number":"0875-73-3077","area":"香川県"}
