{"id":1,"name":"とりっくあーとぴあ日光","location":"栃木県日光市小佐越1-4","business_hours":"【7月中旬〜8/31】 9:00〜17:30【9/1〜7月中旬】 9:30〜17:00","admission_fees":"中学生以上：1,900円3歳〜小学生：1,100円 障がい者手帳お持ちの方中学生以上：950円3歳〜小学生：550円 ホログラフィー館は 300円追加料金でご利用可能","website_url":null,"phone_number":"0288-77-3565","area":"栃木県県"}
{"id":2,"name":"那珂川町馬頭広重美術館","location":"栃木県那須郡那珂川町馬頭１１６－９","business_hours":"9:30〜17:00　（入館は16:30まで）","admission_fees":"一般：500円大高生：300円中学生以下：無料障がい者手帳お持ちの方、付き添いの方は半額。","website_url":null,"phone_number":"0287-92-1199","area":"栃木県県"}
{"id":3,"name":"車屋美術館","location":"栃木県小山市乙女３丁目１０－３４","business_hours":"4〜9月　9:00〜17:0010〜3月　9:00〜16:00","admission_fees":"美術館展示は展示内容により異なる","website_url":null,"phone_number":"0285-41-0968","area":"栃木県県"}
{"id":4,"name":"宇都宮美術館","location":"栃木県宇都宮市長岡町１０７７","business_hours":"9:30〜17:00","admission_fees":"一般　310円高･大学生　210円小･中学生　100円※宇都宮市内在学もしくは在住の高校生以下は無料。4月1日(市民の日)･11月3日(文化の日)は宇都宮市民は無料。障害者割引あり(要証明書)","website_url":null,"phone_number":"028-643-0100","area":"栃木県県"}
{"id":6,"name":"うつのみや文化の森","location":"栃木県宇都宮市長岡町1077","business_hours":"午後8時〜午後10時（駐車場の利用時間です）","admission_fees":"無料","website_url":null,"phone_number":"028-643-0100","area":"栃木県県"}
{"id":8,"name":"川上澄生美術館","location":"栃木県鹿沼市睦町２８７－１４","business_hours":"9：00〜17：00（入館は16：30まで）","admission_fees":"一般300円（200円） 　　高校生・大学生200円（100円） 　　小学生・中学生100円（50円）　　 　　（　　）内は20名以上の団体料金です。 　　※毎週土曜日は小・中学生は無料でご覧いただけます。 　　※毎月第3日曜日は鹿沼市内の小・中学生及び同伴する大人は無料です。 　　※障がい者手帳の交付を受けている方とその介護者1名は無料です。","website_url":null,"phone_number":"0289-62-8272","area":"栃木県県"}
{"id":10,"name":"吉澤記念美術館","location":"栃木県佐野市葛生東１－１４－３０","business_hours":"午前9時30分〜午後5時","admission_fees":"一般510円大学生以下・障害者手帳等をお持ちの方は観覧無料※学生証・障害者手帳等をご提示ください。","website_url":null,"phone_number":"0283-86-2008","area":"栃木県県"}
{"id":11,"name":"サンバレー美術館","location":"栃木県那須郡那須町大字湯本２０３","business_hours":"10：00〜12：0013：00〜17：00","admission_fees":"大人７００円　中･高･大学生５００円　小学生以下無料","website_url":null,"phone_number":"0287-76-6600","area":"栃木県県"}
{"id":12,"name":"草雲美術館","location":"栃木県足利市緑町２－３７６８","business_hours":"午前9時〜午後4時","admission_fees":"個人（一般・高校生）　210円中学生以下　無料","website_url":null,"phone_number":"0284-21-3808","area":"栃木県県"}
{"id":13,"name":"東石美術館","location":"栃木県佐野市本町２８９２","business_hours":"午前10時〜午後5時","admission_fees":"大人1,000円（ペアチケット1,800円）、高・大学生800円小・中学生500円","website_url":null,"phone_number":"0283-23-8111","area":"栃木県県"}
{"id":14,"name":"ギャラリーハンナ","location":"栃木県宇都宮市松が峰２－７－１７","business_hours":"9〜17時（17時半閉館）","admission_fees":"催事による","website_url":null,"phone_number":"028-638-6123","area":"栃木県県"}
{"id":15,"name":"とりっくあーとぴあ日光","location":"栃木県日光市小佐越1-4","business_hours":"【7月中旬〜8/31】 9:00〜17:30【9/1〜7月中旬】 9:30〜17:00","admission_fees":"中学生以上：1,900円3歳〜小学生：1,100円 障がい者手帳お持ちの方中学生以上：950円3歳〜小学生：550円 ホログラフィー館は 300円追加料金でご利用可能","website_url":null,"phone_number":"0288-77-3565","area":"栃木県"}
{"id":5,"name":"栃木県立美術館","location":"栃木県宇都宮市桜４丁目２－７","business_hours":"午前9時30分から午後5時まで（入館は4時30分まで）","admission_fees":"企画展ごとに定められています無料日：2016年6月11日（土）、12日（日）、15日（水）県民の日、11月3日（木）文化の日","website_url":null,"phone_number":"028-621-3566","area":"栃木県県"}
{"id":7,"name":"小杉放菴記念日光美術館","location":"栃木県日光市山内２３８８－３","business_hours":"9：30〜17：00","admission_fees":"一般：720円大学生：510円高校生以下：無料障害者手帳等お持ちの方と介護者1名：無料","website_url":null,"phone_number":"0288-50-1200","area":"栃木県県"}
{"id":9,"name":"足利市立美術館","location":"栃木県足利市通２－１４－７","business_hours":"AM10:00〜PM6：00（入館はPM 5:30まで）","admission_fees":"展覧会によって異る郷土作家コーナーは観覧無料 中学生以下はすべての展覧会無料郷土作家コーナーは観覧無料","website_url":null,"phone_number":"0284-43-3131","area":"栃木県県"}
{"id":25,"name":"サンバレー美術館","location":"栃木県那須郡那須町大字湯本２０３","business_hours":"10：00〜12：0013：00〜17：00","admission_fees":"大人７００円　中･高･大学生５００円　小学生以下無料","website_url":null,"phone_number":"0287-76-6600","area":"栃木県"}
{"id":26,"name":"草雲美術館","location":"栃木県足利市緑町２－３７６８","business_hours":"午前9時〜午後4時","admission_fees":"個人（一般・高校生）　210円中学生以下　無料","website_url":null,"phone_number":"0284-21-3808","area":"栃木県"}
{"id":27,"name":"東石美術館","location":"栃木県佐野市本町２８９２","business_hours":"午前10時〜午後5時","admission_fees":"大人1,000円（ペアチケット1,800円）、高・大学生800円小・中学生500円","website_url":null,"phone_number":"0283-23-8111","area":"栃木県"}
{"id":28,"name":"ギャラリーハンナ","location":"栃木県宇都宮市松が峰２－７－１７","business_hours":"9〜17時（17時半閉館）","admission_fees":"催事による","website_url":null,"phone_number":"028-638-6123","area":"栃木県"}
{"id":16,"name":"那珂川町馬頭広重美術館","location":"栃木県那須郡那珂川町馬頭１１６－９","business_hours":"9:30〜17:00　（入館は16:30まで）","admission_fees":"一般：500円大高生：300円中学生以下：無料障がい者手帳お持ちの方、付き添いの方は半額。","website_url":null,"phone_number":"0287-92-1199","area":"栃木県"}
{"id":17,"name":"車屋美術館","location":"栃木県小山市乙女３丁目１０－３４","business_hours":"4〜9月　9:00〜17:0010〜3月　9:00〜16:00","admission_fees":"美術館展示は展示内容により異なる","website_url":null,"phone_number":"0285-41-0968","area":"栃木県"}
{"id":20,"name":"うつのみや文化の森","location":"栃木県宇都宮市長岡町1077","business_hours":"午後8時〜午後10時（駐車場の利用時間です）","admission_fees":"無料","website_url":null,"phone_number":"028-643-0100","area":"栃木県"}
{"id":18,"name":"宇都宮美術館","location":"栃木県宇都宮市長岡町１０７７","business_hours":"9:30〜17:00","admission_fees":"一般　310円高･大学生　210円小･中学生　100円※宇都宮市内在学もしくは在住の高校生以下は無料。4月1日(市民の日)･11月3日(文化の日)は宇都宮市民は無料。障害者割引あり(要証明書)","website_url":null,"phone_number":"028-643-0100","area":"栃木県"}
{"id":19,"name":"栃木県立美術館","location":"栃木県宇都宮市桜４丁目２－７","business_hours":"午前9時30分から午後5時まで（入館は4時30分まで）","admission_fees":"企画展ごとに定められています無料日：2016年6月11日（土）、12日（日）、15日（水）県民の日、11月3日（木）文化の日","website_url":null,"phone_number":"028-621-3566","area":"栃木県"}
{"id":21,"name":"小杉放菴記念日光美術館","location":"栃木県日光市山内２３８８－３","business_hours":"9：30〜17：00","admission_fees":"一般：720円大学生：510円高校生以下：無料障害者手帳等お持ちの方と介護者1名：無料","website_url":null,"phone_number":"0288-50-1200","area":"栃木県"}
{"id":22,"name":"川上澄生美術館","location":"栃木県鹿沼市睦町２８７－１４","business_hours":"9：00〜17：00（入館は16：30まで）","admission_fees":"一般300円（200円） 　　高校生・大学生200円（100円） 　　小学生・中学生100円（50円）　　 　　（　　）内は20名以上の団体料金です。 　　※毎週土曜日は小・中学生は無料でご覧いただけます。 　　※毎月第3日曜日は鹿沼市内の小・中学生及び同伴する大人は無料です。 　　※障がい者手帳の交付を受けている方とその介護者1名は無料です。","website_url":null,"phone_number":"0289-62-8272","area":"栃木県"}
{"id":23,"name":"足利市立美術館","location":"栃木県足利市通２－１４－７","business_hours":"AM10:00〜PM6：00（入館はPM 5:30まで）","admission_fees":"展覧会によって異る郷土作家コーナーは観覧無料 中学生以下はすべての展覧会無料郷土作家コーナーは観覧無料","website_url":null,"phone_number":"0284-43-3131","area":"栃木県"}
{"id":24,"name":"吉澤記念美術館","location":"栃木県佐野市葛生東１－１４－３０","business_hours":"午前9時30分〜午後5時","admission_fees":"一般510円大学生以下・障害者手帳等をお持ちの方は観覧無料※学生証・障害者手帳等をご提示ください。","website_url":null,"phone_number":"0283-86-2008","area":"栃木県"}
