{"id":1,"name":"倉敷市立美術館","location":"岡山県倉敷市中央２丁目６－１","business_hours":"9：00〜17：15","admission_fees":"コレクション展　一般：210円　大・高校生：100円　小・中学生：50円　65歳以上の方・倉敷市内の小・中学生・障害者手帳等お持ちの方と介護者1名：無料","website_url":null,"phone_number":"086-425-6034","area":"岡山県県"}
{"id":2,"name":"やかげ郷土美術館","location":"岡山県小田郡矢掛町矢掛３１１８－１","business_hours":"9〜17時(入館は〜16時30分)","admission_fees":"常設展一　般\\t　200円中高生　\\t100円小学生\\t　50円","website_url":null,"phone_number":"0866-82-2110","area":"岡山県県"}
{"id":3,"name":"林原美術館","location":"岡山県岡山市北区丸の内2-7-15","business_hours":"10：00〜17：00","admission_fees":"一般：500円高校生： 300円","website_url":null,"phone_number":"086-223-1733","area":"岡山県県"}
{"id":4,"name":"岡山県立美術館","location":"岡山県岡山市北区天神町８－４８","business_hours":"9時〜17時（入館は閉館30分前まで）","admission_fees":"一般350円大学生250円小中高生無料65歳以上170円","website_url":null,"phone_number":"086-225-4800","area":"岡山県県"}
{"id":5,"name":"オリエント美術館","location":"岡山県岡山市北区天神町９－３１","business_hours":"午前9時〜午後5時（入館は午後4時30分まで）","admission_fees":"一般300円高・大生200円小・中学生100円※特別展は別料金","website_url":null,"phone_number":"086-232-3636","area":"岡山県県"}
{"id":6,"name":"倉敷刀剣美術館","location":"岡山県倉敷市茶屋町１７３","business_hours":"１０：００〜１５：００まで【入館１４：３０迄】※悪天候時は予告なく閉館と致します。","admission_fees":"1.000円【1年間有効のパスポート制】※小学生以下のお子様の入館はご遠慮戴いております。ご理解・ご協力をお願いいたします。","website_url":null,"phone_number":"086-420-0066","area":"岡山県県"}
{"id":7,"name":"大原美術館","location":"岡山県倉敷市中央1丁目1－15","business_hours":"9:00〜17:00（最終入館　16:30）","admission_fees":"一般\\t1,500円\\t高校・中学・小学生\\t500円※小学生未満は無料です。","website_url":null,"phone_number":"086-422-0005","area":"岡山県県"}
{"id":10,"name":"新見美術館","location":"岡山県新見市西方３６１","business_hours":"AM9:30〜PM5:00まで(入館はPM4:30まで)","admission_fees":"各展覧会案内を参照下さい。","website_url":null,"phone_number":"0867-72-7851","area":"岡山県県"}
{"id":8,"name":"奈義町現代美術館","location":"岡山県勝田郡奈義町豊沢４４１","business_hours":"9:30〜17:00（入館は16:30まで）","admission_fees":"一般・大学生：700円、高校生：500円、中学・小学生：300円※75歳以上無料","website_url":null,"phone_number":"0868-36-5811","area":"岡山県県"}
{"id":9,"name":"高梁市成羽美術館","location":"岡山県高梁市成羽町下原１０６８－３","business_hours":"9時30分〜17時00分","admission_fees":"一般500円高大学生300円小中学生200円　　　　　※ただし、特別展・企画展会期中は特別料金となります。","website_url":null,"phone_number":"0866-42-4455","area":"岡山県県"}
{"id":16,"name":"吉永美術館","location":"岡山県備前市吉永町吉永中８８５","business_hours":"午前９時〜午後４時３０分（企画展の内容により変更有)","admission_fees":"無料※特別展の時は別に定める","website_url":null,"phone_number":"0869-84-2511","area":"岡山県県"}
{"id":11,"name":"吉備川上ふれあい漫画美術館","location":"岡山県高梁市川上町地頭１８３４","business_hours":"午前9時〜午後5時","admission_fees":"大人　　　　　　　　400円高校生・大学生　300円小学生・中学生　200円 ももっこカードを提示された世帯は2割引・公益財団法人　岡山県郷土文化財団会員証をお持ちの方は2割引　以下の方は無料　・市内に住所を有する65歳以上の方　・未就学児　・市内に住所を有する小学校または中学校の児童、生徒　（ただし、土曜、日曜、祝日および学校休業日に限る。）　・身体障害者手帳、療育手帳または精神障害者保健福祉手帳をお持ちの方と介助者1名（受付で手帳を提示してください）　・学習活動のため、教職員に引率されて観覧する市内の小学校または中学校の児童、生徒(引率教職員を含む。)　・高梁川流域パスポートを提示された小学生（ただし、土曜日、日曜日、祝日のみ）","website_url":null,"phone_number":"0866-48-3664","area":"岡山県県"}
{"id":12,"name":"高梁市歴史美術館","location":"岡山県高梁市原田北町１２０３－１","business_hours":"午前９時から午後５時まで（入館は午後４時30分まで）","admission_fees":"大人　３００円 小中学生　１５０円65歳以上・障害者　無料","website_url":null,"phone_number":"0866-21-0180","area":"岡山県県"}
{"id":13,"name":"夢二郷土美術館分館夢二生家","location":"岡山県瀬戸内市邑久町本庄１９９２","business_hours":"午前9時から午後5時（入館は午後４時３０分まで）","admission_fees":"大人500円中高大学生250円小学生200円","website_url":null,"phone_number":"0869-22-3335","area":"岡山県県"}
{"id":14,"name":"瀬戸内市立美術館","location":"岡山県瀬戸内市牛窓町牛窓４９１１","business_hours":"午前9時〜午後5時(入館は午後4時30分まで)","admission_fees":"常設展:一般400円、65歳以上)300円、中学生以下無料特別展:別に定めます","website_url":null,"phone_number":"0869-34-3130","area":"岡山県県"}
{"id":15,"name":"竹喬美術館","location":"岡山県笠岡市六番町１－１７","business_hours":"９時３０分〜１７時００分(ただし、入館は１６時３０分まで）","admission_fees":"個人：一般５００円、高校生３００円、市外小中学生１５０円特別催事期間中は特別料金65歳以上（運転免許証・保険証・高齢者施設利用証など生年月日が記載された証明証）、市内在住または市内小・中学校に通学する小・中学生（笠岡っ子無料パス）は、（）内の証明書の提示で無料","website_url":null,"phone_number":"0865-63-3967","area":"岡山県県"}
{"id":17,"name":"井原市立平櫛田中美術館","location":"岡山県井原市井原町３１５","business_hours":"9：00〜17：00（ただし入館は16：30まで）","admission_fees":"一般：500円高校生以下、市内在住の65歳以上の方：無料  特別展は別に定めます。","website_url":null,"phone_number":"0866-62-8787","area":"岡山県県"}
{"id":18,"name":"猪風来美術館","location":"岡山県新見市法曽６０９","business_hours":"午前9時30分〜午後5時","admission_fees":"一般400円、高校生200円、中学生以下無料","website_url":null,"phone_number":"0867-75-2444","area":"岡山県県"}
{"id":19,"name":"かがみの近代美術館","location":"岡山県苫田郡鏡野町奥津川西６９２","business_hours":"9:00〜18:00入館受付は17:00時まで","admission_fees":"お一人様700円（お飲み物付）小学生以下は無料","website_url":null,"phone_number":"0868-52-0722","area":"岡山県県"}
