{"id":37,"name":"鹿児島市立美術館","location":"鹿児島県鹿児島市城山町4-36","business_hours":"午前9時30分〜午後6時（入館は午後5時30分まで）","admission_fees":"常設展一般300円高大生200円小中生150円","website_url":null,"phone_number":"099-224-3400","area":"鹿児島県"}
{"id":38,"name":"田中一村記念美術館","location":"鹿児島県奄美市笠利町大字節田１８３４","business_hours":"９：００〜１８：００（最終入館17：30）※７，８月は９：００〜１９：００（最終入館18：30）","admission_fees":"大人： 510円高校生・大学生： 360円小学生・中学生： 250円幼児（小学生未満）：無料","website_url":null,"phone_number":"0997-55-2635","area":"鹿児島県"}
{"id":39,"name":"長島美術館","location":"鹿児島県鹿児島市武3-42-18","business_hours":"午前9時〜午後5時（入館は午後4時30分まで）","admission_fees":"常 設 展　一般　１，０００円（８００円）高校生・大学生　　　８００円（６４０円）小学生・中学生　　　４００円（３２０円）シニア（６５歳以上）５００円","website_url":null,"phone_number":"099-250-5400","area":"鹿児島県"}
{"id":40,"name":"中村晋也美術館","location":"鹿児島県鹿児島市石谷町２３６６－２１","business_hours":"10:00〜17:00","admission_fees":"一般500円、高校生200円、小・中学生100円","website_url":null,"phone_number":"099-246-7070","area":"鹿児島県"}
{"id":41,"name":"笠沙美術館","location":"鹿児島県南さつま市笠沙町赤生木８６７０","business_hours":"9：00〜17：00","admission_fees":"無料","website_url":null,"phone_number":"0993-63-0990","area":"鹿児島県"}
{"id":42,"name":"三宅美術館","location":"鹿児島県鹿児島市谷山中央１丁目４３１９","business_hours":"午前10時〜午後4時30分","admission_fees":"一般500円、高校生300円、小・中学生200円、70歳以上100円","website_url":null,"phone_number":"099-266-0066","area":"鹿児島県"}
{"id":43,"name":"松下美術館","location":"鹿児島県霧島市福山町福山７７１","business_hours":"10：00  〜  17：00（最終入館は16：30まで）","admission_fees":"一般500円、高・大学生300円、小・中学生200円、幼児無料","website_url":null,"phone_number":"0995-55-3350","area":"鹿児島県"}
{"id":44,"name":"岩崎美術館","location":"鹿児島県指宿市十二町３７５５","business_hours":"午前８時から午後５時 (入館は午後４時３０分まで)","admission_fees":"大学生・一般　300円 / 高校生以下　無料","website_url":null,"phone_number":"0993-22-4056","area":"鹿児島県"}
{"id":45,"name":"吉井淳二美術館","location":"鹿児島県南さつま市加世田武田１３８７７－３","business_hours":"午前10時〜午後5時　(入館は午後4時30分まで)","admission_fees":"無料","website_url":null,"phone_number":"0993-53-6778","area":"鹿児島県"}
{"id":10,"name":"鹿児島市立美術館","location":"鹿児島県鹿児島市城山町4-36","business_hours":"午前9時30分〜午後6時（入館は午後5時30分まで）","admission_fees":"常設展一般300円高大生200円小中生150円","website_url":null,"phone_number":"099-224-3400","area":"鹿児島県県県県"}
{"id":11,"name":"田中一村記念美術館","location":"鹿児島県奄美市笠利町大字節田１８３４","business_hours":"９：００〜１８：００（最終入館17：30）※７，８月は９：００〜１９：００（最終入館18：30）","admission_fees":"大人： 510円高校生・大学生： 360円小学生・中学生： 250円幼児（小学生未満）：無料","website_url":null,"phone_number":"0997-55-2635","area":"鹿児島県県県県"}
{"id":13,"name":"中村晋也美術館","location":"鹿児島県鹿児島市石谷町２３６６－２１","business_hours":"10:00〜17:00","admission_fees":"一般500円、高校生200円、小・中学生100円","website_url":null,"phone_number":"099-246-7070","area":"鹿児島県県県県"}
{"id":16,"name":"松下美術館","location":"鹿児島県霧島市福山町福山７７１","business_hours":"10：00  〜  17：00（最終入館は16：30まで）","admission_fees":"一般500円、高・大学生300円、小・中学生200円、幼児無料","website_url":null,"phone_number":"0995-55-3350","area":"鹿児島県県県県"}
{"id":18,"name":"吉井淳二美術館","location":"鹿児島県南さつま市加世田武田１３８７７－３","business_hours":"午前10時〜午後5時　(入館は午後4時30分まで)","admission_fees":"無料","website_url":null,"phone_number":"0993-53-6778","area":"鹿児島県県県県"}
{"id":30,"name":"長島美術館","location":"鹿児島県鹿児島市武3-42-18","business_hours":"午前9時〜午後5時（入館は午後4時30分まで）","admission_fees":"常 設 展　一般　１，０００円（８００円）高校生・大学生　　　８００円（６４０円）小学生・中学生　　　４００円（３２０円）シニア（６５歳以上）５００円","website_url":null,"phone_number":"099-250-5400","area":"鹿児島県県"}
{"id":1,"name":"鹿児島市立美術館","location":"鹿児島県鹿児島市城山町4-36","business_hours":"午前9時30分〜午後6時（入館は午後5時30分まで）","admission_fees":"常設展一般300円高大生200円小中生150円","website_url":null,"phone_number":"099-224-3400","area":"鹿児島県県県県県"}
{"id":2,"name":"田中一村記念美術館","location":"鹿児島県奄美市笠利町大字節田１８３４","business_hours":"９：００〜１８：００（最終入館17：30）※７，８月は９：００〜１９：００（最終入館18：30）","admission_fees":"大人： 510円高校生・大学生： 360円小学生・中学生： 250円幼児（小学生未満）：無料","website_url":null,"phone_number":"0997-55-2635","area":"鹿児島県県県県県"}
{"id":3,"name":"長島美術館","location":"鹿児島県鹿児島市武3-42-18","business_hours":"午前9時〜午後5時（入館は午後4時30分まで）","admission_fees":"常 設 展　一般　１，０００円（８００円）高校生・大学生　　　８００円（６４０円）小学生・中学生　　　４００円（３２０円）シニア（６５歳以上）５００円","website_url":null,"phone_number":"099-250-5400","area":"鹿児島県県県県県"}
{"id":4,"name":"中村晋也美術館","location":"鹿児島県鹿児島市石谷町２３６６－２１","business_hours":"10:00〜17:00","admission_fees":"一般500円、高校生200円、小・中学生100円","website_url":null,"phone_number":"099-246-7070","area":"鹿児島県県県県県"}
{"id":5,"name":"笠沙美術館","location":"鹿児島県南さつま市笠沙町赤生木８６７０","business_hours":"9：00〜17：00","admission_fees":"無料","website_url":null,"phone_number":"0993-63-0990","area":"鹿児島県県県県県"}
{"id":6,"name":"三宅美術館","location":"鹿児島県鹿児島市谷山中央１丁目４３１９","business_hours":"午前10時〜午後4時30分","admission_fees":"一般500円、高校生300円、小・中学生200円、70歳以上100円","website_url":null,"phone_number":"099-266-0066","area":"鹿児島県県県県県"}
{"id":7,"name":"松下美術館","location":"鹿児島県霧島市福山町福山７７１","business_hours":"10：00  〜  17：00（最終入館は16：30まで）","admission_fees":"一般500円、高・大学生300円、小・中学生200円、幼児無料","website_url":null,"phone_number":"0995-55-3350","area":"鹿児島県県県県県"}
{"id":8,"name":"岩崎美術館","location":"鹿児島県指宿市十二町３７５５","business_hours":"午前８時から午後５時 (入館は午後４時３０分まで)","admission_fees":"大学生・一般　300円 / 高校生以下　無料","website_url":null,"phone_number":"0993-22-4056","area":"鹿児島県県県県県"}
{"id":9,"name":"吉井淳二美術館","location":"鹿児島県南さつま市加世田武田１３８７７－３","business_hours":"午前10時〜午後5時　(入館は午後4時30分まで)","admission_fees":"無料","website_url":null,"phone_number":"0993-53-6778","area":"鹿児島県県県県県"}
{"id":19,"name":"鹿児島市立美術館","location":"鹿児島県鹿児島市城山町4-36","business_hours":"午前9時30分〜午後6時（入館は午後5時30分まで）","admission_fees":"常設展一般300円高大生200円小中生150円","website_url":null,"phone_number":"099-224-3400","area":"鹿児島県県県"}
{"id":20,"name":"田中一村記念美術館","location":"鹿児島県奄美市笠利町大字節田１８３４","business_hours":"９：００〜１８：００（最終入館17：30）※７，８月は９：００〜１９：００（最終入館18：30）","admission_fees":"大人： 510円高校生・大学生： 360円小学生・中学生： 250円幼児（小学生未満）：無料","website_url":null,"phone_number":"0997-55-2635","area":"鹿児島県県県"}
{"id":21,"name":"長島美術館","location":"鹿児島県鹿児島市武3-42-18","business_hours":"午前9時〜午後5時（入館は午後4時30分まで）","admission_fees":"常 設 展　一般　１，０００円（８００円）高校生・大学生　　　８００円（６４０円）小学生・中学生　　　４００円（３２０円）シニア（６５歳以上）５００円","website_url":null,"phone_number":"099-250-5400","area":"鹿児島県県県"}
{"id":22,"name":"中村晋也美術館","location":"鹿児島県鹿児島市石谷町２３６６－２１","business_hours":"10:00〜17:00","admission_fees":"一般500円、高校生200円、小・中学生100円","website_url":null,"phone_number":"099-246-7070","area":"鹿児島県県県"}
{"id":23,"name":"笠沙美術館","location":"鹿児島県南さつま市笠沙町赤生木８６７０","business_hours":"9：00〜17：00","admission_fees":"無料","website_url":null,"phone_number":"0993-63-0990","area":"鹿児島県県県"}
{"id":24,"name":"三宅美術館","location":"鹿児島県鹿児島市谷山中央１丁目４３１９","business_hours":"午前10時〜午後4時30分","admission_fees":"一般500円、高校生300円、小・中学生200円、70歳以上100円","website_url":null,"phone_number":"099-266-0066","area":"鹿児島県県県"}
{"id":25,"name":"松下美術館","location":"鹿児島県霧島市福山町福山７７１","business_hours":"10：00  〜  17：00（最終入館は16：30まで）","admission_fees":"一般500円、高・大学生300円、小・中学生200円、幼児無料","website_url":null,"phone_number":"0995-55-3350","area":"鹿児島県県県"}
{"id":26,"name":"岩崎美術館","location":"鹿児島県指宿市十二町３７５５","business_hours":"午前８時から午後５時 (入館は午後４時３０分まで)","admission_fees":"大学生・一般　300円 / 高校生以下　無料","website_url":null,"phone_number":"0993-22-4056","area":"鹿児島県県県"}
{"id":27,"name":"吉井淳二美術館","location":"鹿児島県南さつま市加世田武田１３８７７－３","business_hours":"午前10時〜午後5時　(入館は午後4時30分まで)","admission_fees":"無料","website_url":null,"phone_number":"0993-53-6778","area":"鹿児島県県県"}
{"id":28,"name":"鹿児島市立美術館","location":"鹿児島県鹿児島市城山町4-36","business_hours":"午前9時30分〜午後6時（入館は午後5時30分まで）","admission_fees":"常設展一般300円高大生200円小中生150円","website_url":null,"phone_number":"099-224-3400","area":"鹿児島県県"}
{"id":29,"name":"田中一村記念美術館","location":"鹿児島県奄美市笠利町大字節田１８３４","business_hours":"９：００〜１８：００（最終入館17：30）※７，８月は９：００〜１９：００（最終入館18：30）","admission_fees":"大人： 510円高校生・大学生： 360円小学生・中学生： 250円幼児（小学生未満）：無料","website_url":null,"phone_number":"0997-55-2635","area":"鹿児島県県"}
{"id":32,"name":"笠沙美術館","location":"鹿児島県南さつま市笠沙町赤生木８６７０","business_hours":"9：00〜17：00","admission_fees":"無料","website_url":null,"phone_number":"0993-63-0990","area":"鹿児島県県"}
{"id":12,"name":"長島美術館","location":"鹿児島県鹿児島市武3-42-18","business_hours":"午前9時〜午後5時（入館は午後4時30分まで）","admission_fees":"常 設 展　一般　１，０００円（８００円）高校生・大学生　　　８００円（６４０円）小学生・中学生　　　４００円（３２０円）シニア（６５歳以上）５００円","website_url":null,"phone_number":"099-250-5400","area":"鹿児島県県県県"}
{"id":14,"name":"笠沙美術館","location":"鹿児島県南さつま市笠沙町赤生木８６７０","business_hours":"9：00〜17：00","admission_fees":"無料","website_url":null,"phone_number":"0993-63-0990","area":"鹿児島県県県県"}
{"id":15,"name":"三宅美術館","location":"鹿児島県鹿児島市谷山中央１丁目４３１９","business_hours":"午前10時〜午後4時30分","admission_fees":"一般500円、高校生300円、小・中学生200円、70歳以上100円","website_url":null,"phone_number":"099-266-0066","area":"鹿児島県県県県"}
{"id":17,"name":"岩崎美術館","location":"鹿児島県指宿市十二町３７５５","business_hours":"午前８時から午後５時 (入館は午後４時３０分まで)","admission_fees":"大学生・一般　300円 / 高校生以下　無料","website_url":null,"phone_number":"0993-22-4056","area":"鹿児島県県県県"}
{"id":31,"name":"中村晋也美術館","location":"鹿児島県鹿児島市石谷町２３６６－２１","business_hours":"10:00〜17:00","admission_fees":"一般500円、高校生200円、小・中学生100円","website_url":null,"phone_number":"099-246-7070","area":"鹿児島県県"}
{"id":33,"name":"三宅美術館","location":"鹿児島県鹿児島市谷山中央１丁目４３１９","business_hours":"午前10時〜午後4時30分","admission_fees":"一般500円、高校生300円、小・中学生200円、70歳以上100円","website_url":null,"phone_number":"099-266-0066","area":"鹿児島県県"}
{"id":34,"name":"松下美術館","location":"鹿児島県霧島市福山町福山７７１","business_hours":"10：00  〜  17：00（最終入館は16：30まで）","admission_fees":"一般500円、高・大学生300円、小・中学生200円、幼児無料","website_url":null,"phone_number":"0995-55-3350","area":"鹿児島県県"}
{"id":35,"name":"岩崎美術館","location":"鹿児島県指宿市十二町３７５５","business_hours":"午前８時から午後５時 (入館は午後４時３０分まで)","admission_fees":"大学生・一般　300円 / 高校生以下　無料","website_url":null,"phone_number":"0993-22-4056","area":"鹿児島県県"}
{"id":36,"name":"吉井淳二美術館","location":"鹿児島県南さつま市加世田武田１３８７７－３","business_hours":"午前10時〜午後5時　(入館は午後4時30分まで)","admission_fees":"無料","website_url":null,"phone_number":"0993-53-6778","area":"鹿児島県県"}
