{"id":33,"name":"山形美術館","location":"山形県山形市大手町１－６３","business_hours":"10:00〜17:00（入館は16:30まで）","admission_fees":"一般500円、高大生300円、小中生100円※小・中学生とその引率者が教育活動として観覧する場合、無料。","website_url":null,"phone_number":"023-622-3090","area":"山形県"}
{"id":34,"name":"天童市美術館","location":"山形県天童市老野森１－２－２","business_hours":"9:00-18:00（入館は17：30まで）","admission_fees":"大人　400円高校生・大学生　200円小中学生　100円","website_url":null,"phone_number":"023-654-6300","area":"山形県"}
{"id":35,"name":"土門拳記念館","location":"山形県酒田市飯森山2-13","business_hours":"午前９時〜午後５時（午後４時３０分まで入館）","admission_fees":"一般：430円、学生：210円、小中学生：無料※特別展期間中は料金変更の場合あり","website_url":null,"phone_number":"0234-31-0028","area":"山形県"}
{"id":36,"name":"東根市美術館","location":"山形県東根市中央南１丁目７－３","business_hours":"午前9時から午後6時（入場は閉館の30分前まで）※展覧会によって延長する場合があります。","admission_fees":"観覧料は展覧会・イベントごとに異なります。","website_url":null,"phone_number":"0237-53-0229","area":"山形県"}
{"id":37,"name":"本間美術館","location":"山形県酒田市御成町7-7","business_hours":"【4月〜10月】午前9時〜午後5時（入館は午後4時30分まで） 【11月〜3月】午前9時〜午後4時30分（入館は午後4時まで）","admission_fees":"・一般1,000円（900円）　高・大学生450円（400円）・小／中学生は無料※（）内は15名以上の団体料金になります。","website_url":null,"phone_number":"0234-24-4311","area":"山形県"}
{"id":38,"name":"酒田市美術館","location":"山形県酒田市飯森山３丁目１７－９５","business_hours":"9:00-17:00（入館は16：30まで）","admission_fees":"一般　540円大高生　270円小中学生　無料","website_url":null,"phone_number":"0234-31-0095","area":"山形県"}
{"id":39,"name":"よねざわ市民ギャラリー","location":"山形県米沢市中央1丁目10番6号","business_hours":"―","admission_fees":"なし","website_url":null,"phone_number":"0238-22-6400","area":"山形県"}
{"id":40,"name":"最上川美術館","location":"山形県村山市大字大淀１０８４－１","business_hours":"午前9時から午後5時（入館は午後4時30分まで）","admission_fees":"大人300円、小中学生150円","website_url":null,"phone_number":"0237-52-3195","area":"山形県"}
{"id":9,"name":"山形美術館","location":"山形県山形市大手町１－６３","business_hours":"10:00〜17:00（入館は16:30まで）","admission_fees":"一般500円、高大生300円、小中生100円※小・中学生とその引率者が教育活動として観覧する場合、無料。","website_url":null,"phone_number":"023-622-3090","area":"山形県県県県"}
{"id":10,"name":"天童市美術館","location":"山形県天童市老野森１－２－２","business_hours":"9:00-18:00（入館は17：30まで）","admission_fees":"大人　400円高校生・大学生　200円小中学生　100円","website_url":null,"phone_number":"023-654-6300","area":"山形県県県県"}
{"id":11,"name":"土門拳記念館","location":"山形県酒田市飯森山2-13","business_hours":"午前９時〜午後５時（午後４時３０分まで入館）","admission_fees":"一般：430円、学生：210円、小中学生：無料※特別展期間中は料金変更の場合あり","website_url":null,"phone_number":"0234-31-0028","area":"山形県県県県"}
{"id":14,"name":"酒田市美術館","location":"山形県酒田市飯森山３丁目１７－９５","business_hours":"9:00-17:00（入館は16：30まで）","admission_fees":"一般　540円大高生　270円小中学生　無料","website_url":null,"phone_number":"0234-31-0095","area":"山形県県県県"}
{"id":12,"name":"東根市美術館","location":"山形県東根市中央南１丁目７－３","business_hours":"午前9時から午後6時（入場は閉館の30分前まで）※展覧会によって延長する場合があります。","admission_fees":"観覧料は展覧会・イベントごとに異なります。","website_url":null,"phone_number":"0237-53-0229","area":"山形県県県県"}
{"id":13,"name":"本間美術館","location":"山形県酒田市御成町7-7","business_hours":"【4月〜10月】午前9時〜午後5時（入館は午後4時30分まで） 【11月〜3月】午前9時〜午後4時30分（入館は午後4時まで）","admission_fees":"・一般1,000円（900円）　高・大学生450円（400円）・小／中学生は無料※（）内は15名以上の団体料金になります。","website_url":null,"phone_number":"0234-24-4311","area":"山形県県県県"}
{"id":15,"name":"よねざわ市民ギャラリー","location":"山形県米沢市中央1丁目10番6号","business_hours":"―","admission_fees":"なし","website_url":null,"phone_number":"0238-22-6400","area":"山形県県県県"}
{"id":16,"name":"最上川美術館","location":"山形県村山市大字大淀１０８４－１","business_hours":"午前9時から午後5時（入館は午後4時30分まで）","admission_fees":"大人300円、小中学生150円","website_url":null,"phone_number":"0237-52-3195","area":"山形県県県県"}
{"id":1,"name":"山形美術館","location":"山形県山形市大手町１－６３","business_hours":"10:00〜17:00（入館は16:30まで）","admission_fees":"一般500円、高大生300円、小中生100円※小・中学生とその引率者が教育活動として観覧する場合、無料。","website_url":null,"phone_number":"023-622-3090","area":"山形県県県県県"}
{"id":2,"name":"天童市美術館","location":"山形県天童市老野森１－２－２","business_hours":"9:00-18:00（入館は17：30まで）","admission_fees":"大人　400円高校生・大学生　200円小中学生　100円","website_url":null,"phone_number":"023-654-6300","area":"山形県県県県県"}
{"id":6,"name":"酒田市美術館","location":"山形県酒田市飯森山３丁目１７－９５","business_hours":"9:00-17:00（入館は16：30まで）","admission_fees":"一般　540円大高生　270円小中学生　無料","website_url":null,"phone_number":"0234-31-0095","area":"山形県県県県県"}
{"id":7,"name":"よねざわ市民ギャラリー","location":"山形県米沢市中央1丁目10番6号","business_hours":"―","admission_fees":"なし","website_url":null,"phone_number":"0238-22-6400","area":"山形県県県県県"}
{"id":17,"name":"山形美術館","location":"山形県山形市大手町１－６３","business_hours":"10:00〜17:00（入館は16:30まで）","admission_fees":"一般500円、高大生300円、小中生100円※小・中学生とその引率者が教育活動として観覧する場合、無料。","website_url":null,"phone_number":"023-622-3090","area":"山形県県県"}
{"id":18,"name":"天童市美術館","location":"山形県天童市老野森１－２－２","business_hours":"9:00-18:00（入館は17：30まで）","admission_fees":"大人　400円高校生・大学生　200円小中学生　100円","website_url":null,"phone_number":"023-654-6300","area":"山形県県県"}
{"id":19,"name":"土門拳記念館","location":"山形県酒田市飯森山2-13","business_hours":"午前９時〜午後５時（午後４時３０分まで入館）","admission_fees":"一般：430円、学生：210円、小中学生：無料※特別展期間中は料金変更の場合あり","website_url":null,"phone_number":"0234-31-0028","area":"山形県県県"}
{"id":20,"name":"東根市美術館","location":"山形県東根市中央南１丁目７－３","business_hours":"午前9時から午後6時（入場は閉館の30分前まで）※展覧会によって延長する場合があります。","admission_fees":"観覧料は展覧会・イベントごとに異なります。","website_url":null,"phone_number":"0237-53-0229","area":"山形県県県"}
{"id":21,"name":"本間美術館","location":"山形県酒田市御成町7-7","business_hours":"【4月〜10月】午前9時〜午後5時（入館は午後4時30分まで） 【11月〜3月】午前9時〜午後4時30分（入館は午後4時まで）","admission_fees":"・一般1,000円（900円）　高・大学生450円（400円）・小／中学生は無料※（）内は15名以上の団体料金になります。","website_url":null,"phone_number":"0234-24-4311","area":"山形県県県"}
{"id":22,"name":"酒田市美術館","location":"山形県酒田市飯森山３丁目１７－９５","business_hours":"9:00-17:00（入館は16：30まで）","admission_fees":"一般　540円大高生　270円小中学生　無料","website_url":null,"phone_number":"0234-31-0095","area":"山形県県県"}
{"id":23,"name":"よねざわ市民ギャラリー","location":"山形県米沢市中央1丁目10番6号","business_hours":"―","admission_fees":"なし","website_url":null,"phone_number":"0238-22-6400","area":"山形県県県"}
{"id":24,"name":"最上川美術館","location":"山形県村山市大字大淀１０８４－１","business_hours":"午前9時から午後5時（入館は午後4時30分まで）","admission_fees":"大人300円、小中学生150円","website_url":null,"phone_number":"0237-52-3195","area":"山形県県県"}
{"id":3,"name":"土門拳記念館","location":"山形県酒田市飯森山2-13","business_hours":"午前９時〜午後５時（午後４時３０分まで入館）","admission_fees":"一般：430円、学生：210円、小中学生：無料※特別展期間中は料金変更の場合あり","website_url":null,"phone_number":"0234-31-0028","area":"山形県県県県県"}
{"id":4,"name":"東根市美術館","location":"山形県東根市中央南１丁目７－３","business_hours":"午前9時から午後6時（入場は閉館の30分前まで）※展覧会によって延長する場合があります。","admission_fees":"観覧料は展覧会・イベントごとに異なります。","website_url":null,"phone_number":"0237-53-0229","area":"山形県県県県県"}
{"id":5,"name":"本間美術館","location":"山形県酒田市御成町7-7","business_hours":"【4月〜10月】午前9時〜午後5時（入館は午後4時30分まで） 【11月〜3月】午前9時〜午後4時30分（入館は午後4時まで）","admission_fees":"・一般1,000円（900円）　高・大学生450円（400円）・小／中学生は無料※（）内は15名以上の団体料金になります。","website_url":null,"phone_number":"0234-24-4311","area":"山形県県県県県"}
{"id":8,"name":"最上川美術館","location":"山形県村山市大字大淀１０８４－１","business_hours":"午前9時から午後5時（入館は午後4時30分まで）","admission_fees":"大人300円、小中学生150円","website_url":null,"phone_number":"0237-52-3195","area":"山形県県県県県"}
{"id":25,"name":"山形美術館","location":"山形県山形市大手町１－６３","business_hours":"10:00〜17:00（入館は16:30まで）","admission_fees":"一般500円、高大生300円、小中生100円※小・中学生とその引率者が教育活動として観覧する場合、無料。","website_url":null,"phone_number":"023-622-3090","area":"山形県県"}
{"id":26,"name":"天童市美術館","location":"山形県天童市老野森１－２－２","business_hours":"9:00-18:00（入館は17：30まで）","admission_fees":"大人　400円高校生・大学生　200円小中学生　100円","website_url":null,"phone_number":"023-654-6300","area":"山形県県"}
{"id":27,"name":"土門拳記念館","location":"山形県酒田市飯森山2-13","business_hours":"午前９時〜午後５時（午後４時３０分まで入館）","admission_fees":"一般：430円、学生：210円、小中学生：無料※特別展期間中は料金変更の場合あり","website_url":null,"phone_number":"0234-31-0028","area":"山形県県"}
{"id":31,"name":"よねざわ市民ギャラリー","location":"山形県米沢市中央1丁目10番6号","business_hours":"―","admission_fees":"なし","website_url":null,"phone_number":"0238-22-6400","area":"山形県県"}
{"id":28,"name":"東根市美術館","location":"山形県東根市中央南１丁目７－３","business_hours":"午前9時から午後6時（入場は閉館の30分前まで）※展覧会によって延長する場合があります。","admission_fees":"観覧料は展覧会・イベントごとに異なります。","website_url":null,"phone_number":"0237-53-0229","area":"山形県県"}
{"id":29,"name":"本間美術館","location":"山形県酒田市御成町7-7","business_hours":"【4月〜10月】午前9時〜午後5時（入館は午後4時30分まで） 【11月〜3月】午前9時〜午後4時30分（入館は午後4時まで）","admission_fees":"・一般1,000円（900円）　高・大学生450円（400円）・小／中学生は無料※（）内は15名以上の団体料金になります。","website_url":null,"phone_number":"0234-24-4311","area":"山形県県"}
{"id":30,"name":"酒田市美術館","location":"山形県酒田市飯森山３丁目１７－９５","business_hours":"9:00-17:00（入館は16：30まで）","admission_fees":"一般　540円大高生　270円小中学生　無料","website_url":null,"phone_number":"0234-31-0095","area":"山形県県"}
{"id":32,"name":"最上川美術館","location":"山形県村山市大字大淀１０８４－１","business_hours":"午前9時から午後5時（入館は午後4時30分まで）","admission_fees":"大人300円、小中学生150円","website_url":null,"phone_number":"0237-52-3195","area":"山形県県"}
