{"id":1,"name":"宮城県美術館","location":"宮城県仙台市青葉区川内元支倉３４－１","business_hours":"午前９時３０分〜午後５時（観覧券の販売は午後４時３０分まで）","admission_fees":"一般　３００円大学生　１５０円小・中・高校生　無料 （特別展　展覧会ごとに設定）","website_url":null,"phone_number":"022-221-2111","area":"宮城県県"}
{"id":2,"name":"高倉勝子美術館桜小路","location":"宮城県登米市登米町寺池桜小路８８－１","business_hours":"午前9時〜午後4時30分","admission_fees":"一般　200円高校生　150円小中学生　100円","website_url":null,"phone_number":"0220-52-2755","area":"宮城県県"}
{"id":3,"name":"中鉢美術館","location":"宮城県大崎市岩出山上川原町７－６","business_hours":"10:00〜16:00　（１２月〜２月）10:00〜17:00　 （３月〜１１月）","admission_fees":"大人500円、高・大学生300円、小・中学生100円","website_url":null,"phone_number":"0229-29-9833","area":"宮城県県"}
{"id":4,"name":"リアス・アーク美術館","location":"宮城県気仙沼市字赤岩牧沢１３８－５","business_hours":"9:30〜17:00(最終入館 16:30)","admission_fees":"一般500円/大学生・短大生・専門学生400円/高校生300円/小・中学生150円","website_url":null,"phone_number":"0226-24-1611","area":"宮城県県"}
{"id":5,"name":"大衡村ふるさと美術館","location":"宮城県黒川郡大衡村大衡平林３９－１２","business_hours":"10：00〜16：00","admission_fees":"大人200円、高校生150円、中学生100円、小学生100円","website_url":null,"phone_number":"022-345-0945","area":"宮城県県"}
{"id":6,"name":"宮城県美術館","location":"宮城県仙台市青葉区川内元支倉３４－１","business_hours":"午前９時３０分〜午後５時（観覧券の販売は午後４時３０分まで）","admission_fees":"一般　３００円大学生　１５０円小・中・高校生　無料 （特別展　展覧会ごとに設定）","website_url":null,"phone_number":"022-221-2111","area":"宮城県"}
{"id":7,"name":"高倉勝子美術館桜小路","location":"宮城県登米市登米町寺池桜小路８８－１","business_hours":"午前9時〜午後4時30分","admission_fees":"一般　200円高校生　150円小中学生　100円","website_url":null,"phone_number":"0220-52-2755","area":"宮城県"}
{"id":8,"name":"中鉢美術館","location":"宮城県大崎市岩出山上川原町７－６","business_hours":"10:00〜16:00　（１２月〜２月）10:00〜17:00　 （３月〜１１月）","admission_fees":"大人500円、高・大学生300円、小・中学生100円","website_url":null,"phone_number":"0229-29-9833","area":"宮城県"}
{"id":9,"name":"リアス・アーク美術館","location":"宮城県気仙沼市字赤岩牧沢１３８－５","business_hours":"9:30〜17:00(最終入館 16:30)","admission_fees":"一般500円/大学生・短大生・専門学生400円/高校生300円/小・中学生150円","website_url":null,"phone_number":"0226-24-1611","area":"宮城県"}
{"id":10,"name":"大衡村ふるさと美術館","location":"宮城県黒川郡大衡村大衡平林３９－１２","business_hours":"10：00〜16：00","admission_fees":"大人200円、高校生150円、中学生100円、小学生100円","website_url":null,"phone_number":"022-345-0945","area":"宮城県"}
