{"id":1,"name":"群馬県立近代美術館","location":"群馬県高崎市綿貫町９９２－１","business_hours":"9：30〜17：00","admission_fees":"コレクション展示　一般：300円　大・高校生：150円　中学生以下・障害者手帳等お持ちの方と介護者1名：無料＊群馬県民の日：無料","website_url":null,"phone_number":"027-346-5560","area":"群馬県県"}
{"id":2,"name":"富弘美術館","location":"群馬県みどり市東町草木８６","business_hours":"？午前9時〜午後5時","admission_fees":"大人 500円小中学生 300円幼児 無料障害者手帳をお持ちの方：5割引介護の方１名：5割引","website_url":null,"phone_number":"0277-95-6333","area":"群馬県県"}
{"id":3,"name":"館林美術館","location":"群馬県館林市日向町２００３","business_hours":"情報なし","admission_fees":"情報なし","website_url":null,"phone_number":"0276-72-8188","area":"群馬県県"}
{"id":4,"name":"妙義ふるさと美術館","location":"群馬県富岡市妙義町妙義１－５","business_hours":"9:30〜17:00","admission_fees":"300円","website_url":null,"phone_number":"0274-73-2585","area":"群馬県県"}
{"id":5,"name":"大隅俊平美術館","location":"群馬県太田市由良町３０５１","business_hours":"午前9時30分〜午後5時（入館は午後4時30分まで）","admission_fees":"300円、中学生以下無料","website_url":null,"phone_number":"0276-20-6855","area":"群馬県県"}
{"id":6,"name":"太田市美術館・図書館","location":"群馬県太田市東本町","business_hours":"午前10時〜午後8時（日曜・祝日は午後6時まで）※企画展の観覧は午後6時まで（入場は午後5時30分まで）※図書エリアの利用は午後6時まで","admission_fees":"入館料：無料※展示内容によって徴収有。","website_url":null,"phone_number":"0276-55-3036","area":"群馬県県"}
{"id":7,"name":"高崎市美術館","location":"群馬県高崎市八島町１１０－２７","business_hours":"午前10時〜午後6時、金曜日のみ午後8時まで（入館はいずれも閉館30分前まで）","admission_fees":"企画展：展覧会により観覧料が異なります コレクション展：一般100円、大学・高校生80円※65歳以上の方、中学生以下は無料","website_url":null,"phone_number":"027-324-6125","area":"群馬県県"}
{"id":8,"name":"タワー美術館","location":"群馬県高崎市栄町３－２３","business_hours":"午前10時から午後6時まで金曜日のみ午後8時まで（入館はいずれも閉館30分前まで）","admission_fees":"・収蔵作品展　一般　 200円　大学・高校生 160円 　65歳以上の方、中学生以下は無料　・企画展・特別展　展覧会により異なります","website_url":null,"phone_number":"027-330-3773","area":"群馬県県"}
{"id":11,"name":"渋川市美術館・桑原巨守彫刻美術館","location":"群馬県渋川市渋川１９０１－２４","business_hours":"10時〜18時","admission_fees":"展示により異なる","website_url":null,"phone_number":"0279-25-3215","area":"群馬県県"}
{"id":27,"name":"天一美術館","location":"群馬県利根郡みなかみ町谷川","business_hours":"9：30〜17：00（16:30 入館受付終了）","admission_fees":"一般1,300円、小中学生1,100円、未就学児無料","website_url":null,"phone_number":"0278-20-4111","area":"群馬県"}
{"id":28,"name":"渋川市美術館・桑原巨守彫刻美術館","location":"群馬県渋川市渋川１９０１－２４","business_hours":"10時〜18時","admission_fees":"展示により異なる","website_url":null,"phone_number":"0279-25-3215","area":"群馬県"}
{"id":29,"name":"伊香保保科美術館","location":"群馬県渋川市伊香保町伊香保２１１－１","business_hours":"9：00〜17：30（最終入館17：00）","admission_fees":"大人1,000円、小中学生600円、幼児300円","website_url":null,"phone_number":"0279-72-3226","area":"群馬県"}
{"id":30,"name":"久保田美術館","location":"群馬県沼田市下久屋町１１７６","business_hours":"ＡＭ１０：００〜ＰＭ５：００","admission_fees":"無料","website_url":null,"phone_number":"0278-22-2915","area":"群馬県"}
{"id":31,"name":"関口コオきり絵美術館","location":"群馬県高崎市箕郷町上芝８６７－１","business_hours":"AM 10:00〜PM6:00","admission_fees":"大人３００円、小・中学生１５０円、幼児　無料","website_url":null,"phone_number":"027-388-8118","area":"群馬県"}
{"id":32,"name":"原美術館ＡＲＣ","location":"群馬県渋川市金井２８５５－１","business_hours":"情報なし","admission_fees":"情報なし","website_url":null,"phone_number":"0279-24-6585","area":"群馬県"}
{"id":33,"name":"榛名美術記念公園","location":"群馬県高崎市下室田町２７００－１","business_hours":"情報なし","admission_fees":"情報なし","website_url":null,"phone_number":"027-374-8084","area":"群馬県"}
{"id":34,"name":"観音山ティアラミュージアム　ＴＡＲＯ　ＫＡＭＩＴＡＮＩ","location":"群馬県高崎市石原町2879-1","business_hours":"情報なし","admission_fees":"情報なし","website_url":null,"phone_number":"情報なし","area":"群馬県"}
{"id":9,"name":"富岡市立美術博物館福沢一郎記念美術館","location":"群馬県富岡市黒川３５１－１","business_hours":"9:30〜17:00 入館は16時30分まで","admission_fees":"大人:210円 大学生:100円高校生:100円中学生以下は無料 身障者・療育者の手帳をお持ちの方及びその介護者1名は無料","website_url":null,"phone_number":"0274-62-6200","area":"群馬県県"}
{"id":10,"name":"天一美術館","location":"群馬県利根郡みなかみ町谷川","business_hours":"9：30〜17：00（16:30 入館受付終了）","admission_fees":"一般1,300円、小中学生1,100円、未就学児無料","website_url":null,"phone_number":"0278-20-4111","area":"群馬県県"}
{"id":12,"name":"伊香保保科美術館","location":"群馬県渋川市伊香保町伊香保２１１－１","business_hours":"9：00〜17：30（最終入館17：00）","admission_fees":"大人1,000円、小中学生600円、幼児300円","website_url":null,"phone_number":"0279-72-3226","area":"群馬県県"}
{"id":13,"name":"久保田美術館","location":"群馬県沼田市下久屋町１１７６","business_hours":"ＡＭ１０：００〜ＰＭ５：００","admission_fees":"無料","website_url":null,"phone_number":"0278-22-2915","area":"群馬県県"}
{"id":14,"name":"関口コオきり絵美術館","location":"群馬県高崎市箕郷町上芝８６７－１","business_hours":"AM 10:00〜PM6:00","admission_fees":"大人３００円、小・中学生１５０円、幼児　無料","website_url":null,"phone_number":"027-388-8118","area":"群馬県県"}
{"id":15,"name":"原美術館ＡＲＣ","location":"群馬県渋川市金井２８５５－１","business_hours":"情報なし","admission_fees":"情報なし","website_url":null,"phone_number":"0279-24-6585","area":"群馬県県"}
{"id":16,"name":"榛名美術記念公園","location":"群馬県高崎市下室田町２７００－１","business_hours":"情報なし","admission_fees":"情報なし","website_url":null,"phone_number":"027-374-8084","area":"群馬県県"}
{"id":17,"name":"観音山ティアラミュージアム　ＴＡＲＯ　ＫＡＭＩＴＡＮＩ","location":"群馬県高崎市石原町2879-1","business_hours":"情報なし","admission_fees":"情報なし","website_url":null,"phone_number":"情報なし","area":"群馬県県"}
{"id":18,"name":"群馬県立近代美術館","location":"群馬県高崎市綿貫町９９２－１","business_hours":"9：30〜17：00","admission_fees":"コレクション展示　一般：300円　大・高校生：150円　中学生以下・障害者手帳等お持ちの方と介護者1名：無料＊群馬県民の日：無料","website_url":null,"phone_number":"027-346-5560","area":"群馬県"}
{"id":19,"name":"富弘美術館","location":"群馬県みどり市東町草木８６","business_hours":"？午前9時〜午後5時","admission_fees":"大人 500円小中学生 300円幼児 無料障害者手帳をお持ちの方：5割引介護の方１名：5割引","website_url":null,"phone_number":"0277-95-6333","area":"群馬県"}
{"id":20,"name":"館林美術館","location":"群馬県館林市日向町２００３","business_hours":"情報なし","admission_fees":"情報なし","website_url":null,"phone_number":"0276-72-8188","area":"群馬県"}
{"id":21,"name":"妙義ふるさと美術館","location":"群馬県富岡市妙義町妙義１－５","business_hours":"9:30〜17:00","admission_fees":"300円","website_url":null,"phone_number":"0274-73-2585","area":"群馬県"}
{"id":22,"name":"大隅俊平美術館","location":"群馬県太田市由良町３０５１","business_hours":"午前9時30分〜午後5時（入館は午後4時30分まで）","admission_fees":"300円、中学生以下無料","website_url":null,"phone_number":"0276-20-6855","area":"群馬県"}
{"id":23,"name":"太田市美術館・図書館","location":"群馬県太田市東本町","business_hours":"午前10時〜午後8時（日曜・祝日は午後6時まで）※企画展の観覧は午後6時まで（入場は午後5時30分まで）※図書エリアの利用は午後6時まで","admission_fees":"入館料：無料※展示内容によって徴収有。","website_url":null,"phone_number":"0276-55-3036","area":"群馬県"}
{"id":24,"name":"高崎市美術館","location":"群馬県高崎市八島町１１０－２７","business_hours":"午前10時〜午後6時、金曜日のみ午後8時まで（入館はいずれも閉館30分前まで）","admission_fees":"企画展：展覧会により観覧料が異なります コレクション展：一般100円、大学・高校生80円※65歳以上の方、中学生以下は無料","website_url":null,"phone_number":"027-324-6125","area":"群馬県"}
{"id":25,"name":"タワー美術館","location":"群馬県高崎市栄町３－２３","business_hours":"午前10時から午後6時まで金曜日のみ午後8時まで（入館はいずれも閉館30分前まで）","admission_fees":"・収蔵作品展　一般　 200円　大学・高校生 160円 　65歳以上の方、中学生以下は無料　・企画展・特別展　展覧会により異なります","website_url":null,"phone_number":"027-330-3773","area":"群馬県"}
{"id":26,"name":"富岡市立美術博物館福沢一郎記念美術館","location":"群馬県富岡市黒川３５１－１","business_hours":"9:30〜17:00 入館は16時30分まで","admission_fees":"大人:210円 大学生:100円高校生:100円中学生以下は無料 身障者・療育者の手帳をお持ちの方及びその介護者1名は無料","website_url":null,"phone_number":"0274-62-6200","area":"群馬県"}
