{"id":8,"name":"山口県立美術館","location":"山口県山口市亀山町３－１","business_hours":"午前9時〜午後5時(入館は午後4時30分まで)","admission_fees":"一般：300円／学生：200円70歳以上及び18歳以下の方：無料 ※高等学校、中等教育学校、特別支援学校に在籍する方等は無料。特別展は、展覧会毎に決定。","website_url":null,"phone_number":"083-925-7788","area":"山口県県県県"}
{"id":9,"name":"下関市立美術館","location":"山口県下関市長府黒門東町１－１","business_hours":"午前9時30分〜午後5時 （入館は午後4時30分まで）","admission_fees":"所蔵品展の観覧料】一般200、大学生100円 ※18歳以下の方は無料・70歳以上の方などの観覧料が免除されます※特別展の観覧料はその都度変わります","website_url":null,"phone_number":"083-245-4131","area":"山口県県県県"}
{"id":10,"name":"長門おもちゃ美術館","location":"山口県長門市仙崎４２９７－１","business_hours":"10：00〜16：00（最終入館は15：30まで）","admission_fees":"大人（中学生以上）700円、こども（１歳〜小学生）500円、ペア券（大人＋こども）1,000円※市民大人400円、市民こども200円","website_url":null,"phone_number":"0837-27-0337","area":"山口県県県県"}
{"id":14,"name":"和木美術館","location":"山口県玖珂郡和木町和木１－３－１","business_hours":"企画展により異なる","admission_fees":"企画展により異なる","website_url":null,"phone_number":"0827-54-1009","area":"山口県県県県"}
{"id":13,"name":"柏原美術館","location":"山口県岩国市横山２丁目１０－２７","business_hours":"9:00〜17:0012月から2月は16時閉館","admission_fees":"大人\\t：800円高・大学生\\t：500円小・中学生\\t：200円※特別展中は料金が異なる場合があります。","website_url":null,"phone_number":"0827-41-0506","area":"山口県県県県"}
{"id":1,"name":"山口県立美術館","location":"山口県山口市亀山町３－１","business_hours":"午前9時〜午後5時(入館は午後4時30分まで)","admission_fees":"一般：300円／学生：200円70歳以上及び18歳以下の方：無料 ※高等学校、中等教育学校、特別支援学校に在籍する方等は無料。特別展は、展覧会毎に決定。","website_url":null,"phone_number":"083-925-7788","area":"山口県県県県県"}
{"id":7,"name":"和木美術館","location":"山口県玖珂郡和木町和木１－３－１","business_hours":"企画展により異なる","admission_fees":"企画展により異なる","website_url":null,"phone_number":"0827-54-1009","area":"山口県県県県県"}
{"id":2,"name":"下関市立美術館","location":"山口県下関市長府黒門東町１－１","business_hours":"午前9時30分〜午後5時 （入館は午後4時30分まで）","admission_fees":"所蔵品展の観覧料】一般200、大学生100円 ※18歳以下の方は無料・70歳以上の方などの観覧料が免除されます※特別展の観覧料はその都度変わります","website_url":null,"phone_number":"083-245-4131","area":"山口県県県県県"}
{"id":3,"name":"長門おもちゃ美術館","location":"山口県長門市仙崎４２９７－１","business_hours":"10：00〜16：00（最終入館は15：30まで）","admission_fees":"大人（中学生以上）700円、こども（１歳〜小学生）500円、ペア券（大人＋こども）1,000円※市民大人400円、市民こども200円","website_url":null,"phone_number":"0837-27-0337","area":"山口県県県県県"}
{"id":4,"name":"萩美術館・浦上記念館","location":"山口県萩市平安古町５８６－１","business_hours":"9:00〜17:00（入館は16:30まで）","admission_fees":"普通展示：一般300円、学生200円  70歳以上と18歳以下の方、および高等学校、中等教育学校、 特別支援学校に在学する生徒は無料。","website_url":null,"phone_number":"0838-24-2400","area":"山口県県県県県"}
{"id":5,"name":"香月泰男美術館","location":"山口県長門市三隅中２２６","business_hours":"午前9時から午後5時入館は午後4時30分まで","admission_fees":"一般　　500円　小中高生200円　未就学児　無料 その他、入館料が免除の場合あり。","website_url":null,"phone_number":"0837-43-2500","area":"山口県県県県県"}
{"id":6,"name":"柏原美術館","location":"山口県岩国市横山２丁目１０－２７","business_hours":"9:00〜17:0012月から2月は16時閉館","admission_fees":"大人\\t：800円高・大学生\\t：500円小・中学生\\t：200円※特別展中は料金が異なる場合があります。","website_url":null,"phone_number":"0827-41-0506","area":"山口県県県県県"}
{"id":15,"name":"山口県立美術館","location":"山口県山口市亀山町３－１","business_hours":"午前9時〜午後5時(入館は午後4時30分まで)","admission_fees":"一般：300円／学生：200円70歳以上及び18歳以下の方：無料 ※高等学校、中等教育学校、特別支援学校に在籍する方等は無料。特別展は、展覧会毎に決定。","website_url":null,"phone_number":"083-925-7788","area":"山口県県県"}
{"id":16,"name":"下関市立美術館","location":"山口県下関市長府黒門東町１－１","business_hours":"午前9時30分〜午後5時 （入館は午後4時30分まで）","admission_fees":"所蔵品展の観覧料】一般200、大学生100円 ※18歳以下の方は無料・70歳以上の方などの観覧料が免除されます※特別展の観覧料はその都度変わります","website_url":null,"phone_number":"083-245-4131","area":"山口県県県"}
{"id":19,"name":"香月泰男美術館","location":"山口県長門市三隅中２２６","business_hours":"午前9時から午後5時入館は午後4時30分まで","admission_fees":"一般　　500円　小中高生200円　未就学児　無料 その他、入館料が免除の場合あり。","website_url":null,"phone_number":"0837-43-2500","area":"山口県県県"}
{"id":11,"name":"萩美術館・浦上記念館","location":"山口県萩市平安古町５８６－１","business_hours":"9:00〜17:00（入館は16:30まで）","admission_fees":"普通展示：一般300円、学生200円  70歳以上と18歳以下の方、および高等学校、中等教育学校、 特別支援学校に在学する生徒は無料。","website_url":null,"phone_number":"0838-24-2400","area":"山口県県県県"}
{"id":12,"name":"香月泰男美術館","location":"山口県長門市三隅中２２６","business_hours":"午前9時から午後5時入館は午後4時30分まで","admission_fees":"一般　　500円　小中高生200円　未就学児　無料 その他、入館料が免除の場合あり。","website_url":null,"phone_number":"0837-43-2500","area":"山口県県県県"}
{"id":22,"name":"山口県立美術館","location":"山口県山口市亀山町３－１","business_hours":"午前9時〜午後5時(入館は午後4時30分まで)","admission_fees":"一般：300円／学生：200円70歳以上及び18歳以下の方：無料 ※高等学校、中等教育学校、特別支援学校に在籍する方等は無料。特別展は、展覧会毎に決定。","website_url":null,"phone_number":"083-925-7788","area":"山口県県"}
{"id":23,"name":"下関市立美術館","location":"山口県下関市長府黒門東町１－１","business_hours":"午前9時30分〜午後5時 （入館は午後4時30分まで）","admission_fees":"所蔵品展の観覧料】一般200、大学生100円 ※18歳以下の方は無料・70歳以上の方などの観覧料が免除されます※特別展の観覧料はその都度変わります","website_url":null,"phone_number":"083-245-4131","area":"山口県県"}
{"id":24,"name":"長門おもちゃ美術館","location":"山口県長門市仙崎４２９７－１","business_hours":"10：00〜16：00（最終入館は15：30まで）","admission_fees":"大人（中学生以上）700円、こども（１歳〜小学生）500円、ペア券（大人＋こども）1,000円※市民大人400円、市民こども200円","website_url":null,"phone_number":"0837-27-0337","area":"山口県県"}
{"id":25,"name":"萩美術館・浦上記念館","location":"山口県萩市平安古町５８６－１","business_hours":"9:00〜17:00（入館は16:30まで）","admission_fees":"普通展示：一般300円、学生200円  70歳以上と18歳以下の方、および高等学校、中等教育学校、 特別支援学校に在学する生徒は無料。","website_url":null,"phone_number":"0838-24-2400","area":"山口県県"}
{"id":27,"name":"柏原美術館","location":"山口県岩国市横山２丁目１０－２７","business_hours":"9:00〜17:0012月から2月は16時閉館","admission_fees":"大人\\t：800円高・大学生\\t：500円小・中学生\\t：200円※特別展中は料金が異なる場合があります。","website_url":null,"phone_number":"0827-41-0506","area":"山口県県"}
{"id":28,"name":"和木美術館","location":"山口県玖珂郡和木町和木１－３－１","business_hours":"企画展により異なる","admission_fees":"企画展により異なる","website_url":null,"phone_number":"0827-54-1009","area":"山口県県"}
{"id":29,"name":"山口県立美術館","location":"山口県山口市亀山町３－１","business_hours":"午前9時〜午後5時(入館は午後4時30分まで)","admission_fees":"一般：300円／学生：200円70歳以上及び18歳以下の方：無料 ※高等学校、中等教育学校、特別支援学校に在籍する方等は無料。特別展は、展覧会毎に決定。","website_url":null,"phone_number":"083-925-7788","area":"山口県"}
{"id":30,"name":"下関市立美術館","location":"山口県下関市長府黒門東町１－１","business_hours":"午前9時30分〜午後5時 （入館は午後4時30分まで）","admission_fees":"所蔵品展の観覧料】一般200、大学生100円 ※18歳以下の方は無料・70歳以上の方などの観覧料が免除されます※特別展の観覧料はその都度変わります","website_url":null,"phone_number":"083-245-4131","area":"山口県"}
{"id":17,"name":"長門おもちゃ美術館","location":"山口県長門市仙崎４２９７－１","business_hours":"10：00〜16：00（最終入館は15：30まで）","admission_fees":"大人（中学生以上）700円、こども（１歳〜小学生）500円、ペア券（大人＋こども）1,000円※市民大人400円、市民こども200円","website_url":null,"phone_number":"0837-27-0337","area":"山口県県県"}
{"id":18,"name":"萩美術館・浦上記念館","location":"山口県萩市平安古町５８６－１","business_hours":"9:00〜17:00（入館は16:30まで）","admission_fees":"普通展示：一般300円、学生200円  70歳以上と18歳以下の方、および高等学校、中等教育学校、 特別支援学校に在学する生徒は無料。","website_url":null,"phone_number":"0838-24-2400","area":"山口県県県"}
{"id":20,"name":"柏原美術館","location":"山口県岩国市横山２丁目１０－２７","business_hours":"9:00〜17:0012月から2月は16時閉館","admission_fees":"大人\\t：800円高・大学生\\t：500円小・中学生\\t：200円※特別展中は料金が異なる場合があります。","website_url":null,"phone_number":"0827-41-0506","area":"山口県県県"}
{"id":21,"name":"和木美術館","location":"山口県玖珂郡和木町和木１－３－１","business_hours":"企画展により異なる","admission_fees":"企画展により異なる","website_url":null,"phone_number":"0827-54-1009","area":"山口県県県"}
{"id":26,"name":"香月泰男美術館","location":"山口県長門市三隅中２２６","business_hours":"午前9時から午後5時入館は午後4時30分まで","admission_fees":"一般　　500円　小中高生200円　未就学児　無料 その他、入館料が免除の場合あり。","website_url":null,"phone_number":"0837-43-2500","area":"山口県県"}
{"id":31,"name":"長門おもちゃ美術館","location":"山口県長門市仙崎４２９７－１","business_hours":"10：00〜16：00（最終入館は15：30まで）","admission_fees":"大人（中学生以上）700円、こども（１歳〜小学生）500円、ペア券（大人＋こども）1,000円※市民大人400円、市民こども200円","website_url":null,"phone_number":"0837-27-0337","area":"山口県"}
{"id":32,"name":"萩美術館・浦上記念館","location":"山口県萩市平安古町５８６－１","business_hours":"9:00〜17:00（入館は16:30まで）","admission_fees":"普通展示：一般300円、学生200円  70歳以上と18歳以下の方、および高等学校、中等教育学校、 特別支援学校に在学する生徒は無料。","website_url":null,"phone_number":"0838-24-2400","area":"山口県"}
{"id":33,"name":"香月泰男美術館","location":"山口県長門市三隅中２２６","business_hours":"午前9時から午後5時入館は午後4時30分まで","admission_fees":"一般　　500円　小中高生200円　未就学児　無料 その他、入館料が免除の場合あり。","website_url":null,"phone_number":"0837-43-2500","area":"山口県"}
{"id":34,"name":"柏原美術館","location":"山口県岩国市横山２丁目１０－２７","business_hours":"9:00〜17:0012月から2月は16時閉館","admission_fees":"大人\\t：800円高・大学生\\t：500円小・中学生\\t：200円※特別展中は料金が異なる場合があります。","website_url":null,"phone_number":"0827-41-0506","area":"山口県"}
{"id":35,"name":"和木美術館","location":"山口県玖珂郡和木町和木１－３－１","business_hours":"企画展により異なる","admission_fees":"企画展により異なる","website_url":null,"phone_number":"0827-54-1009","area":"山口県"}
