{"id":1,"name":"タオル美術館","location":"愛媛県今治市朝倉上甲２９３０","business_hours":"9：30〜18：00","admission_fees":"大人1,000円中高生800円小学生600円","website_url":null,"phone_number":"0898-56-1515","area":"愛媛県県"}
{"id":2,"name":"愛媛県美術館","location":"愛媛県松山市堀之内","business_hours":"9：40〜18：00入室は17：30まで。","admission_fees":"常設店観覧料一般　　 300円高大生　200円※中学生以下、65歳以上の方、障害者（要証明書提示）は無料。※企画店は別途必要。（企画展チケットをお持ちの方は所蔵品展観覧料が無料。）","website_url":null,"phone_number":"089-932-0010","area":"愛媛県県"}
{"id":3,"name":"大三島美術館","location":"愛媛県今治市大三島町宮浦９０９９","business_hours":"9：00〜17：00","admission_fees":"一般　500円学生　250円※高校生以下又は18歳未満は無料。※65歳以上の方は団体料金を適用。※身体障害者手帳、療育手帳、精神障害者保険福祉手帳の所持者、及びその介助者（障害者１名につき１人に限る）は無料。（要提示）","website_url":null,"phone_number":"0897-82-1234","area":"愛媛県県"}
{"id":4,"name":"河野美術館","location":"愛媛県今治市旭町１丁目４－８","business_hours":"9：00〜17：00","admission_fees":"一般　300円学生　150円65歳以上　240円高校生以下又は18歳未満は無料 ※展覧会により料金が変更になります。※身体障害者手帳、療育手帳、精神障害者保健福祉手帳の所持者及びその介助者（障害者１人につき１人に限る）は無料。（要提示）","website_url":null,"phone_number":"0898-23-3810","area":"愛媛県県"}
{"id":5,"name":"玉川近代美術館","location":"愛媛県今治市玉川町大野甲８６－４","business_hours":"9:00〜17:00","admission_fees":"大人　500円学生　250円高校生以下または18歳未満　無料 ※65歳以上の方は一般の団体料金を適用。※「身体障害者手帳」「療育手帳」「精神障害者保健福祉手帳」所持者及びその介助者（障害者1人につき1人に限る）は観覧料が無料。入館の際ご提示ください。","website_url":null,"phone_number":"0898-55-2738","area":"愛媛県県"}
{"id":6,"name":"久万美術館","location":"愛媛県上浮穴郡久万高原町菅生２番耕地１４４２－７","business_hours":"午前9時30分〜午後5時","admission_fees":"大人／500円 高大生／400円 小中生／300円 久万高原町内の小中学生は無料です。","website_url":null,"phone_number":"0892-21-2881","area":"愛媛県県"}
{"id":7,"name":"ミウラート・ヴィレッジ","location":"愛媛県松山市堀江町１１６５－１","business_hours":"情報なし","admission_fees":"情報なし","website_url":null,"phone_number":"089-978-6838","area":"愛媛県県"}
{"id":8,"name":"道後ぎやまんガラスミュージアム","location":"愛媛県松山市道後鷺谷町４５９－１","business_hours":"情報なし","admission_fees":"情報なし","website_url":null,"phone_number":"089-933-3637","area":"愛媛県県"}
{"id":9,"name":"セキ美術館","location":"愛媛県松山市道後喜多町４－４２","business_hours":"情報なし","admission_fees":"情報なし","website_url":null,"phone_number":"089-946-5678","area":"愛媛県県"}
{"id":10,"name":"今治市立朝倉ふるさと美術古墳館","location":"愛媛県今治市朝倉下","business_hours":"情報なし","admission_fees":"情報なし","website_url":null,"phone_number":"0898-56-3754","area":"愛媛県県"}
{"id":11,"name":"八幡浜市美術館","location":"愛媛県八幡浜市６２－１","business_hours":"情報なし","admission_fees":"情報なし","website_url":null,"phone_number":"0894-21-3335","area":"愛媛県県"}
{"id":12,"name":"西予市立ギャラリーしろかわ","location":"愛媛県西予市城川町下相６８０","business_hours":"情報なし","admission_fees":"情報なし","website_url":null,"phone_number":"0894-82-1001","area":"愛媛県県"}
{"id":13,"name":"タオル美術館","location":"愛媛県今治市朝倉上甲２９３０","business_hours":"9：30〜18：00","admission_fees":"大人1,000円中高生800円小学生600円","website_url":null,"phone_number":"0898-56-1515","area":"愛媛県"}
{"id":14,"name":"愛媛県美術館","location":"愛媛県松山市堀之内","business_hours":"9：40〜18：00入室は17：30まで。","admission_fees":"常設店観覧料一般　　 300円高大生　200円※中学生以下、65歳以上の方、障害者（要証明書提示）は無料。※企画店は別途必要。（企画展チケットをお持ちの方は所蔵品展観覧料が無料。）","website_url":null,"phone_number":"089-932-0010","area":"愛媛県"}
{"id":15,"name":"大三島美術館","location":"愛媛県今治市大三島町宮浦９０９９","business_hours":"9：00〜17：00","admission_fees":"一般　500円学生　250円※高校生以下又は18歳未満は無料。※65歳以上の方は団体料金を適用。※身体障害者手帳、療育手帳、精神障害者保険福祉手帳の所持者、及びその介助者（障害者１名につき１人に限る）は無料。（要提示）","website_url":null,"phone_number":"0897-82-1234","area":"愛媛県"}
{"id":16,"name":"河野美術館","location":"愛媛県今治市旭町１丁目４－８","business_hours":"9：00〜17：00","admission_fees":"一般　300円学生　150円65歳以上　240円高校生以下又は18歳未満は無料 ※展覧会により料金が変更になります。※身体障害者手帳、療育手帳、精神障害者保健福祉手帳の所持者及びその介助者（障害者１人につき１人に限る）は無料。（要提示）","website_url":null,"phone_number":"0898-23-3810","area":"愛媛県"}
{"id":17,"name":"玉川近代美術館","location":"愛媛県今治市玉川町大野甲８６－４","business_hours":"9:00〜17:00","admission_fees":"大人　500円学生　250円高校生以下または18歳未満　無料 ※65歳以上の方は一般の団体料金を適用。※「身体障害者手帳」「療育手帳」「精神障害者保健福祉手帳」所持者及びその介助者（障害者1人につき1人に限る）は観覧料が無料。入館の際ご提示ください。","website_url":null,"phone_number":"0898-55-2738","area":"愛媛県"}
{"id":19,"name":"ミウラート・ヴィレッジ","location":"愛媛県松山市堀江町１１６５－１","business_hours":"情報なし","admission_fees":"情報なし","website_url":null,"phone_number":"089-978-6838","area":"愛媛県"}
{"id":18,"name":"久万美術館","location":"愛媛県上浮穴郡久万高原町菅生２番耕地１４４２－７","business_hours":"午前9時30分〜午後5時","admission_fees":"大人／500円 高大生／400円 小中生／300円 久万高原町内の小中学生は無料です。","website_url":null,"phone_number":"0892-21-2881","area":"愛媛県"}
{"id":20,"name":"道後ぎやまんガラスミュージアム","location":"愛媛県松山市道後鷺谷町４５９－１","business_hours":"情報なし","admission_fees":"情報なし","website_url":null,"phone_number":"089-933-3637","area":"愛媛県"}
{"id":21,"name":"セキ美術館","location":"愛媛県松山市道後喜多町４－４２","business_hours":"情報なし","admission_fees":"情報なし","website_url":null,"phone_number":"089-946-5678","area":"愛媛県"}
{"id":22,"name":"今治市立朝倉ふるさと美術古墳館","location":"愛媛県今治市朝倉下","business_hours":"情報なし","admission_fees":"情報なし","website_url":null,"phone_number":"0898-56-3754","area":"愛媛県"}
{"id":23,"name":"八幡浜市美術館","location":"愛媛県八幡浜市６２－１","business_hours":"情報なし","admission_fees":"情報なし","website_url":null,"phone_number":"0894-21-3335","area":"愛媛県"}
{"id":24,"name":"西予市立ギャラリーしろかわ","location":"愛媛県西予市城川町下相６８０","business_hours":"情報なし","admission_fees":"情報なし","website_url":null,"phone_number":"0894-82-1001","area":"愛媛県"}
