{"id":1,"name":"大阪市立美術館","location":"大阪府大阪市天王寺区茶臼山町１－８２（天王寺公園内）","business_hours":"9:30〜17：00","admission_fees":"大人　300円高大　200円特別展・特別陳列は別途","website_url":null,"phone_number":"06-6771-4874","area":"大阪府県"}
{"id":2,"name":"国立国際美術館","location":"大阪府大阪市北区中之島４丁目２－５５","business_hours":"・通常時間10:00〜17:00（入場は16:30まで）・夜間開館（毎週金・土曜日）10:00〜20:00（入場は19:30まで）※開館時間は臨時に変更する場合あり","admission_fees":"・特別展一般  2,100円大学生 1,300円高校生 900円・コレクション展一般 430円大学生 130円高校生、18歳未満、65歳以上 無料","website_url":null,"phone_number":"06-6447-4680","area":"大阪府県"}
{"id":3,"name":"東洋陶磁美術館","location":"大阪府大阪市北区中之島１丁目１－２６","business_hours":"午前9時30分〜午後5時 （入館は午後4時30分まで）","admission_fees":"大人　500円高大　300円","website_url":null,"phone_number":"06-6223-0055","area":"大阪府県"}
{"id":4,"name":"久保惣記念美術館","location":"大阪府和泉市内田町３－６－１２","business_hours":"午前10時〜午後5時（入館は4時30分まで）","admission_fees":"常設展一　般 　　　　　　 500円高校生・大学生　300円中学生以下　　　無料特別陳列一　般 　　　　　　 600円高校生・大学生　400円中学生以下　　　無料特別展企画により異なります。中学生以下　　　無料※団体は20名様以上は２割引※65歳以上は２割引※各種障害者手帳を提示された場合、本人及び介助者１名様は無料","website_url":null,"phone_number":"0725-54-0001","area":"大阪府県"}
{"id":5,"name":"奥内陶芸美術館","location":"大阪府豊中市岡町北３－８－７","business_hours":"10：00〜16：00","admission_fees":"大人300円、学生200円","website_url":null,"phone_number":"06-6852-3842","area":"大阪府県"}
{"id":6,"name":"正木美術館","location":"大阪府泉北郡忠岡町忠岡中２－９－２６","business_hours":"10:00〜16:30（最終入館／16:00）","admission_fees":"一般1000円、高大生700円、小中生400円","website_url":null,"phone_number":"情報なし","area":"大阪府県"}
{"id":7,"name":"中之島香雪美術館","location":"大阪府大阪市北区中之島3-2-4 中之島フェスティバルタワー・ウエスト4階","business_hours":"午前10時〜午後5時※ご入館は午後4時30分まで","admission_fees":"展覧会ごとに異なりますので、公式HP各展覧会ページにてご確認ください。","website_url":null,"phone_number":"06-6210-3766","area":"大阪府県"}
{"id":8,"name":"藤田美術館","location":"大阪府大阪市都島区網島町10-32","business_hours":"閉館2020年開館を目指しリニューアル計画を検討しております。","admission_fees":"-","website_url":null,"phone_number":"06-6351-0582","area":"大阪府県"}
{"id":9,"name":"小林美術館","location":"大阪府高石市羽衣２丁目２－３０","business_hours":"10：00〜17：00　(入館受付は16:30まで)","admission_fees":"大人1,000円、高校・大学生600円、小学・中学生300円","website_url":null,"phone_number":"072-262-2600","area":"大阪府県"}
{"id":10,"name":"大阪浮世絵美術館","location":"大阪府大阪市中央区心斎橋筋2-2-23 不二家心斎橋ビル3F","business_hours":"10:00〜17:00（最終入館16:30）","admission_fees":"展示観覧料大人\\t1,000円学生（学生証提示）  600円小学生  300円","website_url":null,"phone_number":"06-4256-1311","area":"大阪府県"}
{"id":11,"name":"上方浮世絵館","location":"大阪府大阪市中央区難波1-6-4","business_hours":"11：00〜18：00（入館は17：30）","admission_fees":"一般：700円高校生：500円小・中学生：300円　※6歳以下の未就学児は無料","website_url":null,"phone_number":"06-6211-0303","area":"大阪府県"}
{"id":12,"name":"大阪市立美術館","location":"大阪府大阪市天王寺区茶臼山町１－８２（天王寺公園内）","business_hours":"9:30〜17：00","admission_fees":"大人　300円高大　200円特別展・特別陳列は別途","website_url":null,"phone_number":"06-6771-4874","area":"大阪府"}
{"id":13,"name":"国立国際美術館","location":"大阪府大阪市北区中之島４丁目２－５５","business_hours":"・通常時間10:00〜17:00（入場は16:30まで）・夜間開館（毎週金・土曜日）10:00〜20:00（入場は19:30まで）※開館時間は臨時に変更する場合あり","admission_fees":"・特別展一般  2,100円大学生 1,300円高校生 900円・コレクション展一般 430円大学生 130円高校生、18歳未満、65歳以上 無料","website_url":null,"phone_number":"06-6447-4680","area":"大阪府"}
{"id":14,"name":"東洋陶磁美術館","location":"大阪府大阪市北区中之島１丁目１－２６","business_hours":"午前9時30分〜午後5時 （入館は午後4時30分まで）","admission_fees":"大人　500円高大　300円","website_url":null,"phone_number":"06-6223-0055","area":"大阪府"}
{"id":15,"name":"久保惣記念美術館","location":"大阪府和泉市内田町３－６－１２","business_hours":"午前10時〜午後5時（入館は4時30分まで）","admission_fees":"常設展一　般 　　　　　　 500円高校生・大学生　300円中学生以下　　　無料特別陳列一　般 　　　　　　 600円高校生・大学生　400円中学生以下　　　無料特別展企画により異なります。中学生以下　　　無料※団体は20名様以上は２割引※65歳以上は２割引※各種障害者手帳を提示された場合、本人及び介助者１名様は無料","website_url":null,"phone_number":"0725-54-0001","area":"大阪府"}
{"id":16,"name":"奥内陶芸美術館","location":"大阪府豊中市岡町北３－８－７","business_hours":"10：00〜16：00","admission_fees":"大人300円、学生200円","website_url":null,"phone_number":"06-6852-3842","area":"大阪府"}
{"id":17,"name":"正木美術館","location":"大阪府泉北郡忠岡町忠岡中２－９－２６","business_hours":"10:00〜16:30（最終入館／16:00）","admission_fees":"一般1000円、高大生700円、小中生400円","website_url":null,"phone_number":"情報なし","area":"大阪府"}
{"id":18,"name":"中之島香雪美術館","location":"大阪府大阪市北区中之島3-2-4 中之島フェスティバルタワー・ウエスト4階","business_hours":"午前10時〜午後5時※ご入館は午後4時30分まで","admission_fees":"展覧会ごとに異なりますので、公式HP各展覧会ページにてご確認ください。","website_url":null,"phone_number":"06-6210-3766","area":"大阪府"}
{"id":19,"name":"藤田美術館","location":"大阪府大阪市都島区網島町10-32","business_hours":"閉館2020年開館を目指しリニューアル計画を検討しております。","admission_fees":"-","website_url":null,"phone_number":"06-6351-0582","area":"大阪府"}
{"id":20,"name":"小林美術館","location":"大阪府高石市羽衣２丁目２－３０","business_hours":"10：00〜17：00　(入館受付は16:30まで)","admission_fees":"大人1,000円、高校・大学生600円、小学・中学生300円","website_url":null,"phone_number":"072-262-2600","area":"大阪府"}
{"id":21,"name":"大阪浮世絵美術館","location":"大阪府大阪市中央区心斎橋筋2-2-23 不二家心斎橋ビル3F","business_hours":"10:00〜17:00（最終入館16:30）","admission_fees":"展示観覧料大人\\t1,000円学生（学生証提示）  600円小学生  300円","website_url":null,"phone_number":"06-4256-1311","area":"大阪府"}
{"id":22,"name":"上方浮世絵館","location":"大阪府大阪市中央区難波1-6-4","business_hours":"11：00〜18：00（入館は17：30）","admission_fees":"一般：700円高校生：500円小・中学生：300円　※6歳以下の未就学児は無料","website_url":null,"phone_number":"06-6211-0303","area":"大阪府"}
