{"id":65,"name":"金沢21世紀美術館","location":"石川県金沢市広坂１丁目２－１","business_hours":"展覧会ゾーン：10:00〜18:00（金・土曜は20:00まで）","admission_fees":"展覧会により異なる","website_url":null,"phone_number":"076-220-2800","area":"石川県"}
{"id":66,"name":"能登島ガラス美術館","location":"石川県七尾市能登島向田町１２５－１０","business_hours":"【4月〜11月】午前9時〜午後5時（入館は午後4時30分まで）【12月〜3月】午前9時〜午後4時30分（入館は午後4時まで）","admission_fees":"大人（高校生以上）　800円中学生以下　無料","website_url":null,"phone_number":"0767-84-1175","area":"石川県"}
{"id":67,"name":"石川県立美術館","location":"石川県金沢市出羽町２－１","business_hours":"9：30〜18：00＊カフェ：10：00〜19：00（年中無休）","admission_fees":"コレクション展示室　一般：360円　大学生：290円　高校生以下：無料　65歳以上：290円＊無料の日あり","website_url":null,"phone_number":"076-231-7580","area":"石川県"}
{"id":68,"name":"金沢能樂美術館","location":"石川県金沢市広坂１丁目２－２５","business_hours":"10時00分〜18時00分（入館は17時30分まで）","admission_fees":"一般300円,65歳以上200円,高校生以下無料(利用可能クレジットカード：無し)","website_url":null,"phone_number":"076-220-2790","area":"石川県"}
{"id":77,"name":"宮本三郎美術館分館宮本三郎ふるさと館","location":"石川県小松市松崎町１６－１","business_hours":"午前９時〜午後５時（ただし、入館は４時半まで）","admission_fees":"平常展一般  400円大学生 200円※高校生以下は無料団　　体(20名以上)一般 300円大学生 150円※高校生以下は無料※特別展についてはその都度定めます。こまつミュージアム・パス1週間券 (最初に利用した日を含む1週間)  500円年間券 (年度末3月31日まで) 1500円対象施設の平常展を、有効期限内であれば何度でもご覧いただけます。","website_url":null,"phone_number":"0761-43-3032","area":"石川県"}
{"id":78,"name":"羽根万象美術館","location":"石川県鳳珠郡能登町宇出津イ１１２－５","business_hours":"９時〜１７時（入館は１６時３０分まで）","admission_fees":"大人３００円小・中・高校生１５０円","website_url":null,"phone_number":"0768-62-3669","area":"石川県"}
{"id":79,"name":"硲伊之助美術館","location":"石川県加賀市吸坂町４－３","business_hours":"10:00〜17:00 （入館は16:30まで）","admission_fees":"大人500円 高校生以下 無料","website_url":null,"phone_number":"0761-72-0872","area":"石川県"}
{"id":80,"name":"能美市九谷焼美術館","location":"石川県能美市泉台町56","business_hours":"9:00〜17:00※五彩館・浅蔵五十吉記念館は16：30まで体験館は16：00まで","admission_fees":"大人：430円／75歳以上：320円／高校生以下：無料","website_url":null,"phone_number":"0761-58-6100","area":"石川県"}
{"id":49,"name":"金沢21世紀美術館","location":"石川県金沢市広坂１丁目２－１","business_hours":"展覧会ゾーン：10:00〜18:00（金・土曜は20:00まで）","admission_fees":"展覧会により異なる","website_url":null,"phone_number":"076-220-2800","area":"石川県県"}
{"id":50,"name":"能登島ガラス美術館","location":"石川県七尾市能登島向田町１２５－１０","business_hours":"【4月〜11月】午前9時〜午後5時（入館は午後4時30分まで）【12月〜3月】午前9時〜午後4時30分（入館は午後4時まで）","admission_fees":"大人（高校生以上）　800円中学生以下　無料","website_url":null,"phone_number":"0767-84-1175","area":"石川県県"}
{"id":51,"name":"石川県立美術館","location":"石川県金沢市出羽町２－１","business_hours":"9：30〜18：00＊カフェ：10：00〜19：00（年中無休）","admission_fees":"コレクション展示室　一般：360円　大学生：290円　高校生以下：無料　65歳以上：290円＊無料の日あり","website_url":null,"phone_number":"076-231-7580","area":"石川県県"}
{"id":58,"name":"石川県輪島漆芸美術館","location":"石川県輪島市水守町四十苅１１","business_hours":"9:00〜17:00","admission_fees":"大人：600円大学生：300円　高校生：300円　中学生：150円小学生：150円","website_url":null,"phone_number":"0768-22-9788","area":"石川県県"}
{"id":62,"name":"羽根万象美術館","location":"石川県鳳珠郡能登町宇出津イ１１２－５","business_hours":"９時〜１７時（入館は１６時３０分まで）","admission_fees":"大人３００円小・中・高校生１５０円","website_url":null,"phone_number":"0768-62-3669","area":"石川県県"}
{"id":63,"name":"硲伊之助美術館","location":"石川県加賀市吸坂町４－３","business_hours":"10:00〜17:00 （入館は16:30まで）","admission_fees":"大人500円 高校生以下 無料","website_url":null,"phone_number":"0761-72-0872","area":"石川県県"}
{"id":64,"name":"能美市九谷焼美術館","location":"石川県能美市泉台町56","business_hours":"9:00〜17:00※五彩館・浅蔵五十吉記念館は16：30まで体験館は16：00まで","admission_fees":"大人：430円／75歳以上：320円／高校生以下：無料","website_url":null,"phone_number":"0761-58-6100","area":"石川県県"}
{"id":47,"name":"硲伊之助美術館","location":"石川県加賀市吸坂町４－３","business_hours":"10:00〜17:00 （入館は16:30まで）","admission_fees":"大人500円 高校生以下 無料","website_url":null,"phone_number":"0761-72-0872","area":"石川県県県"}
{"id":23,"name":"七尾美術館","location":"石川県七尾市小丸山台１丁目１","business_hours":"９時〜１７時（入館は１６時３０分まで）","admission_fees":"一般５００円大高校生３５０円中学生以下無料（展示内容により料金が変わります）","website_url":null,"phone_number":"0767-53-1500","area":"石川県県県県"}
{"id":15,"name":"硲伊之助美術館","location":"石川県加賀市吸坂町４－３","business_hours":"10:00〜17:00 （入館は16:30まで）","admission_fees":"大人500円 高校生以下 無料","website_url":null,"phone_number":"0761-72-0872","area":"石川県県県県県"}
{"id":6,"name":"本陣記念美術館","location":"石川県小松市丸の内公園町１９","business_hours":"午前９時〜午後５時（ただし、入館は４時半まで）","admission_fees":"平常展一般  400円大学生 200円※高校生以下は無料団　　体(20名以上)一般 300円大学生 150円※高校生以下は無料※特別展についてはその都度定めます。こまつミュージアム・パス1週間券 (最初に利用した日を含む1週間)  500円年間券 (年度末3月31日まで) 1500円対象施設の平常展を、有効期限内であれば何度でもご覧いただけます。","website_url":null,"phone_number":"0761-22-3384","area":"石川県県県県県"}
{"id":19,"name":"石川県立美術館","location":"石川県金沢市出羽町２－１","business_hours":"9：30〜18：00＊カフェ：10：00〜19：00（年中無休）","admission_fees":"コレクション展示室　一般：360円　大学生：290円　高校生以下：無料　65歳以上：290円＊無料の日あり","website_url":null,"phone_number":"076-231-7580","area":"石川県県県県"}
{"id":20,"name":"金沢能樂美術館","location":"石川県金沢市広坂１丁目２－２５","business_hours":"10時00分〜18時00分（入館は17時30分まで）","admission_fees":"一般300円,65歳以上200円,高校生以下無料(利用可能クレジットカード：無し)","website_url":null,"phone_number":"076-220-2790","area":"石川県県県県"}
{"id":69,"name":"中村記念美術館","location":"石川県金沢市本多町３丁目２－２９","business_hours":"9:30〜17:00(受付は16:30迄)","admission_fees":"一般：300円65歳以上：200円障害者手帳をお持ちの方およびその介護人：200円(日祝日は無料)高校生以下：無料茶菓券：200円・300円","website_url":null,"phone_number":"076-221-0751","area":"石川県"}
{"id":71,"name":"七尾美術館","location":"石川県七尾市小丸山台１丁目１","business_hours":"９時〜１７時（入館は１６時３０分まで）","admission_fees":"一般５００円大高校生３５０円中学生以下無料（展示内容により料金が変わります）","website_url":null,"phone_number":"0767-53-1500","area":"石川県"}
{"id":74,"name":"石川県輪島漆芸美術館","location":"石川県輪島市水守町四十苅１１","business_hours":"9:00〜17:00","admission_fees":"大人：600円大学生：300円　高校生：300円　中学生：150円小学生：150円","website_url":null,"phone_number":"0768-22-9788","area":"石川県"}
{"id":34,"name":"能登島ガラス美術館","location":"石川県七尾市能登島向田町１２５－１０","business_hours":"【4月〜11月】午前9時〜午後5時（入館は午後4時30分まで）【12月〜3月】午前9時〜午後4時30分（入館は午後4時まで）","admission_fees":"大人（高校生以上）　800円中学生以下　無料","website_url":null,"phone_number":"0767-84-1175","area":"石川県県県"}
{"id":35,"name":"石川県立美術館","location":"石川県金沢市出羽町２－１","business_hours":"9：30〜18：00＊カフェ：10：00〜19：00（年中無休）","admission_fees":"コレクション展示室　一般：360円　大学生：290円　高校生以下：無料　65歳以上：290円＊無料の日あり","website_url":null,"phone_number":"076-231-7580","area":"石川県県県"}
{"id":37,"name":"中村記念美術館","location":"石川県金沢市本多町３丁目２－２９","business_hours":"9:30〜17:00(受付は16:30迄)","admission_fees":"一般：300円65歳以上：200円障害者手帳をお持ちの方およびその介護人：200円(日祝日は無料)高校生以下：無料茶菓券：200円・300円","website_url":null,"phone_number":"076-221-0751","area":"石川県県県"}
{"id":38,"name":"本陣記念美術館","location":"石川県小松市丸の内公園町１９","business_hours":"午前９時〜午後５時（ただし、入館は４時半まで）","admission_fees":"平常展一般  400円大学生 200円※高校生以下は無料団　　体(20名以上)一般 300円大学生 150円※高校生以下は無料※特別展についてはその都度定めます。こまつミュージアム・パス1週間券 (最初に利用した日を含む1週間)  500円年間券 (年度末3月31日まで) 1500円対象施設の平常展を、有効期限内であれば何度でもご覧いただけます。","website_url":null,"phone_number":"0761-22-3384","area":"石川県県県"}
{"id":39,"name":"七尾美術館","location":"石川県七尾市小丸山台１丁目１","business_hours":"９時〜１７時（入館は１６時３０分まで）","admission_fees":"一般５００円大高校生３５０円中学生以下無料（展示内容により料金が変わります）","website_url":null,"phone_number":"0767-53-1500","area":"石川県県県"}
{"id":40,"name":"宮本三郎美術館","location":"石川県小松市小馬出町５","business_hours":"午前9時〜午後5時(但し、入場は4時半まで)","admission_fees":"【個人】一般：400円、大学生：200円※高校生以下は無料※特別展についてはその都度定めます。","website_url":null,"phone_number":"0761-20-3600","area":"石川県県県"}
{"id":41,"name":"九谷焼美術館","location":"石川県加賀市大聖寺地方町１－１０－１３","business_hours":"9:00？17:00 (ご入館は16:30まで)","admission_fees":"一般　\\\\500 高齢者 (75歳以上)　\\\\250 高校生以下　無料 障害者　無料","website_url":null,"phone_number":"0761-72-7466","area":"石川県県県"}
{"id":18,"name":"能登島ガラス美術館","location":"石川県七尾市能登島向田町１２５－１０","business_hours":"【4月〜11月】午前9時〜午後5時（入館は午後4時30分まで）【12月〜3月】午前9時〜午後4時30分（入館は午後4時まで）","admission_fees":"大人（高校生以上）　800円中学生以下　無料","website_url":null,"phone_number":"0767-84-1175","area":"石川県県県県"}
{"id":8,"name":"宮本三郎美術館","location":"石川県小松市小馬出町５","business_hours":"午前9時〜午後5時(但し、入場は4時半まで)","admission_fees":"【個人】一般：400円、大学生：200円※高校生以下は無料※特別展についてはその都度定めます。","website_url":null,"phone_number":"0761-20-3600","area":"石川県県県県県"}
{"id":9,"name":"九谷焼美術館","location":"石川県加賀市大聖寺地方町１－１０－１３","business_hours":"9:00？17:00 (ご入館は16:30まで)","admission_fees":"一般　\\\\500 高齢者 (75歳以上)　\\\\250 高校生以下　無料 障害者　無料","website_url":null,"phone_number":"0761-72-7466","area":"石川県県県県県"}
{"id":10,"name":"石川県輪島漆芸美術館","location":"石川県輪島市水守町四十苅１１","business_hours":"9:00〜17:00","admission_fees":"大人：600円大学生：300円　高校生：300円　中学生：150円小学生：150円","website_url":null,"phone_number":"0768-22-9788","area":"石川県県県県県"}
{"id":42,"name":"石川県輪島漆芸美術館","location":"石川県輪島市水守町四十苅１１","business_hours":"9:00〜17:00","admission_fees":"大人：600円大学生：300円　高校生：300円　中学生：150円小学生：150円","website_url":null,"phone_number":"0768-22-9788","area":"石川県県県"}
{"id":43,"name":"浅蔵五十吉美術館","location":"石川県能美市泉台町南１","business_hours":"9：00〜17：00（受付終了は16：30まで）","admission_fees":"大人：430円？75歳以上：320円？高校生以下：無料","website_url":null,"phone_number":"0761-58-6789","area":"石川県県県"}
{"id":11,"name":"浅蔵五十吉美術館","location":"石川県能美市泉台町南１","business_hours":"9：00〜17：00（受付終了は16：30まで）","admission_fees":"大人：430円？75歳以上：320円？高校生以下：無料","website_url":null,"phone_number":"0761-58-6789","area":"石川県県県県県"}
{"id":12,"name":"松任中川一政記念美術館","location":"石川県白山市旭町６１－１","business_hours":"9:00〜17:00 入館は16:30まで","admission_fees":"大人:200円 高校生:100円 備考：中学生以下無料同日に限り白山市立松任博物館入館無料","website_url":null,"phone_number":"076-275-7532","area":"石川県県県県県"}
{"id":13,"name":"宮本三郎美術館分館宮本三郎ふるさと館","location":"石川県小松市松崎町１６－１","business_hours":"午前９時〜午後５時（ただし、入館は４時半まで）","admission_fees":"平常展一般  400円大学生 200円※高校生以下は無料団　　体(20名以上)一般 300円大学生 150円※高校生以下は無料※特別展についてはその都度定めます。こまつミュージアム・パス1週間券 (最初に利用した日を含む1週間)  500円年間券 (年度末3月31日まで) 1500円対象施設の平常展を、有効期限内であれば何度でもご覧いただけます。","website_url":null,"phone_number":"0761-43-3032","area":"石川県県県県県"}
{"id":14,"name":"羽根万象美術館","location":"石川県鳳珠郡能登町宇出津イ１１２－５","business_hours":"９時〜１７時（入館は１６時３０分まで）","admission_fees":"大人３００円小・中・高校生１５０円","website_url":null,"phone_number":"0768-62-3669","area":"石川県県県県県"}
{"id":16,"name":"能美市九谷焼美術館","location":"石川県能美市泉台町56","business_hours":"9:00〜17:00※五彩館・浅蔵五十吉記念館は16：30まで体験館は16：00まで","admission_fees":"大人：430円／75歳以上：320円／高校生以下：無料","website_url":null,"phone_number":"0761-58-6100","area":"石川県県県県県"}
{"id":17,"name":"金沢21世紀美術館","location":"石川県金沢市広坂１丁目２－１","business_hours":"展覧会ゾーン：10:00〜18:00（金・土曜は20:00まで）","admission_fees":"展覧会により異なる","website_url":null,"phone_number":"076-220-2800","area":"石川県県県県"}
{"id":70,"name":"本陣記念美術館","location":"石川県小松市丸の内公園町１９","business_hours":"午前９時〜午後５時（ただし、入館は４時半まで）","admission_fees":"平常展一般  400円大学生 200円※高校生以下は無料団　　体(20名以上)一般 300円大学生 150円※高校生以下は無料※特別展についてはその都度定めます。こまつミュージアム・パス1週間券 (最初に利用した日を含む1週間)  500円年間券 (年度末3月31日まで) 1500円対象施設の平常展を、有効期限内であれば何度でもご覧いただけます。","website_url":null,"phone_number":"0761-22-3384","area":"石川県"}
{"id":44,"name":"松任中川一政記念美術館","location":"石川県白山市旭町６１－１","business_hours":"9:00〜17:00 入館は16:30まで","admission_fees":"大人:200円 高校生:100円 備考：中学生以下無料同日に限り白山市立松任博物館入館無料","website_url":null,"phone_number":"076-275-7532","area":"石川県県県"}
{"id":72,"name":"宮本三郎美術館","location":"石川県小松市小馬出町５","business_hours":"午前9時〜午後5時(但し、入場は4時半まで)","admission_fees":"【個人】一般：400円、大学生：200円※高校生以下は無料※特別展についてはその都度定めます。","website_url":null,"phone_number":"0761-20-3600","area":"石川県"}
{"id":73,"name":"九谷焼美術館","location":"石川県加賀市大聖寺地方町１－１０－１３","business_hours":"9:00？17:00 (ご入館は16:30まで)","admission_fees":"一般　\\\\500 高齢者 (75歳以上)　\\\\250 高校生以下　無料 障害者　無料","website_url":null,"phone_number":"0761-72-7466","area":"石川県"}
{"id":75,"name":"浅蔵五十吉美術館","location":"石川県能美市泉台町南１","business_hours":"9：00〜17：00（受付終了は16：30まで）","admission_fees":"大人：430円？75歳以上：320円？高校生以下：無料","website_url":null,"phone_number":"0761-58-6789","area":"石川県"}
{"id":76,"name":"松任中川一政記念美術館","location":"石川県白山市旭町６１－１","business_hours":"9:00〜17:00 入館は16:30まで","admission_fees":"大人:200円 高校生:100円 備考：中学生以下無料同日に限り白山市立松任博物館入館無料","website_url":null,"phone_number":"076-275-7532","area":"石川県"}
{"id":45,"name":"宮本三郎美術館分館宮本三郎ふるさと館","location":"石川県小松市松崎町１６－１","business_hours":"午前９時〜午後５時（ただし、入館は４時半まで）","admission_fees":"平常展一般  400円大学生 200円※高校生以下は無料団　　体(20名以上)一般 300円大学生 150円※高校生以下は無料※特別展についてはその都度定めます。こまつミュージアム・パス1週間券 (最初に利用した日を含む1週間)  500円年間券 (年度末3月31日まで) 1500円対象施設の平常展を、有効期限内であれば何度でもご覧いただけます。","website_url":null,"phone_number":"0761-43-3032","area":"石川県県県"}
{"id":46,"name":"羽根万象美術館","location":"石川県鳳珠郡能登町宇出津イ１１２－５","business_hours":"９時〜１７時（入館は１６時３０分まで）","admission_fees":"大人３００円小・中・高校生１５０円","website_url":null,"phone_number":"0768-62-3669","area":"石川県県県"}
{"id":48,"name":"能美市九谷焼美術館","location":"石川県能美市泉台町56","business_hours":"9:00〜17:00※五彩館・浅蔵五十吉記念館は16：30まで体験館は16：00まで","admission_fees":"大人：430円／75歳以上：320円／高校生以下：無料","website_url":null,"phone_number":"0761-58-6100","area":"石川県県県"}
{"id":1,"name":"金沢21世紀美術館","location":"石川県金沢市広坂１丁目２－１","business_hours":"展覧会ゾーン：10:00〜18:00（金・土曜は20:00まで）","admission_fees":"展覧会により異なる","website_url":null,"phone_number":"076-220-2800","area":"石川県県県県県"}
{"id":2,"name":"能登島ガラス美術館","location":"石川県七尾市能登島向田町１２５－１０","business_hours":"【4月〜11月】午前9時〜午後5時（入館は午後4時30分まで）【12月〜3月】午前9時〜午後4時30分（入館は午後4時まで）","admission_fees":"大人（高校生以上）　800円中学生以下　無料","website_url":null,"phone_number":"0767-84-1175","area":"石川県県県県県"}
{"id":4,"name":"金沢能樂美術館","location":"石川県金沢市広坂１丁目２－２５","business_hours":"10時00分〜18時00分（入館は17時30分まで）","admission_fees":"一般300円,65歳以上200円,高校生以下無料(利用可能クレジットカード：無し)","website_url":null,"phone_number":"076-220-2790","area":"石川県県県県県"}
{"id":31,"name":"硲伊之助美術館","location":"石川県加賀市吸坂町４－３","business_hours":"10:00〜17:00 （入館は16:30まで）","admission_fees":"大人500円 高校生以下 無料","website_url":null,"phone_number":"0761-72-0872","area":"石川県県県県"}
{"id":52,"name":"金沢能樂美術館","location":"石川県金沢市広坂１丁目２－２５","business_hours":"10時00分〜18時00分（入館は17時30分まで）","admission_fees":"一般300円,65歳以上200円,高校生以下無料(利用可能クレジットカード：無し)","website_url":null,"phone_number":"076-220-2790","area":"石川県県"}
{"id":53,"name":"中村記念美術館","location":"石川県金沢市本多町３丁目２－２９","business_hours":"9:30〜17:00(受付は16:30迄)","admission_fees":"一般：300円65歳以上：200円障害者手帳をお持ちの方およびその介護人：200円(日祝日は無料)高校生以下：無料茶菓券：200円・300円","website_url":null,"phone_number":"076-221-0751","area":"石川県県"}
{"id":54,"name":"本陣記念美術館","location":"石川県小松市丸の内公園町１９","business_hours":"午前９時〜午後５時（ただし、入館は４時半まで）","admission_fees":"平常展一般  400円大学生 200円※高校生以下は無料団　　体(20名以上)一般 300円大学生 150円※高校生以下は無料※特別展についてはその都度定めます。こまつミュージアム・パス1週間券 (最初に利用した日を含む1週間)  500円年間券 (年度末3月31日まで) 1500円対象施設の平常展を、有効期限内であれば何度でもご覧いただけます。","website_url":null,"phone_number":"0761-22-3384","area":"石川県県"}
{"id":55,"name":"七尾美術館","location":"石川県七尾市小丸山台１丁目１","business_hours":"９時〜１７時（入館は１６時３０分まで）","admission_fees":"一般５００円大高校生３５０円中学生以下無料（展示内容により料金が変わります）","website_url":null,"phone_number":"0767-53-1500","area":"石川県県"}
{"id":56,"name":"宮本三郎美術館","location":"石川県小松市小馬出町５","business_hours":"午前9時〜午後5時(但し、入場は4時半まで)","admission_fees":"【個人】一般：400円、大学生：200円※高校生以下は無料※特別展についてはその都度定めます。","website_url":null,"phone_number":"0761-20-3600","area":"石川県県"}
{"id":57,"name":"九谷焼美術館","location":"石川県加賀市大聖寺地方町１－１０－１３","business_hours":"9:00？17:00 (ご入館は16:30まで)","admission_fees":"一般　\\\\500 高齢者 (75歳以上)　\\\\250 高校生以下　無料 障害者　無料","website_url":null,"phone_number":"0761-72-7466","area":"石川県県"}
{"id":59,"name":"浅蔵五十吉美術館","location":"石川県能美市泉台町南１","business_hours":"9：00〜17：00（受付終了は16：30まで）","admission_fees":"大人：430円？75歳以上：320円？高校生以下：無料","website_url":null,"phone_number":"0761-58-6789","area":"石川県県"}
{"id":60,"name":"松任中川一政記念美術館","location":"石川県白山市旭町６１－１","business_hours":"9:00〜17:00 入館は16:30まで","admission_fees":"大人:200円 高校生:100円 備考：中学生以下無料同日に限り白山市立松任博物館入館無料","website_url":null,"phone_number":"076-275-7532","area":"石川県県"}
{"id":61,"name":"宮本三郎美術館分館宮本三郎ふるさと館","location":"石川県小松市松崎町１６－１","business_hours":"午前９時〜午後５時（ただし、入館は４時半まで）","admission_fees":"平常展一般  400円大学生 200円※高校生以下は無料団　　体(20名以上)一般 300円大学生 150円※高校生以下は無料※特別展についてはその都度定めます。こまつミュージアム・パス1週間券 (最初に利用した日を含む1週間)  500円年間券 (年度末3月31日まで) 1500円対象施設の平常展を、有効期限内であれば何度でもご覧いただけます。","website_url":null,"phone_number":"0761-43-3032","area":"石川県県"}
{"id":24,"name":"宮本三郎美術館","location":"石川県小松市小馬出町５","business_hours":"午前9時〜午後5時(但し、入場は4時半まで)","admission_fees":"【個人】一般：400円、大学生：200円※高校生以下は無料※特別展についてはその都度定めます。","website_url":null,"phone_number":"0761-20-3600","area":"石川県県県県"}
{"id":25,"name":"九谷焼美術館","location":"石川県加賀市大聖寺地方町１－１０－１３","business_hours":"9:00？17:00 (ご入館は16:30まで)","admission_fees":"一般　\\\\500 高齢者 (75歳以上)　\\\\250 高校生以下　無料 障害者　無料","website_url":null,"phone_number":"0761-72-7466","area":"石川県県県県"}
{"id":32,"name":"能美市九谷焼美術館","location":"石川県能美市泉台町56","business_hours":"9:00〜17:00※五彩館・浅蔵五十吉記念館は16：30まで体験館は16：00まで","admission_fees":"大人：430円／75歳以上：320円／高校生以下：無料","website_url":null,"phone_number":"0761-58-6100","area":"石川県県県県"}
{"id":33,"name":"金沢21世紀美術館","location":"石川県金沢市広坂１丁目２－１","business_hours":"展覧会ゾーン：10:00〜18:00（金・土曜は20:00まで）","admission_fees":"展覧会により異なる","website_url":null,"phone_number":"076-220-2800","area":"石川県県県"}
{"id":36,"name":"金沢能樂美術館","location":"石川県金沢市広坂１丁目２－２５","business_hours":"10時00分〜18時00分（入館は17時30分まで）","admission_fees":"一般300円,65歳以上200円,高校生以下無料(利用可能クレジットカード：無し)","website_url":null,"phone_number":"076-220-2790","area":"石川県県県"}
{"id":7,"name":"七尾美術館","location":"石川県七尾市小丸山台１丁目１","business_hours":"９時〜１７時（入館は１６時３０分まで）","admission_fees":"一般５００円大高校生３５０円中学生以下無料（展示内容により料金が変わります）","website_url":null,"phone_number":"0767-53-1500","area":"石川県県県県県"}
{"id":27,"name":"浅蔵五十吉美術館","location":"石川県能美市泉台町南１","business_hours":"9：00〜17：00（受付終了は16：30まで）","admission_fees":"大人：430円？75歳以上：320円？高校生以下：無料","website_url":null,"phone_number":"0761-58-6789","area":"石川県県県県"}
{"id":21,"name":"中村記念美術館","location":"石川県金沢市本多町３丁目２－２９","business_hours":"9:30〜17:00(受付は16:30迄)","admission_fees":"一般：300円65歳以上：200円障害者手帳をお持ちの方およびその介護人：200円(日祝日は無料)高校生以下：無料茶菓券：200円・300円","website_url":null,"phone_number":"076-221-0751","area":"石川県県県県"}
{"id":3,"name":"石川県立美術館","location":"石川県金沢市出羽町２－１","business_hours":"9：30〜18：00＊カフェ：10：00〜19：00（年中無休）","admission_fees":"コレクション展示室　一般：360円　大学生：290円　高校生以下：無料　65歳以上：290円＊無料の日あり","website_url":null,"phone_number":"076-231-7580","area":"石川県県県県県"}
{"id":5,"name":"中村記念美術館","location":"石川県金沢市本多町３丁目２－２９","business_hours":"9:30〜17:00(受付は16:30迄)","admission_fees":"一般：300円65歳以上：200円障害者手帳をお持ちの方およびその介護人：200円(日祝日は無料)高校生以下：無料茶菓券：200円・300円","website_url":null,"phone_number":"076-221-0751","area":"石川県県県県県"}
{"id":22,"name":"本陣記念美術館","location":"石川県小松市丸の内公園町１９","business_hours":"午前９時〜午後５時（ただし、入館は４時半まで）","admission_fees":"平常展一般  400円大学生 200円※高校生以下は無料団　　体(20名以上)一般 300円大学生 150円※高校生以下は無料※特別展についてはその都度定めます。こまつミュージアム・パス1週間券 (最初に利用した日を含む1週間)  500円年間券 (年度末3月31日まで) 1500円対象施設の平常展を、有効期限内であれば何度でもご覧いただけます。","website_url":null,"phone_number":"0761-22-3384","area":"石川県県県県"}
{"id":26,"name":"石川県輪島漆芸美術館","location":"石川県輪島市水守町四十苅１１","business_hours":"9:00〜17:00","admission_fees":"大人：600円大学生：300円　高校生：300円　中学生：150円小学生：150円","website_url":null,"phone_number":"0768-22-9788","area":"石川県県県県"}
{"id":28,"name":"松任中川一政記念美術館","location":"石川県白山市旭町６１－１","business_hours":"9:00〜17:00 入館は16:30まで","admission_fees":"大人:200円 高校生:100円 備考：中学生以下無料同日に限り白山市立松任博物館入館無料","website_url":null,"phone_number":"076-275-7532","area":"石川県県県県"}
{"id":29,"name":"宮本三郎美術館分館宮本三郎ふるさと館","location":"石川県小松市松崎町１６－１","business_hours":"午前９時〜午後５時（ただし、入館は４時半まで）","admission_fees":"平常展一般  400円大学生 200円※高校生以下は無料団　　体(20名以上)一般 300円大学生 150円※高校生以下は無料※特別展についてはその都度定めます。こまつミュージアム・パス1週間券 (最初に利用した日を含む1週間)  500円年間券 (年度末3月31日まで) 1500円対象施設の平常展を、有効期限内であれば何度でもご覧いただけます。","website_url":null,"phone_number":"0761-43-3032","area":"石川県県県県"}
{"id":30,"name":"羽根万象美術館","location":"石川県鳳珠郡能登町宇出津イ１１２－５","business_hours":"９時〜１７時（入館は１６時３０分まで）","admission_fees":"大人３００円小・中・高校生１５０円","website_url":null,"phone_number":"0768-62-3669","area":"石川県県県県"}
