{"id":37,"name":"熊本県立美術館","location":"熊本県熊本市中央区二の丸２","business_hours":"9:30〜17:30　（入館は16:45まで）","admission_fees":"別棟展示室＋本館二階展示室共通券 一般：420円大学生：250円","website_url":null,"phone_number":"096-352-2111","area":"熊本県"}
{"id":38,"name":"菊池夢美術館","location":"熊本県菊池市大字隈府１２７３－１","business_hours":"9：00〜18：00（12月〜2月は17：30まで）","admission_fees":"無料","website_url":null,"phone_number":"0968-25-0513","area":"熊本県"}
{"id":39,"name":"熊本県立美術館分館","location":"熊本県熊本市中央区千葉城町２－１８","business_hours":"火〜金／午前9:30〜午後6:30土・日・祝／午前9:30〜午後5:15（入館は30分前まで）","admission_fees":"無料","website_url":null,"phone_number":"096-351-8411","area":"熊本県"}
{"id":40,"name":"つなぎ美術館","location":"熊本県葦北郡津奈木町岩城４９４","business_hours":"午前10時〜午後17時（入館は16時30分まで）","admission_fees":"無料","website_url":null,"phone_number":"0966-61-2222","area":"熊本県"}
{"id":41,"name":"熊本市現代美術館","location":"熊本県熊本市中央区上通町２－３","business_hours":"午前10時から午後8時 （展覧会入場は午後7時30分まで）※余震の状況によりましては変更する場合があります","admission_fees":"入館料は無料です。（企画展示室を除く）","website_url":null,"phone_number":"096-278-7500","area":"熊本県"}
{"id":42,"name":"不知火美術館","location":"熊本県宇城市不知火町高良２３５２","business_hours":"午前10時から午後6時まで（土日祝は午前10時から午後5時まで）    ※入館は閉館30分前まで","admission_fees":"大人300円、大学生・高校生200円","website_url":null,"phone_number":"0964-32-6222","area":"熊本県"}
{"id":43,"name":"島田美術館","location":"熊本県熊本市西区島崎４－５－２８","business_hours":"am10:00〜pm5:00(入場はpm4:30まで)","admission_fees":"一般　700円大学・高校生400円小・中学生200円保護者同伴の小学生は無料","website_url":null,"phone_number":"096-352-4597","area":"熊本県"}
{"id":44,"name":"坂本善三美術館","location":"熊本県阿蘇郡小国町黒渕２８７７","business_hours":"9：00〜17：00（入館は30分前まで）","admission_fees":"一般500円、高・大学生400円、小・中学生200円","website_url":null,"phone_number":"0967-46-5732","area":"熊本県"}
{"id":45,"name":"星野富弘美術館","location":"熊本県葦北郡芦北町大字湯浦１４３９－２","business_hours":"9:00〜17:00","admission_fees":"・一般（高校生以上）　　　　 500円・16歳未満（中学生以下）　300円・6歳未満（就学児未満）     無料 ・障害者手帳をお持ちの方とその介護者1名：5割引き","website_url":null,"phone_number":"0966-86-1600","area":"熊本県"}
{"id":10,"name":"熊本県立美術館","location":"熊本県熊本市中央区二の丸２","business_hours":"9:30〜17:30　（入館は16:45まで）","admission_fees":"別棟展示室＋本館二階展示室共通券 一般：420円大学生：250円","website_url":null,"phone_number":"096-352-2111","area":"熊本県県県県"}
{"id":11,"name":"菊池夢美術館","location":"熊本県菊池市大字隈府１２７３－１","business_hours":"9：00〜18：00（12月〜2月は17：30まで）","admission_fees":"無料","website_url":null,"phone_number":"0968-25-0513","area":"熊本県県県県"}
{"id":12,"name":"熊本県立美術館分館","location":"熊本県熊本市中央区千葉城町２－１８","business_hours":"火〜金／午前9:30〜午後6:30土・日・祝／午前9:30〜午後5:15（入館は30分前まで）","admission_fees":"無料","website_url":null,"phone_number":"096-351-8411","area":"熊本県県県県"}
{"id":13,"name":"つなぎ美術館","location":"熊本県葦北郡津奈木町岩城４９４","business_hours":"午前10時〜午後17時（入館は16時30分まで）","admission_fees":"無料","website_url":null,"phone_number":"0966-61-2222","area":"熊本県県県県"}
{"id":14,"name":"熊本市現代美術館","location":"熊本県熊本市中央区上通町２－３","business_hours":"午前10時から午後8時 （展覧会入場は午後7時30分まで）※余震の状況によりましては変更する場合があります","admission_fees":"入館料は無料です。（企画展示室を除く）","website_url":null,"phone_number":"096-278-7500","area":"熊本県県県県"}
{"id":20,"name":"菊池夢美術館","location":"熊本県菊池市大字隈府１２７３－１","business_hours":"9：00〜18：00（12月〜2月は17：30まで）","admission_fees":"無料","website_url":null,"phone_number":"0968-25-0513","area":"熊本県県県"}
{"id":17,"name":"坂本善三美術館","location":"熊本県阿蘇郡小国町黒渕２８７７","business_hours":"9：00〜17：00（入館は30分前まで）","admission_fees":"一般500円、高・大学生400円、小・中学生200円","website_url":null,"phone_number":"0967-46-5732","area":"熊本県県県県"}
{"id":1,"name":"熊本県立美術館","location":"熊本県熊本市中央区二の丸２","business_hours":"9:30〜17:30　（入館は16:45まで）","admission_fees":"別棟展示室＋本館二階展示室共通券 一般：420円大学生：250円","website_url":null,"phone_number":"096-352-2111","area":"熊本県県県県県"}
{"id":19,"name":"熊本県立美術館","location":"熊本県熊本市中央区二の丸２","business_hours":"9:30〜17:30　（入館は16:45まで）","admission_fees":"別棟展示室＋本館二階展示室共通券 一般：420円大学生：250円","website_url":null,"phone_number":"096-352-2111","area":"熊本県県県"}
{"id":21,"name":"熊本県立美術館分館","location":"熊本県熊本市中央区千葉城町２－１８","business_hours":"火〜金／午前9:30〜午後6:30土・日・祝／午前9:30〜午後5:15（入館は30分前まで）","admission_fees":"無料","website_url":null,"phone_number":"096-351-8411","area":"熊本県県県"}
{"id":22,"name":"つなぎ美術館","location":"熊本県葦北郡津奈木町岩城４９４","business_hours":"午前10時〜午後17時（入館は16時30分まで）","admission_fees":"無料","website_url":null,"phone_number":"0966-61-2222","area":"熊本県県県"}
{"id":23,"name":"熊本市現代美術館","location":"熊本県熊本市中央区上通町２－３","business_hours":"午前10時から午後8時 （展覧会入場は午後7時30分まで）※余震の状況によりましては変更する場合があります","admission_fees":"入館料は無料です。（企画展示室を除く）","website_url":null,"phone_number":"096-278-7500","area":"熊本県県県"}
{"id":15,"name":"不知火美術館","location":"熊本県宇城市不知火町高良２３５２","business_hours":"午前10時から午後6時まで（土日祝は午前10時から午後5時まで）    ※入館は閉館30分前まで","admission_fees":"大人300円、大学生・高校生200円","website_url":null,"phone_number":"0964-32-6222","area":"熊本県県県県"}
{"id":16,"name":"島田美術館","location":"熊本県熊本市西区島崎４－５－２８","business_hours":"am10:00〜pm5:00(入場はpm4:30まで)","admission_fees":"一般　700円大学・高校生400円小・中学生200円保護者同伴の小学生は無料","website_url":null,"phone_number":"096-352-4597","area":"熊本県県県県"}
{"id":24,"name":"不知火美術館","location":"熊本県宇城市不知火町高良２３５２","business_hours":"午前10時から午後6時まで（土日祝は午前10時から午後5時まで）    ※入館は閉館30分前まで","admission_fees":"大人300円、大学生・高校生200円","website_url":null,"phone_number":"0964-32-6222","area":"熊本県県県"}
{"id":25,"name":"島田美術館","location":"熊本県熊本市西区島崎４－５－２８","business_hours":"am10:00〜pm5:00(入場はpm4:30まで)","admission_fees":"一般　700円大学・高校生400円小・中学生200円保護者同伴の小学生は無料","website_url":null,"phone_number":"096-352-4597","area":"熊本県県県"}
{"id":26,"name":"坂本善三美術館","location":"熊本県阿蘇郡小国町黒渕２８７７","business_hours":"9：00〜17：00（入館は30分前まで）","admission_fees":"一般500円、高・大学生400円、小・中学生200円","website_url":null,"phone_number":"0967-46-5732","area":"熊本県県県"}
{"id":27,"name":"星野富弘美術館","location":"熊本県葦北郡芦北町大字湯浦１４３９－２","business_hours":"9:00〜17:00","admission_fees":"・一般（高校生以上）　　　　 500円・16歳未満（中学生以下）　300円・6歳未満（就学児未満）     無料 ・障害者手帳をお持ちの方とその介護者1名：5割引き","website_url":null,"phone_number":"0966-86-1600","area":"熊本県県県"}
{"id":28,"name":"熊本県立美術館","location":"熊本県熊本市中央区二の丸２","business_hours":"9:30〜17:30　（入館は16:45まで）","admission_fees":"別棟展示室＋本館二階展示室共通券 一般：420円大学生：250円","website_url":null,"phone_number":"096-352-2111","area":"熊本県県"}
{"id":29,"name":"菊池夢美術館","location":"熊本県菊池市大字隈府１２７３－１","business_hours":"9：00〜18：00（12月〜2月は17：30まで）","admission_fees":"無料","website_url":null,"phone_number":"0968-25-0513","area":"熊本県県"}
{"id":30,"name":"熊本県立美術館分館","location":"熊本県熊本市中央区千葉城町２－１８","business_hours":"火〜金／午前9:30〜午後6:30土・日・祝／午前9:30〜午後5:15（入館は30分前まで）","admission_fees":"無料","website_url":null,"phone_number":"096-351-8411","area":"熊本県県"}
{"id":18,"name":"星野富弘美術館","location":"熊本県葦北郡芦北町大字湯浦１４３９－２","business_hours":"9:00〜17:00","admission_fees":"・一般（高校生以上）　　　　 500円・16歳未満（中学生以下）　300円・6歳未満（就学児未満）     無料 ・障害者手帳をお持ちの方とその介護者1名：5割引き","website_url":null,"phone_number":"0966-86-1600","area":"熊本県県県県"}
{"id":2,"name":"菊池夢美術館","location":"熊本県菊池市大字隈府１２７３－１","business_hours":"9：00〜18：00（12月〜2月は17：30まで）","admission_fees":"無料","website_url":null,"phone_number":"0968-25-0513","area":"熊本県県県県県"}
{"id":3,"name":"熊本県立美術館分館","location":"熊本県熊本市中央区千葉城町２－１８","business_hours":"火〜金／午前9:30〜午後6:30土・日・祝／午前9:30〜午後5:15（入館は30分前まで）","admission_fees":"無料","website_url":null,"phone_number":"096-351-8411","area":"熊本県県県県県"}
{"id":4,"name":"つなぎ美術館","location":"熊本県葦北郡津奈木町岩城４９４","business_hours":"午前10時〜午後17時（入館は16時30分まで）","admission_fees":"無料","website_url":null,"phone_number":"0966-61-2222","area":"熊本県県県県県"}
{"id":5,"name":"熊本市現代美術館","location":"熊本県熊本市中央区上通町２－３","business_hours":"午前10時から午後8時 （展覧会入場は午後7時30分まで）※余震の状況によりましては変更する場合があります","admission_fees":"入館料は無料です。（企画展示室を除く）","website_url":null,"phone_number":"096-278-7500","area":"熊本県県県県県"}
{"id":6,"name":"不知火美術館","location":"熊本県宇城市不知火町高良２３５２","business_hours":"午前10時から午後6時まで（土日祝は午前10時から午後5時まで）    ※入館は閉館30分前まで","admission_fees":"大人300円、大学生・高校生200円","website_url":null,"phone_number":"0964-32-6222","area":"熊本県県県県県"}
{"id":7,"name":"島田美術館","location":"熊本県熊本市西区島崎４－５－２８","business_hours":"am10:00〜pm5:00(入場はpm4:30まで)","admission_fees":"一般　700円大学・高校生400円小・中学生200円保護者同伴の小学生は無料","website_url":null,"phone_number":"096-352-4597","area":"熊本県県県県県"}
{"id":8,"name":"坂本善三美術館","location":"熊本県阿蘇郡小国町黒渕２８７７","business_hours":"9：00〜17：00（入館は30分前まで）","admission_fees":"一般500円、高・大学生400円、小・中学生200円","website_url":null,"phone_number":"0967-46-5732","area":"熊本県県県県県"}
{"id":9,"name":"星野富弘美術館","location":"熊本県葦北郡芦北町大字湯浦１４３９－２","business_hours":"9:00〜17:00","admission_fees":"・一般（高校生以上）　　　　 500円・16歳未満（中学生以下）　300円・6歳未満（就学児未満）     無料 ・障害者手帳をお持ちの方とその介護者1名：5割引き","website_url":null,"phone_number":"0966-86-1600","area":"熊本県県県県県"}
{"id":31,"name":"つなぎ美術館","location":"熊本県葦北郡津奈木町岩城４９４","business_hours":"午前10時〜午後17時（入館は16時30分まで）","admission_fees":"無料","website_url":null,"phone_number":"0966-61-2222","area":"熊本県県"}
{"id":32,"name":"熊本市現代美術館","location":"熊本県熊本市中央区上通町２－３","business_hours":"午前10時から午後8時 （展覧会入場は午後7時30分まで）※余震の状況によりましては変更する場合があります","admission_fees":"入館料は無料です。（企画展示室を除く）","website_url":null,"phone_number":"096-278-7500","area":"熊本県県"}
{"id":33,"name":"不知火美術館","location":"熊本県宇城市不知火町高良２３５２","business_hours":"午前10時から午後6時まで（土日祝は午前10時から午後5時まで）    ※入館は閉館30分前まで","admission_fees":"大人300円、大学生・高校生200円","website_url":null,"phone_number":"0964-32-6222","area":"熊本県県"}
{"id":34,"name":"島田美術館","location":"熊本県熊本市西区島崎４－５－２８","business_hours":"am10:00〜pm5:00(入場はpm4:30まで)","admission_fees":"一般　700円大学・高校生400円小・中学生200円保護者同伴の小学生は無料","website_url":null,"phone_number":"096-352-4597","area":"熊本県県"}
{"id":35,"name":"坂本善三美術館","location":"熊本県阿蘇郡小国町黒渕２８７７","business_hours":"9：00〜17：00（入館は30分前まで）","admission_fees":"一般500円、高・大学生400円、小・中学生200円","website_url":null,"phone_number":"0967-46-5732","area":"熊本県県"}
{"id":36,"name":"星野富弘美術館","location":"熊本県葦北郡芦北町大字湯浦１４３９－２","business_hours":"9:00〜17:00","admission_fees":"・一般（高校生以上）　　　　 500円・16歳未満（中学生以下）　300円・6歳未満（就学児未満）     無料 ・障害者手帳をお持ちの方とその介護者1名：5割引き","website_url":null,"phone_number":"0966-86-1600","area":"熊本県県"}
