{"id":1,"name":"角川武蔵野ミュージアム","location":"埼玉県所沢市東所沢和田3-31-3","business_hours":"日〜木曜10:00〜18:00（最終入館 17:30）金・土曜10:00〜21:00（最終入館 20:30）","admission_fees":"【スタンダードチケット】大人1,200円、中高生1,000円、小学生800円【１ＤＡＹパスポート】月〜木曜大人3,000円、中高生2,100円、小学生1,600円金・土・日曜大人4,000円、中高生3,100円、小学生2,600円 その他、企画展によって入場料異なる","website_url":null,"phone_number":"0570-017-396","area":"埼玉県"}
{"id":2,"name":"埼玉県立近代美術館","location":"埼玉県さいたま市浦和区常盤９丁目３０－１","business_hours":"10:00〜17：00","admission_fees":"無料","website_url":null,"phone_number":"048-824-0111","area":"埼玉県"}
{"id":3,"name":"川越市立美術館","location":"埼玉県川越市郭町２丁目３０－１","business_hours":"9：00〜17：00（入場は16：30まで）","admission_fees":"常設展一般200円、大学生・高校生100円、中学生以下は無料  特別展展覧会ごとに設定","website_url":null,"phone_number":"049-228-8080","area":"埼玉県"}
{"id":4,"name":"うらわ美術館","location":"埼玉県さいたま市浦和区仲町２丁目５－１","business_hours":"開館時間平日：10：00〜17：00土日：10：00〜20：00入場は閉館30分前まで","admission_fees":"展示物によって観覧料が変わります。","website_url":null,"phone_number":"048-827-3215","area":"埼玉県"}
{"id":5,"name":"大宮盆栽美術館","location":"埼玉県さいたま市北区土呂町２丁目２４－３","business_hours":"午前9時〜午後4時30分（3月〜10月） 午前9時〜午後4時（11月〜2月）","admission_fees":"一般  300円高大生・65歳以上 150円小中学生  100円障害者手帳所有者、付添人1名は半額","website_url":null,"phone_number":"048-780-2091","area":"埼玉県"}
{"id":6,"name":"アートギャラリー・アトリア","location":"埼玉県川口市並木元町１－７６","business_hours":"10時〜18時","admission_fees":"無料","website_url":null,"phone_number":"048-253-0222","area":"埼玉県"}
{"id":7,"name":"原爆の図丸木美術館","location":"埼玉県東松山市下唐子１４０１","business_hours":"3月〜11月 \\t夏時間：午前９時〜午後５時12月〜2月 \\t冬時間：午前９時半〜午後４時半","admission_fees":"大人900円、中高生600円、小学生400円、60歳以上800円","website_url":null,"phone_number":"0493-22-3266","area":"埼玉県"}
{"id":8,"name":"河鍋暁斎記念美術館","location":"埼玉県蕨市南町４－３６－４","business_hours":"10:00〜16:00　（16:00まで入館可）","admission_fees":"一般500円、高・大学生400円、小・中学生200円、65歳以上400円、幼児無料※特別展開催時は100円加算","website_url":null,"phone_number":"048-441-9780","area":"埼玉県"}
{"id":9,"name":"しのぎ刀剣美術館","location":"埼玉県比企郡ときがわ町五明267-5","business_hours":"午前９時〜午後６時","admission_fees":"無料","website_url":null,"phone_number":"0493-65-0282","area":"埼玉県"}
{"id":10,"name":"秩父美術館","location":"埼玉県秩父市永田町７－１","business_hours":"10：00〜16：00（最終入館時間：17：00まで）","admission_fees":"大人500円・学生400円","website_url":null,"phone_number":"0494-23-1177","area":"埼玉県"}
