{"id":1,"name":"万代島美術館","location":"新潟県新潟市中央区万代島５－１","business_hours":"午前10時〜午後6時","admission_fees":"一般：310円大学生・高校生：150円中学生以下：無料","website_url":null,"phone_number":"025-290-6655","area":"新潟県県県県県"}
{"id":2,"name":"新潟市美術館","location":"新潟県新潟市中央区西大畑町５１９１－９","business_hours":"9:30〜18:00","admission_fees":"一般200円／大高生150円／中小生100円","website_url":null,"phone_number":"025-223-1622","area":"新潟県県県県県"}
{"id":3,"name":"新潟市新津美術館","location":"新潟県新潟市秋葉区蒲ヶ沢１０９－１","business_hours":"10:00〜17:00","admission_fees":"展覧会によって異なります。","website_url":null,"phone_number":"0250-25-1300","area":"新潟県県県県県"}
{"id":4,"name":"新潟県立近代美術館","location":"新潟県長岡市千秋３丁目２７８－１４","business_hours":"9:00〜17:00　最終入館16:30","admission_fees":"・一　般　 　　　430円・高校・大学生 200円・中学生以下無料 ※特別展の入館料は、お問い合わせください。","website_url":null,"phone_number":"0258-28-4111","area":"新潟県県県県県"}
{"id":5,"name":"雪梁舎美術館","location":"新潟県新潟市西区山田４５１","business_hours":"午前9時30分〜午後5時","admission_fees":"一般500円、中学生以下無料","website_url":null,"phone_number":"025-377-1888","area":"新潟県県県県県"}
{"id":6,"name":"胎内市美術館","location":"新潟県胎内市下赤谷３８７－１５","business_hours":"情報なし","admission_fees":"情報なし","website_url":null,"phone_number":"0254-47-2288","area":"新潟県県県県県"}
{"id":7,"name":"駒形十吉記念美術館","location":"新潟県長岡市今朝白２丁目１－４","business_hours":"情報なし","admission_fees":"情報なし","website_url":null,"phone_number":"0258-35-6111","area":"新潟県県県県県"}
{"id":8,"name":"知足美術館","location":"新潟県新潟市中央区新光町１０－２","business_hours":"情報なし","admission_fees":"情報なし","website_url":null,"phone_number":"025-281-2001","area":"新潟県県県県県"}
{"id":9,"name":"トミオカホワイト美術館","location":"新潟県南魚沼市上薬師堂１４２","business_hours":"４月〜１１月     ９：００〜１７：００  １２月〜３月   １０：００〜１７：００  ※入館は１６：３０までとなります。","admission_fees":"一般 　　５００円  小中高生 　２５０円","website_url":null,"phone_number":"025-775-3646","area":"新潟県県県県県"}
{"id":10,"name":"良寛の里美術館","location":"新潟県長岡市島崎３９３８","business_hours":"9:00〜17:00","admission_fees":"大人（高校生以上）…500円小・中学生…300円未就学児は無料","website_url":null,"phone_number":"0258-74-3700","area":"新潟県県県県県"}
{"id":11,"name":"池田記念美術館","location":"新潟県南魚沼市浦佐５４９３－３","business_hours":"情報なし","admission_fees":"情報なし","website_url":null,"phone_number":"025-780-4080","area":"新潟県県県県県"}
{"id":12,"name":"谷村美術館","location":"新潟県糸魚川市京ケ峰２丁目１－１３","business_hours":"情報なし","admission_fees":"情報なし","website_url":null,"phone_number":"025-552-9277","area":"新潟県県県県県"}
{"id":13,"name":"潟東樋口記念美術館","location":"新潟県新潟市西蒲区三方９２","business_hours":"9:00〜16:00","admission_fees":"一般：500円小・中学生：300円 身体障害者手帳、療育手帳、精神障がい者保健福祉手帳のお持ちの方：本人は無料、介助者は手帳提示者1名につき1名無料","website_url":null,"phone_number":"0256-86-3444","area":"新潟県県県県県"}
{"id":14,"name":"長岡市栃尾美術館","location":"新潟県長岡市上の原町１－１３","business_hours":"午前９時〜午後５時（発券は４時３０分まで）","admission_fees":"・企画展　その都度定めます。・館所蔵品展大人　　　　　２００円高校・大学生　１５０円小・中学生　　１００円幼児　　　　　無料","website_url":null,"phone_number":"0258-53-6300","area":"新潟県県県県県"}
{"id":15,"name":"万代島美術館","location":"新潟県新潟市中央区万代島５－１","business_hours":"午前10時〜午後6時","admission_fees":"一般：310円大学生・高校生：150円中学生以下：無料","website_url":null,"phone_number":"025-290-6655","area":"新潟県県県県"}
{"id":16,"name":"新潟市美術館","location":"新潟県新潟市中央区西大畑町５１９１－９","business_hours":"9:30〜18:00","admission_fees":"一般200円／大高生150円／中小生100円","website_url":null,"phone_number":"025-223-1622","area":"新潟県県県県"}
{"id":17,"name":"新潟市新津美術館","location":"新潟県新潟市秋葉区蒲ヶ沢１０９－１","business_hours":"10:00〜17:00","admission_fees":"展覧会によって異なります。","website_url":null,"phone_number":"0250-25-1300","area":"新潟県県県県"}
{"id":18,"name":"新潟県立近代美術館","location":"新潟県長岡市千秋３丁目２７８－１４","business_hours":"9:00〜17:00　最終入館16:30","admission_fees":"・一　般　 　　　430円・高校・大学生 200円・中学生以下無料 ※特別展の入館料は、お問い合わせください。","website_url":null,"phone_number":"0258-28-4111","area":"新潟県県県県"}
{"id":19,"name":"雪梁舎美術館","location":"新潟県新潟市西区山田４５１","business_hours":"午前9時30分〜午後5時","admission_fees":"一般500円、中学生以下無料","website_url":null,"phone_number":"025-377-1888","area":"新潟県県県県"}
{"id":20,"name":"胎内市美術館","location":"新潟県胎内市下赤谷３８７－１５","business_hours":"情報なし","admission_fees":"情報なし","website_url":null,"phone_number":"0254-47-2288","area":"新潟県県県県"}
{"id":21,"name":"駒形十吉記念美術館","location":"新潟県長岡市今朝白２丁目１－４","business_hours":"情報なし","admission_fees":"情報なし","website_url":null,"phone_number":"0258-35-6111","area":"新潟県県県県"}
{"id":22,"name":"知足美術館","location":"新潟県新潟市中央区新光町１０－２","business_hours":"情報なし","admission_fees":"情報なし","website_url":null,"phone_number":"025-281-2001","area":"新潟県県県県"}
{"id":24,"name":"良寛の里美術館","location":"新潟県長岡市島崎３９３８","business_hours":"9:00〜17:00","admission_fees":"大人（高校生以上）…500円小・中学生…300円未就学児は無料","website_url":null,"phone_number":"0258-74-3700","area":"新潟県県県県"}
{"id":26,"name":"谷村美術館","location":"新潟県糸魚川市京ケ峰２丁目１－１３","business_hours":"情報なし","admission_fees":"情報なし","website_url":null,"phone_number":"025-552-9277","area":"新潟県県県県"}
{"id":27,"name":"潟東樋口記念美術館","location":"新潟県新潟市西蒲区三方９２","business_hours":"9:00〜16:00","admission_fees":"一般：500円小・中学生：300円 身体障害者手帳、療育手帳、精神障がい者保健福祉手帳のお持ちの方：本人は無料、介助者は手帳提示者1名につき1名無料","website_url":null,"phone_number":"0256-86-3444","area":"新潟県県県県"}
{"id":28,"name":"長岡市栃尾美術館","location":"新潟県長岡市上の原町１－１３","business_hours":"午前９時〜午後５時（発券は４時３０分まで）","admission_fees":"・企画展　その都度定めます。・館所蔵品展大人　　　　　２００円高校・大学生　１５０円小・中学生　　１００円幼児　　　　　無料","website_url":null,"phone_number":"0258-53-6300","area":"新潟県県県県"}
{"id":29,"name":"万代島美術館","location":"新潟県新潟市中央区万代島５－１","business_hours":"午前10時〜午後6時","admission_fees":"一般：310円大学生・高校生：150円中学生以下：無料","website_url":null,"phone_number":"025-290-6655","area":"新潟県県県"}
{"id":30,"name":"新潟市美術館","location":"新潟県新潟市中央区西大畑町５１９１－９","business_hours":"9:30〜18:00","admission_fees":"一般200円／大高生150円／中小生100円","website_url":null,"phone_number":"025-223-1622","area":"新潟県県県"}
{"id":34,"name":"胎内市美術館","location":"新潟県胎内市下赤谷３８７－１５","business_hours":"情報なし","admission_fees":"情報なし","website_url":null,"phone_number":"0254-47-2288","area":"新潟県県県"}
{"id":35,"name":"駒形十吉記念美術館","location":"新潟県長岡市今朝白２丁目１－４","business_hours":"情報なし","admission_fees":"情報なし","website_url":null,"phone_number":"0258-35-6111","area":"新潟県県県"}
{"id":36,"name":"知足美術館","location":"新潟県新潟市中央区新光町１０－２","business_hours":"情報なし","admission_fees":"情報なし","website_url":null,"phone_number":"025-281-2001","area":"新潟県県県"}
{"id":38,"name":"良寛の里美術館","location":"新潟県長岡市島崎３９３８","business_hours":"9:00〜17:00","admission_fees":"大人（高校生以上）…500円小・中学生…300円未就学児は無料","website_url":null,"phone_number":"0258-74-3700","area":"新潟県県県"}
{"id":37,"name":"トミオカホワイト美術館","location":"新潟県南魚沼市上薬師堂１４２","business_hours":"４月〜１１月     ９：００〜１７：００  １２月〜３月   １０：００〜１７：００  ※入館は１６：３０までとなります。","admission_fees":"一般 　　５００円  小中高生 　２５０円","website_url":null,"phone_number":"025-775-3646","area":"新潟県県県"}
{"id":39,"name":"池田記念美術館","location":"新潟県南魚沼市浦佐５４９３－３","business_hours":"情報なし","admission_fees":"情報なし","website_url":null,"phone_number":"025-780-4080","area":"新潟県県県"}
{"id":40,"name":"谷村美術館","location":"新潟県糸魚川市京ケ峰２丁目１－１３","business_hours":"情報なし","admission_fees":"情報なし","website_url":null,"phone_number":"025-552-9277","area":"新潟県県県"}
{"id":41,"name":"潟東樋口記念美術館","location":"新潟県新潟市西蒲区三方９２","business_hours":"9:00〜16:00","admission_fees":"一般：500円小・中学生：300円 身体障害者手帳、療育手帳、精神障がい者保健福祉手帳のお持ちの方：本人は無料、介助者は手帳提示者1名につき1名無料","website_url":null,"phone_number":"0256-86-3444","area":"新潟県県県"}
{"id":42,"name":"長岡市栃尾美術館","location":"新潟県長岡市上の原町１－１３","business_hours":"午前９時〜午後５時（発券は４時３０分まで）","admission_fees":"・企画展　その都度定めます。・館所蔵品展大人　　　　　２００円高校・大学生　１５０円小・中学生　　１００円幼児　　　　　無料","website_url":null,"phone_number":"0258-53-6300","area":"新潟県県県"}
{"id":43,"name":"万代島美術館","location":"新潟県新潟市中央区万代島５－１","business_hours":"午前10時〜午後6時","admission_fees":"一般：310円大学生・高校生：150円中学生以下：無料","website_url":null,"phone_number":"025-290-6655","area":"新潟県県"}
{"id":44,"name":"新潟市美術館","location":"新潟県新潟市中央区西大畑町５１９１－９","business_hours":"9:30〜18:00","admission_fees":"一般200円／大高生150円／中小生100円","website_url":null,"phone_number":"025-223-1622","area":"新潟県県"}
{"id":45,"name":"新潟市新津美術館","location":"新潟県新潟市秋葉区蒲ヶ沢１０９－１","business_hours":"10:00〜17:00","admission_fees":"展覧会によって異なります。","website_url":null,"phone_number":"0250-25-1300","area":"新潟県県"}
{"id":23,"name":"トミオカホワイト美術館","location":"新潟県南魚沼市上薬師堂１４２","business_hours":"４月〜１１月     ９：００〜１７：００  １２月〜３月   １０：００〜１７：００  ※入館は１６：３０までとなります。","admission_fees":"一般 　　５００円  小中高生 　２５０円","website_url":null,"phone_number":"025-775-3646","area":"新潟県県県県"}
{"id":25,"name":"池田記念美術館","location":"新潟県南魚沼市浦佐５４９３－３","business_hours":"情報なし","admission_fees":"情報なし","website_url":null,"phone_number":"025-780-4080","area":"新潟県県県県"}
{"id":46,"name":"新潟県立近代美術館","location":"新潟県長岡市千秋３丁目２７８－１４","business_hours":"9:00〜17:00　最終入館16:30","admission_fees":"・一　般　 　　　430円・高校・大学生 200円・中学生以下無料 ※特別展の入館料は、お問い合わせください。","website_url":null,"phone_number":"0258-28-4111","area":"新潟県県"}
{"id":47,"name":"雪梁舎美術館","location":"新潟県新潟市西区山田４５１","business_hours":"午前9時30分〜午後5時","admission_fees":"一般500円、中学生以下無料","website_url":null,"phone_number":"025-377-1888","area":"新潟県県"}
{"id":48,"name":"胎内市美術館","location":"新潟県胎内市下赤谷３８７－１５","business_hours":"情報なし","admission_fees":"情報なし","website_url":null,"phone_number":"0254-47-2288","area":"新潟県県"}
{"id":49,"name":"駒形十吉記念美術館","location":"新潟県長岡市今朝白２丁目１－４","business_hours":"情報なし","admission_fees":"情報なし","website_url":null,"phone_number":"0258-35-6111","area":"新潟県県"}
{"id":50,"name":"知足美術館","location":"新潟県新潟市中央区新光町１０－２","business_hours":"情報なし","admission_fees":"情報なし","website_url":null,"phone_number":"025-281-2001","area":"新潟県県"}
{"id":51,"name":"トミオカホワイト美術館","location":"新潟県南魚沼市上薬師堂１４２","business_hours":"４月〜１１月     ９：００〜１７：００  １２月〜３月   １０：００〜１７：００  ※入館は１６：３０までとなります。","admission_fees":"一般 　　５００円  小中高生 　２５０円","website_url":null,"phone_number":"025-775-3646","area":"新潟県県"}
{"id":52,"name":"良寛の里美術館","location":"新潟県長岡市島崎３９３８","business_hours":"9:00〜17:00","admission_fees":"大人（高校生以上）…500円小・中学生…300円未就学児は無料","website_url":null,"phone_number":"0258-74-3700","area":"新潟県県"}
{"id":53,"name":"池田記念美術館","location":"新潟県南魚沼市浦佐５４９３－３","business_hours":"情報なし","admission_fees":"情報なし","website_url":null,"phone_number":"025-780-4080","area":"新潟県県"}
{"id":54,"name":"谷村美術館","location":"新潟県糸魚川市京ケ峰２丁目１－１３","business_hours":"情報なし","admission_fees":"情報なし","website_url":null,"phone_number":"025-552-9277","area":"新潟県県"}
{"id":55,"name":"潟東樋口記念美術館","location":"新潟県新潟市西蒲区三方９２","business_hours":"9:00〜16:00","admission_fees":"一般：500円小・中学生：300円 身体障害者手帳、療育手帳、精神障がい者保健福祉手帳のお持ちの方：本人は無料、介助者は手帳提示者1名につき1名無料","website_url":null,"phone_number":"0256-86-3444","area":"新潟県県"}
{"id":56,"name":"長岡市栃尾美術館","location":"新潟県長岡市上の原町１－１３","business_hours":"午前９時〜午後５時（発券は４時３０分まで）","admission_fees":"・企画展　その都度定めます。・館所蔵品展大人　　　　　２００円高校・大学生　１５０円小・中学生　　１００円幼児　　　　　無料","website_url":null,"phone_number":"0258-53-6300","area":"新潟県県"}
{"id":31,"name":"新潟市新津美術館","location":"新潟県新潟市秋葉区蒲ヶ沢１０９－１","business_hours":"10:00〜17:00","admission_fees":"展覧会によって異なります。","website_url":null,"phone_number":"0250-25-1300","area":"新潟県県県"}
{"id":32,"name":"新潟県立近代美術館","location":"新潟県長岡市千秋３丁目２７８－１４","business_hours":"9:00〜17:00　最終入館16:30","admission_fees":"・一　般　 　　　430円・高校・大学生 200円・中学生以下無料 ※特別展の入館料は、お問い合わせください。","website_url":null,"phone_number":"0258-28-4111","area":"新潟県県県"}
{"id":33,"name":"雪梁舎美術館","location":"新潟県新潟市西区山田４５１","business_hours":"午前9時30分〜午後5時","admission_fees":"一般500円、中学生以下無料","website_url":null,"phone_number":"025-377-1888","area":"新潟県県県"}
{"id":64,"name":"知足美術館","location":"新潟県新潟市中央区新光町１０－２","business_hours":"情報なし","admission_fees":"情報なし","website_url":null,"phone_number":"025-281-2001","area":"新潟県"}
{"id":65,"name":"トミオカホワイト美術館","location":"新潟県南魚沼市上薬師堂１４２","business_hours":"４月〜１１月     ９：００〜１７：００  １２月〜３月   １０：００〜１７：００  ※入館は１６：３０までとなります。","admission_fees":"一般 　　５００円  小中高生 　２５０円","website_url":null,"phone_number":"025-775-3646","area":"新潟県"}
{"id":66,"name":"良寛の里美術館","location":"新潟県長岡市島崎３９３８","business_hours":"9:00〜17:00","admission_fees":"大人（高校生以上）…500円小・中学生…300円未就学児は無料","website_url":null,"phone_number":"0258-74-3700","area":"新潟県"}
{"id":67,"name":"池田記念美術館","location":"新潟県南魚沼市浦佐５４９３－３","business_hours":"情報なし","admission_fees":"情報なし","website_url":null,"phone_number":"025-780-4080","area":"新潟県"}
{"id":68,"name":"谷村美術館","location":"新潟県糸魚川市京ケ峰２丁目１－１３","business_hours":"情報なし","admission_fees":"情報なし","website_url":null,"phone_number":"025-552-9277","area":"新潟県"}
{"id":69,"name":"潟東樋口記念美術館","location":"新潟県新潟市西蒲区三方９２","business_hours":"9:00〜16:00","admission_fees":"一般：500円小・中学生：300円 身体障害者手帳、療育手帳、精神障がい者保健福祉手帳のお持ちの方：本人は無料、介助者は手帳提示者1名につき1名無料","website_url":null,"phone_number":"0256-86-3444","area":"新潟県"}
{"id":70,"name":"長岡市栃尾美術館","location":"新潟県長岡市上の原町１－１３","business_hours":"午前９時〜午後５時（発券は４時３０分まで）","admission_fees":"・企画展　その都度定めます。・館所蔵品展大人　　　　　２００円高校・大学生　１５０円小・中学生　　１００円幼児　　　　　無料","website_url":null,"phone_number":"0258-53-6300","area":"新潟県"}
{"id":57,"name":"万代島美術館","location":"新潟県新潟市中央区万代島５－１","business_hours":"午前10時〜午後6時","admission_fees":"一般：310円大学生・高校生：150円中学生以下：無料","website_url":null,"phone_number":"025-290-6655","area":"新潟県"}
{"id":58,"name":"新潟市美術館","location":"新潟県新潟市中央区西大畑町５１９１－９","business_hours":"9:30〜18:00","admission_fees":"一般200円／大高生150円／中小生100円","website_url":null,"phone_number":"025-223-1622","area":"新潟県"}
{"id":59,"name":"新潟市新津美術館","location":"新潟県新潟市秋葉区蒲ヶ沢１０９－１","business_hours":"10:00〜17:00","admission_fees":"展覧会によって異なります。","website_url":null,"phone_number":"0250-25-1300","area":"新潟県"}
{"id":60,"name":"新潟県立近代美術館","location":"新潟県長岡市千秋３丁目２７８－１４","business_hours":"9:00〜17:00　最終入館16:30","admission_fees":"・一　般　 　　　430円・高校・大学生 200円・中学生以下無料 ※特別展の入館料は、お問い合わせください。","website_url":null,"phone_number":"0258-28-4111","area":"新潟県"}
{"id":61,"name":"雪梁舎美術館","location":"新潟県新潟市西区山田４５１","business_hours":"午前9時30分〜午後5時","admission_fees":"一般500円、中学生以下無料","website_url":null,"phone_number":"025-377-1888","area":"新潟県"}
{"id":62,"name":"胎内市美術館","location":"新潟県胎内市下赤谷３８７－１５","business_hours":"情報なし","admission_fees":"情報なし","website_url":null,"phone_number":"0254-47-2288","area":"新潟県"}
{"id":63,"name":"駒形十吉記念美術館","location":"新潟県長岡市今朝白２丁目１－４","business_hours":"情報なし","admission_fees":"情報なし","website_url":null,"phone_number":"0258-35-6111","area":"新潟県"}
