{"id":1,"name":"和歌山県立近代美術館","location":"和歌山県和歌山市吹上１－４－１４","business_hours":"９：３０〜１７：００(入場は１６：３０まで）","admission_fees":"1.常設展：一般３４０円、大学生２３０円2.企画展：その都度、変わります。3.高校生以下、６５歳以上、障がい者の方、県内に在学中の外国人留学生(外国人就学生を含む)は常設展、企画展とも無料です。","website_url":null,"phone_number":"073-436-8690","area":"和歌山県県県県県"}
{"id":2,"name":"田辺市立美術館","location":"和歌山県田辺市たきない町２４－４３","business_hours":"午前10：00〜午後5：00（ただし、入館は午後4：30まで）","admission_fees":"館蔵品展（小企画展）250円特別展は、その都度定める。18歳未満・学生は、無料。（学生証などの提示が必要）","website_url":null,"phone_number":"0739-24-3770","area":"和歌山県県県県県"}
{"id":3,"name":"川久ミュージアム","location":"和歌山県西牟婁郡白浜町３７４５","business_hours":"情報なし","admission_fees":"情報なし","website_url":null,"phone_number":"0739-42-2662","area":"和歌山県県県県県"}
{"id":4,"name":"熊野古道なかへち美術館","location":"和歌山県田辺市中辺路町近露８９２","business_hours":"午前10時〜午後5時（入館は4時30分まで）","admission_fees":"所蔵品展　大人250円、18歳未満・学生無料　特別展は入場料に変更があります。","website_url":null,"phone_number":"0739-65-0390","area":"和歌山県県県県県"}
{"id":5,"name":"龍神村曼荼羅美術館","location":"和歌山県田辺市龍神村龍神２０３","business_hours":"9時30分〜16時30分","admission_fees":"入場料はありません。","website_url":null,"phone_number":"0739-79-0512","area":"和歌山県県県県県"}
{"id":6,"name":"白浜美術館","location":"和歌山県西牟婁郡白浜町坂田１－１","business_hours":"8:30〜17:00","admission_fees":"大人 500円","website_url":null,"phone_number":"0739-42-2589","area":"和歌山県県県県県"}
{"id":7,"name":"和歌山県立近代美術館","location":"和歌山県和歌山市吹上１－４－１４","business_hours":"９：３０〜１７：００(入場は１６：３０まで）","admission_fees":"1.常設展：一般３４０円、大学生２３０円2.企画展：その都度、変わります。3.高校生以下、６５歳以上、障がい者の方、県内に在学中の外国人留学生(外国人就学生を含む)は常設展、企画展とも無料です。","website_url":null,"phone_number":"073-436-8690","area":"和歌山県県県県"}
{"id":8,"name":"田辺市立美術館","location":"和歌山県田辺市たきない町２４－４３","business_hours":"午前10：00〜午後5：00（ただし、入館は午後4：30まで）","admission_fees":"館蔵品展（小企画展）250円特別展は、その都度定める。18歳未満・学生は、無料。（学生証などの提示が必要）","website_url":null,"phone_number":"0739-24-3770","area":"和歌山県県県県"}
{"id":9,"name":"川久ミュージアム","location":"和歌山県西牟婁郡白浜町３７４５","business_hours":"情報なし","admission_fees":"情報なし","website_url":null,"phone_number":"0739-42-2662","area":"和歌山県県県県"}
{"id":10,"name":"熊野古道なかへち美術館","location":"和歌山県田辺市中辺路町近露８９２","business_hours":"午前10時〜午後5時（入館は4時30分まで）","admission_fees":"所蔵品展　大人250円、18歳未満・学生無料　特別展は入場料に変更があります。","website_url":null,"phone_number":"0739-65-0390","area":"和歌山県県県県"}
{"id":11,"name":"龍神村曼荼羅美術館","location":"和歌山県田辺市龍神村龍神２０３","business_hours":"9時30分〜16時30分","admission_fees":"入場料はありません。","website_url":null,"phone_number":"0739-79-0512","area":"和歌山県県県県"}
{"id":12,"name":"白浜美術館","location":"和歌山県西牟婁郡白浜町坂田１－１","business_hours":"8:30〜17:00","admission_fees":"大人 500円","website_url":null,"phone_number":"0739-42-2589","area":"和歌山県県県県"}
{"id":14,"name":"田辺市立美術館","location":"和歌山県田辺市たきない町２４－４３","business_hours":"午前10：00〜午後5：00（ただし、入館は午後4：30まで）","admission_fees":"館蔵品展（小企画展）250円特別展は、その都度定める。18歳未満・学生は、無料。（学生証などの提示が必要）","website_url":null,"phone_number":"0739-24-3770","area":"和歌山県県県"}
{"id":13,"name":"和歌山県立近代美術館","location":"和歌山県和歌山市吹上１－４－１４","business_hours":"９：３０〜１７：００(入場は１６：３０まで）","admission_fees":"1.常設展：一般３４０円、大学生２３０円2.企画展：その都度、変わります。3.高校生以下、６５歳以上、障がい者の方、県内に在学中の外国人留学生(外国人就学生を含む)は常設展、企画展とも無料です。","website_url":null,"phone_number":"073-436-8690","area":"和歌山県県県"}
{"id":15,"name":"川久ミュージアム","location":"和歌山県西牟婁郡白浜町３７４５","business_hours":"情報なし","admission_fees":"情報なし","website_url":null,"phone_number":"0739-42-2662","area":"和歌山県県県"}
{"id":16,"name":"熊野古道なかへち美術館","location":"和歌山県田辺市中辺路町近露８９２","business_hours":"午前10時〜午後5時（入館は4時30分まで）","admission_fees":"所蔵品展　大人250円、18歳未満・学生無料　特別展は入場料に変更があります。","website_url":null,"phone_number":"0739-65-0390","area":"和歌山県県県"}
{"id":17,"name":"龍神村曼荼羅美術館","location":"和歌山県田辺市龍神村龍神２０３","business_hours":"9時30分〜16時30分","admission_fees":"入場料はありません。","website_url":null,"phone_number":"0739-79-0512","area":"和歌山県県県"}
{"id":18,"name":"白浜美術館","location":"和歌山県西牟婁郡白浜町坂田１－１","business_hours":"8:30〜17:00","admission_fees":"大人 500円","website_url":null,"phone_number":"0739-42-2589","area":"和歌山県県県"}
{"id":19,"name":"和歌山県立近代美術館","location":"和歌山県和歌山市吹上１－４－１４","business_hours":"９：３０〜１７：００(入場は１６：３０まで）","admission_fees":"1.常設展：一般３４０円、大学生２３０円2.企画展：その都度、変わります。3.高校生以下、６５歳以上、障がい者の方、県内に在学中の外国人留学生(外国人就学生を含む)は常設展、企画展とも無料です。","website_url":null,"phone_number":"073-436-8690","area":"和歌山県県"}
{"id":21,"name":"川久ミュージアム","location":"和歌山県西牟婁郡白浜町３７４５","business_hours":"情報なし","admission_fees":"情報なし","website_url":null,"phone_number":"0739-42-2662","area":"和歌山県県"}
{"id":20,"name":"田辺市立美術館","location":"和歌山県田辺市たきない町２４－４３","business_hours":"午前10：00〜午後5：00（ただし、入館は午後4：30まで）","admission_fees":"館蔵品展（小企画展）250円特別展は、その都度定める。18歳未満・学生は、無料。（学生証などの提示が必要）","website_url":null,"phone_number":"0739-24-3770","area":"和歌山県県"}
{"id":22,"name":"熊野古道なかへち美術館","location":"和歌山県田辺市中辺路町近露８９２","business_hours":"午前10時〜午後5時（入館は4時30分まで）","admission_fees":"所蔵品展　大人250円、18歳未満・学生無料　特別展は入場料に変更があります。","website_url":null,"phone_number":"0739-65-0390","area":"和歌山県県"}
{"id":24,"name":"白浜美術館","location":"和歌山県西牟婁郡白浜町坂田１－１","business_hours":"8:30〜17:00","admission_fees":"大人 500円","website_url":null,"phone_number":"0739-42-2589","area":"和歌山県県"}
{"id":23,"name":"龍神村曼荼羅美術館","location":"和歌山県田辺市龍神村龍神２０３","business_hours":"9時30分〜16時30分","admission_fees":"入場料はありません。","website_url":null,"phone_number":"0739-79-0512","area":"和歌山県県"}
{"id":25,"name":"和歌山県立近代美術館","location":"和歌山県和歌山市吹上１－４－１４","business_hours":"９：３０〜１７：００(入場は１６：３０まで）","admission_fees":"1.常設展：一般３４０円、大学生２３０円2.企画展：その都度、変わります。3.高校生以下、６５歳以上、障がい者の方、県内に在学中の外国人留学生(外国人就学生を含む)は常設展、企画展とも無料です。","website_url":null,"phone_number":"073-436-8690","area":"和歌山県"}
{"id":26,"name":"田辺市立美術館","location":"和歌山県田辺市たきない町２４－４３","business_hours":"午前10：00〜午後5：00（ただし、入館は午後4：30まで）","admission_fees":"館蔵品展（小企画展）250円特別展は、その都度定める。18歳未満・学生は、無料。（学生証などの提示が必要）","website_url":null,"phone_number":"0739-24-3770","area":"和歌山県"}
{"id":27,"name":"川久ミュージアム","location":"和歌山県西牟婁郡白浜町３７４５","business_hours":"情報なし","admission_fees":"情報なし","website_url":null,"phone_number":"0739-42-2662","area":"和歌山県"}
{"id":28,"name":"熊野古道なかへち美術館","location":"和歌山県田辺市中辺路町近露８９２","business_hours":"午前10時〜午後5時（入館は4時30分まで）","admission_fees":"所蔵品展　大人250円、18歳未満・学生無料　特別展は入場料に変更があります。","website_url":null,"phone_number":"0739-65-0390","area":"和歌山県"}
{"id":29,"name":"龍神村曼荼羅美術館","location":"和歌山県田辺市龍神村龍神２０３","business_hours":"9時30分〜16時30分","admission_fees":"入場料はありません。","website_url":null,"phone_number":"0739-79-0512","area":"和歌山県"}
{"id":30,"name":"白浜美術館","location":"和歌山県西牟婁郡白浜町坂田１－１","business_hours":"8:30〜17:00","admission_fees":"大人 500円","website_url":null,"phone_number":"0739-42-2589","area":"和歌山県"}
