{"id":40,"name":"山梨県立美術館","location":"山梨県甲府市貢川１丁目４－２７","business_hours":"9：00〜17：00","admission_fees":"コレクション展　一般：510円　大学生：210円　高校生以下・65歳以上・障害者手帳等お持ちの方と介護者1名：無料＊県民の日は無料","website_url":null,"phone_number":"055-228-3322","area":"山梨県県"}
{"id":41,"name":"河口湖美術館","location":"山梨県南都留郡富士河口湖町河口３１７０","business_hours":"9:30〜17:00　（入館は16:30まで）","admission_fees":"大人・大学生：800円中・高校生：500円小学生以下：無料","website_url":null,"phone_number":"0555-73-2829","area":"山梨県県"}
{"id":42,"name":"河口湖音楽と森の美術館","location":"山梨県南都留郡富士河口湖町河口3077-20","business_hours":"情報なし","admission_fees":"情報なし","website_url":null,"phone_number":"0555-20-4111","area":"山梨県県"}
{"id":43,"name":"富士川・切り絵の森美術館","location":"山梨県南巨摩郡身延町下山１５９７","business_hours":"【  4月〜9月】 9：30〜17：30【10月〜3月】10：00〜17：00※入館は閉館30分前まで","admission_fees":"一般　500円小・中学生　200円","website_url":null,"phone_number":"0556-62-4500","area":"山梨県県"}
{"id":44,"name":"昇仙峡影絵の森美術館","location":"山梨県甲府市高成町１０３５－２","business_hours":"情報なし","admission_fees":"情報なし","website_url":null,"phone_number":"055-287-2511","area":"山梨県県"}
{"id":45,"name":"韮崎大村美術館","location":"山梨県韮崎市神山町鍋山１８３０－１","business_hours":"4月〜10月10時00分〜18:0011月〜3月10時00分〜17時00分","admission_fees":"一般 500円/小・中・高校生 200円","website_url":null,"phone_number":"0551-23-7775","area":"山梨県県"}
{"id":46,"name":"南アルプス市立美術館","location":"山梨県南アルプス市小笠原1281","business_hours":"情報なし","admission_fees":"情報なし","website_url":null,"phone_number":"055-282-6600","area":"山梨県県"}
{"id":47,"name":"近藤浩一路記念南部町立美術館","location":"山梨県南巨摩郡南部町大和３６０","business_hours":"９：３０〜１７：００（入館は１６：３０まで）","admission_fees":"大人(常設展示)1人300円小中学生(常設展示)1人200円","website_url":null,"phone_number":"0556-62-9292","area":"山梨県県"}
{"id":51,"name":"須玉美術館","location":"山梨県北杜市須玉町若神子４４９５－１８","business_hours":"情報なし","admission_fees":"情報なし","website_url":null,"phone_number":"0551-42-5007","area":"山梨県県"}
{"id":4,"name":"富士川・切り絵の森美術館","location":"山梨県南巨摩郡身延町下山１５９７","business_hours":"【  4月〜9月】 9：30〜17：30【10月〜3月】10：00〜17：00※入館は閉館30分前まで","admission_fees":"一般　500円小・中学生　200円","website_url":null,"phone_number":"0556-62-4500","area":"山梨県県県県県"}
{"id":7,"name":"南アルプス市立美術館","location":"山梨県南アルプス市小笠原1281","business_hours":"情報なし","admission_fees":"情報なし","website_url":null,"phone_number":"055-282-6600","area":"山梨県県県県県"}
{"id":6,"name":"韮崎大村美術館","location":"山梨県韮崎市神山町鍋山１８３０－１","business_hours":"4月〜10月10時00分〜18:0011月〜3月10時00分〜17時00分","admission_fees":"一般 500円/小・中・高校生 200円","website_url":null,"phone_number":"0551-23-7775","area":"山梨県県県県県"}
{"id":8,"name":"近藤浩一路記念南部町立美術館","location":"山梨県南巨摩郡南部町大和３６０","business_hours":"９：３０〜１７：００（入館は１６：３０まで）","admission_fees":"大人(常設展示)1人300円小中学生(常設展示)1人200円","website_url":null,"phone_number":"0556-62-9292","area":"山梨県県県県県"}
{"id":9,"name":"清春白樺美術館","location":"山梨県北杜市長坂町中丸２０７２","business_hours":"10:00〜17：00（入館は16：30まで）","admission_fees":"一般　　　：900円大高生　 ：800円小中学生：600円","website_url":null,"phone_number":"0551-32-4865","area":"山梨県県県県県"}
{"id":48,"name":"清春白樺美術館","location":"山梨県北杜市長坂町中丸２０７２","business_hours":"10:00〜17：00（入館は16：30まで）","admission_fees":"一般　　　：900円大高生　 ：800円小中学生：600円","website_url":null,"phone_number":"0551-32-4865","area":"山梨県県"}
{"id":49,"name":"笛吹市青楓美術館","location":"山梨県笛吹市一宮町北野呂３－３","business_hours":"午前9時30分〜午後5時(入館は午後4時30分まで)","admission_fees":"・一般　300円・高校・大学生　200円・小・中学生　100円","website_url":null,"phone_number":"0553-47-2122","area":"山梨県県"}
{"id":50,"name":"都留市増田誠美術館","location":"山梨県都留市中央３丁目９－３","business_hours":"午前９時から午後５時まで(入館は午後４時３０分まで)","admission_fees":"・特別展一般　　　600円　　　　　　　　高校生・大学生　400円小学生・中学生　200円・企画展・常設展一般　　　300円　　　　　　　　高校生・大学生　200円小学生・中学生　100円","website_url":null,"phone_number":"0554-45-4111","area":"山梨県県"}
{"id":52,"name":"藪内正幸美術館","location":"山梨県北杜市白州町鳥原２９１３－７１","business_hours":"10:00〜17:00（入館は16:00まで）","admission_fees":"大人 (高校生以上)　：500円    小人 (小・中学生)　：200円     就学前児童　　　　：無料     ショップのみの利用：無料","website_url":null,"phone_number":"0551-35-0088","area":"山梨県県"}
{"id":1,"name":"山梨県立美術館","location":"山梨県甲府市貢川１丁目４－２７","business_hours":"9：00〜17：00","admission_fees":"コレクション展　一般：510円　大学生：210円　高校生以下・65歳以上・障害者手帳等お持ちの方と介護者1名：無料＊県民の日は無料","website_url":null,"phone_number":"055-228-3322","area":"山梨県県県県県"}
{"id":5,"name":"昇仙峡影絵の森美術館","location":"山梨県甲府市高成町１０３５－２","business_hours":"情報なし","admission_fees":"情報なし","website_url":null,"phone_number":"055-287-2511","area":"山梨県県県県県"}
{"id":31,"name":"昇仙峡影絵の森美術館","location":"山梨県甲府市高成町１０３５－２","business_hours":"情報なし","admission_fees":"情報なし","website_url":null,"phone_number":"055-287-2511","area":"山梨県県県"}
{"id":18,"name":"昇仙峡影絵の森美術館","location":"山梨県甲府市高成町１０３５－２","business_hours":"情報なし","admission_fees":"情報なし","website_url":null,"phone_number":"055-287-2511","area":"山梨県県県県"}
{"id":19,"name":"韮崎大村美術館","location":"山梨県韮崎市神山町鍋山１８３０－１","business_hours":"4月〜10月10時00分〜18:0011月〜3月10時00分〜17時00分","admission_fees":"一般 500円/小・中・高校生 200円","website_url":null,"phone_number":"0551-23-7775","area":"山梨県県県県"}
{"id":20,"name":"南アルプス市立美術館","location":"山梨県南アルプス市小笠原1281","business_hours":"情報なし","admission_fees":"情報なし","website_url":null,"phone_number":"055-282-6600","area":"山梨県県県県"}
{"id":21,"name":"近藤浩一路記念南部町立美術館","location":"山梨県南巨摩郡南部町大和３６０","business_hours":"９：３０〜１７：００（入館は１６：３０まで）","admission_fees":"大人(常設展示)1人300円小中学生(常設展示)1人200円","website_url":null,"phone_number":"0556-62-9292","area":"山梨県県県県"}
{"id":22,"name":"清春白樺美術館","location":"山梨県北杜市長坂町中丸２０７２","business_hours":"10:00〜17：00（入館は16：30まで）","admission_fees":"一般　　　：900円大高生　 ：800円小中学生：600円","website_url":null,"phone_number":"0551-32-4865","area":"山梨県県県県"}
{"id":23,"name":"笛吹市青楓美術館","location":"山梨県笛吹市一宮町北野呂３－３","business_hours":"午前9時30分〜午後5時(入館は午後4時30分まで)","admission_fees":"・一般　300円・高校・大学生　200円・小・中学生　100円","website_url":null,"phone_number":"0553-47-2122","area":"山梨県県県県"}
{"id":24,"name":"都留市増田誠美術館","location":"山梨県都留市中央３丁目９－３","business_hours":"午前９時から午後５時まで(入館は午後４時３０分まで)","admission_fees":"・特別展一般　　　600円　　　　　　　　高校生・大学生　400円小学生・中学生　200円・企画展・常設展一般　　　300円　　　　　　　　高校生・大学生　200円小学生・中学生　100円","website_url":null,"phone_number":"0554-45-4111","area":"山梨県県県県"}
{"id":25,"name":"須玉美術館","location":"山梨県北杜市須玉町若神子４４９５－１８","business_hours":"情報なし","admission_fees":"情報なし","website_url":null,"phone_number":"0551-42-5007","area":"山梨県県県県"}
{"id":26,"name":"藪内正幸美術館","location":"山梨県北杜市白州町鳥原２９１３－７１","business_hours":"10:00〜17:00（入館は16:00まで）","admission_fees":"大人 (高校生以上)　：500円    小人 (小・中学生)　：200円     就学前児童　　　　：無料     ショップのみの利用：無料","website_url":null,"phone_number":"0551-35-0088","area":"山梨県県県県"}
{"id":2,"name":"河口湖美術館","location":"山梨県南都留郡富士河口湖町河口３１７０","business_hours":"9:30〜17:00　（入館は16:30まで）","admission_fees":"大人・大学生：800円中・高校生：500円小学生以下：無料","website_url":null,"phone_number":"0555-73-2829","area":"山梨県県県県県"}
{"id":3,"name":"河口湖音楽と森の美術館","location":"山梨県南都留郡富士河口湖町河口3077-20","business_hours":"情報なし","admission_fees":"情報なし","website_url":null,"phone_number":"0555-20-4111","area":"山梨県県県県県"}
{"id":13,"name":"藪内正幸美術館","location":"山梨県北杜市白州町鳥原２９１３－７１","business_hours":"10:00〜17:00（入館は16:00まで）","admission_fees":"大人 (高校生以上)　：500円    小人 (小・中学生)　：200円     就学前児童　　　　：無料     ショップのみの利用：無料","website_url":null,"phone_number":"0551-35-0088","area":"山梨県県県県県"}
{"id":14,"name":"山梨県立美術館","location":"山梨県甲府市貢川１丁目４－２７","business_hours":"9：00〜17：00","admission_fees":"コレクション展　一般：510円　大学生：210円　高校生以下・65歳以上・障害者手帳等お持ちの方と介護者1名：無料＊県民の日は無料","website_url":null,"phone_number":"055-228-3322","area":"山梨県県県県"}
{"id":15,"name":"河口湖美術館","location":"山梨県南都留郡富士河口湖町河口３１７０","business_hours":"9:30〜17:00　（入館は16:30まで）","admission_fees":"大人・大学生：800円中・高校生：500円小学生以下：無料","website_url":null,"phone_number":"0555-73-2829","area":"山梨県県県県"}
{"id":16,"name":"河口湖音楽と森の美術館","location":"山梨県南都留郡富士河口湖町河口3077-20","business_hours":"情報なし","admission_fees":"情報なし","website_url":null,"phone_number":"0555-20-4111","area":"山梨県県県県"}
{"id":17,"name":"富士川・切り絵の森美術館","location":"山梨県南巨摩郡身延町下山１５９７","business_hours":"【  4月〜9月】 9：30〜17：30【10月〜3月】10：00〜17：00※入館は閉館30分前まで","admission_fees":"一般　500円小・中学生　200円","website_url":null,"phone_number":"0556-62-4500","area":"山梨県県県県"}
{"id":28,"name":"河口湖美術館","location":"山梨県南都留郡富士河口湖町河口３１７０","business_hours":"9:30〜17:00　（入館は16:30まで）","admission_fees":"大人・大学生：800円中・高校生：500円小学生以下：無料","website_url":null,"phone_number":"0555-73-2829","area":"山梨県県県"}
{"id":29,"name":"河口湖音楽と森の美術館","location":"山梨県南都留郡富士河口湖町河口3077-20","business_hours":"情報なし","admission_fees":"情報なし","website_url":null,"phone_number":"0555-20-4111","area":"山梨県県県"}
{"id":53,"name":"山梨県立美術館","location":"山梨県甲府市貢川１丁目４－２７","business_hours":"9：00〜17：00","admission_fees":"コレクション展　一般：510円　大学生：210円　高校生以下・65歳以上・障害者手帳等お持ちの方と介護者1名：無料＊県民の日は無料","website_url":null,"phone_number":"055-228-3322","area":"山梨県"}
{"id":54,"name":"河口湖美術館","location":"山梨県南都留郡富士河口湖町河口３１７０","business_hours":"9:30〜17:00　（入館は16:30まで）","admission_fees":"大人・大学生：800円中・高校生：500円小学生以下：無料","website_url":null,"phone_number":"0555-73-2829","area":"山梨県"}
{"id":55,"name":"河口湖音楽と森の美術館","location":"山梨県南都留郡富士河口湖町河口3077-20","business_hours":"情報なし","admission_fees":"情報なし","website_url":null,"phone_number":"0555-20-4111","area":"山梨県"}
{"id":56,"name":"富士川・切り絵の森美術館","location":"山梨県南巨摩郡身延町下山１５９７","business_hours":"【  4月〜9月】 9：30〜17：30【10月〜3月】10：00〜17：00※入館は閉館30分前まで","admission_fees":"一般　500円小・中学生　200円","website_url":null,"phone_number":"0556-62-4500","area":"山梨県"}
{"id":57,"name":"昇仙峡影絵の森美術館","location":"山梨県甲府市高成町１０３５－２","business_hours":"情報なし","admission_fees":"情報なし","website_url":null,"phone_number":"055-287-2511","area":"山梨県"}
{"id":58,"name":"韮崎大村美術館","location":"山梨県韮崎市神山町鍋山１８３０－１","business_hours":"4月〜10月10時00分〜18:0011月〜3月10時00分〜17時00分","admission_fees":"一般 500円/小・中・高校生 200円","website_url":null,"phone_number":"0551-23-7775","area":"山梨県"}
{"id":59,"name":"南アルプス市立美術館","location":"山梨県南アルプス市小笠原1281","business_hours":"情報なし","admission_fees":"情報なし","website_url":null,"phone_number":"055-282-6600","area":"山梨県"}
{"id":10,"name":"笛吹市青楓美術館","location":"山梨県笛吹市一宮町北野呂３－３","business_hours":"午前9時30分〜午後5時(入館は午後4時30分まで)","admission_fees":"・一般　300円・高校・大学生　200円・小・中学生　100円","website_url":null,"phone_number":"0553-47-2122","area":"山梨県県県県県"}
{"id":11,"name":"都留市増田誠美術館","location":"山梨県都留市中央３丁目９－３","business_hours":"午前９時から午後５時まで(入館は午後４時３０分まで)","admission_fees":"・特別展一般　　　600円　　　　　　　　高校生・大学生　400円小学生・中学生　200円・企画展・常設展一般　　　300円　　　　　　　　高校生・大学生　200円小学生・中学生　100円","website_url":null,"phone_number":"0554-45-4111","area":"山梨県県県県県"}
{"id":27,"name":"山梨県立美術館","location":"山梨県甲府市貢川１丁目４－２７","business_hours":"9：00〜17：00","admission_fees":"コレクション展　一般：510円　大学生：210円　高校生以下・65歳以上・障害者手帳等お持ちの方と介護者1名：無料＊県民の日は無料","website_url":null,"phone_number":"055-228-3322","area":"山梨県県県"}
{"id":12,"name":"須玉美術館","location":"山梨県北杜市須玉町若神子４４９５－１８","business_hours":"情報なし","admission_fees":"情報なし","website_url":null,"phone_number":"0551-42-5007","area":"山梨県県県県県"}
{"id":60,"name":"近藤浩一路記念南部町立美術館","location":"山梨県南巨摩郡南部町大和３６０","business_hours":"９：３０〜１７：００（入館は１６：３０まで）","admission_fees":"大人(常設展示)1人300円小中学生(常設展示)1人200円","website_url":null,"phone_number":"0556-62-9292","area":"山梨県"}
{"id":61,"name":"清春白樺美術館","location":"山梨県北杜市長坂町中丸２０７２","business_hours":"10:00〜17：00（入館は16：30まで）","admission_fees":"一般　　　：900円大高生　 ：800円小中学生：600円","website_url":null,"phone_number":"0551-32-4865","area":"山梨県"}
{"id":62,"name":"笛吹市青楓美術館","location":"山梨県笛吹市一宮町北野呂３－３","business_hours":"午前9時30分〜午後5時(入館は午後4時30分まで)","admission_fees":"・一般　300円・高校・大学生　200円・小・中学生　100円","website_url":null,"phone_number":"0553-47-2122","area":"山梨県"}
{"id":63,"name":"都留市増田誠美術館","location":"山梨県都留市中央３丁目９－３","business_hours":"午前９時から午後５時まで(入館は午後４時３０分まで)","admission_fees":"・特別展一般　　　600円　　　　　　　　高校生・大学生　400円小学生・中学生　200円・企画展・常設展一般　　　300円　　　　　　　　高校生・大学生　200円小学生・中学生　100円","website_url":null,"phone_number":"0554-45-4111","area":"山梨県"}
{"id":64,"name":"須玉美術館","location":"山梨県北杜市須玉町若神子４４９５－１８","business_hours":"情報なし","admission_fees":"情報なし","website_url":null,"phone_number":"0551-42-5007","area":"山梨県"}
{"id":65,"name":"藪内正幸美術館","location":"山梨県北杜市白州町鳥原２９１３－７１","business_hours":"10:00〜17:00（入館は16:00まで）","admission_fees":"大人 (高校生以上)　：500円    小人 (小・中学生)　：200円     就学前児童　　　　：無料     ショップのみの利用：無料","website_url":null,"phone_number":"0551-35-0088","area":"山梨県"}
{"id":30,"name":"富士川・切り絵の森美術館","location":"山梨県南巨摩郡身延町下山１５９７","business_hours":"【  4月〜9月】 9：30〜17：30【10月〜3月】10：00〜17：00※入館は閉館30分前まで","admission_fees":"一般　500円小・中学生　200円","website_url":null,"phone_number":"0556-62-4500","area":"山梨県県県"}
{"id":32,"name":"韮崎大村美術館","location":"山梨県韮崎市神山町鍋山１８３０－１","business_hours":"4月〜10月10時00分〜18:0011月〜3月10時00分〜17時00分","admission_fees":"一般 500円/小・中・高校生 200円","website_url":null,"phone_number":"0551-23-7775","area":"山梨県県県"}
{"id":33,"name":"南アルプス市立美術館","location":"山梨県南アルプス市小笠原1281","business_hours":"情報なし","admission_fees":"情報なし","website_url":null,"phone_number":"055-282-6600","area":"山梨県県県"}
{"id":34,"name":"近藤浩一路記念南部町立美術館","location":"山梨県南巨摩郡南部町大和３６０","business_hours":"９：３０〜１７：００（入館は１６：３０まで）","admission_fees":"大人(常設展示)1人300円小中学生(常設展示)1人200円","website_url":null,"phone_number":"0556-62-9292","area":"山梨県県県"}
{"id":35,"name":"清春白樺美術館","location":"山梨県北杜市長坂町中丸２０７２","business_hours":"10:00〜17：00（入館は16：30まで）","admission_fees":"一般　　　：900円大高生　 ：800円小中学生：600円","website_url":null,"phone_number":"0551-32-4865","area":"山梨県県県"}
{"id":36,"name":"笛吹市青楓美術館","location":"山梨県笛吹市一宮町北野呂３－３","business_hours":"午前9時30分〜午後5時(入館は午後4時30分まで)","admission_fees":"・一般　300円・高校・大学生　200円・小・中学生　100円","website_url":null,"phone_number":"0553-47-2122","area":"山梨県県県"}
{"id":37,"name":"都留市増田誠美術館","location":"山梨県都留市中央３丁目９－３","business_hours":"午前９時から午後５時まで(入館は午後４時３０分まで)","admission_fees":"・特別展一般　　　600円　　　　　　　　高校生・大学生　400円小学生・中学生　200円・企画展・常設展一般　　　300円　　　　　　　　高校生・大学生　200円小学生・中学生　100円","website_url":null,"phone_number":"0554-45-4111","area":"山梨県県県"}
{"id":38,"name":"須玉美術館","location":"山梨県北杜市須玉町若神子４４９５－１８","business_hours":"情報なし","admission_fees":"情報なし","website_url":null,"phone_number":"0551-42-5007","area":"山梨県県県"}
{"id":39,"name":"藪内正幸美術館","location":"山梨県北杜市白州町鳥原２９１３－７１","business_hours":"10:00〜17:00（入館は16:00まで）","admission_fees":"大人 (高校生以上)　：500円    小人 (小・中学生)　：200円     就学前児童　　　　：無料     ショップのみの利用：無料","website_url":null,"phone_number":"0551-35-0088","area":"山梨県県県"}
