{"id":1,"name":"秋田県立美術館","location":"秋田県秋田市中通1丁目4-2","business_hours":"10：00〜18：00（竿燈期間中などは、閉館時間を延長する場合があります）","admission_fees":"【個人】一般：310円シニア（70歳以上）：280円大学生：210円高校生以下：無料※特別展開催時は特別展料金となります","website_url":null,"phone_number":"018-853-8686","area":"秋田県県県県県"}
{"id":2,"name":"仙北市平福記念美術館","location":"秋田県仙北市角館町表町上丁４－４","business_hours":"・4月〜11月　9時〜17時・12月〜3月　9時〜16時30分(入場は閉館30分前まで)","admission_fees":"大人(高校生以上) 300円小人(小中学生) 200円","website_url":null,"phone_number":"0187-54-3888","area":"秋田県県県県県"}
{"id":3,"name":"秋田県立近代美術館","location":"秋田県横手市赤坂字富ケ沢６２－４６","business_hours":"9:30〜17:00","admission_fees":"無料","website_url":null,"phone_number":"0182-33-8855","area":"秋田県県県県県"}
{"id":4,"name":"千秋美術館","location":"秋田県秋田市中通２－３－８","business_hours":"10:00〜18:00（入館は17:30まで）","admission_fees":"一般：３００円（２４０円） 大学生：２００円（１６０円） （　）は、２０人以上団体割引料金","website_url":null,"phone_number":"018-836-7860","area":"秋田県県県県県"}
{"id":5,"name":"鳥海山木のおもちゃ美術館","location":"秋田県由利本荘市町村字鳴瀬台６５－１","business_hours":"9:00〜16:00 （※最終入館は15:30）","admission_fees":"おとな 800円こども（小学生以下） 600円","website_url":null,"phone_number":"0184-74-9070","area":"秋田県県県県県"}
{"id":6,"name":"横手市増田まんが美術館","location":"秋田県横手市増田町増田字新町285","business_hours":"9:00〜17:00（16:30までに入館ください)","admission_fees":"常設展は無料（特別企画展は有料）","website_url":null,"phone_number":"0182-45-5569","area":"秋田県県県県県"}
{"id":7,"name":"亀田城・佐藤八十八美術館","location":"秋田県由利本荘市岩城下蛇田高城","business_hours":"【3月〜10月】 9:00〜17:00【11月〜2月】 9:00〜16:00","admission_fees":"一般：210円学生：無料","website_url":null,"phone_number":"0184-74-2500","area":"秋田県県県県県"}
{"id":9,"name":"秋田県立美術館","location":"秋田県秋田市中通1丁目4-2","business_hours":"10：00〜18：00（竿燈期間中などは、閉館時間を延長する場合があります）","admission_fees":"【個人】一般：310円シニア（70歳以上）：280円大学生：210円高校生以下：無料※特別展開催時は特別展料金となります","website_url":null,"phone_number":"018-853-8686","area":"秋田県県県県"}
{"id":10,"name":"仙北市平福記念美術館","location":"秋田県仙北市角館町表町上丁４－４","business_hours":"・4月〜11月　9時〜17時・12月〜3月　9時〜16時30分(入場は閉館30分前まで)","admission_fees":"大人(高校生以上) 300円小人(小中学生) 200円","website_url":null,"phone_number":"0187-54-3888","area":"秋田県県県県"}
{"id":11,"name":"秋田県立近代美術館","location":"秋田県横手市赤坂字富ケ沢６２－４６","business_hours":"9:30〜17:00","admission_fees":"無料","website_url":null,"phone_number":"0182-33-8855","area":"秋田県県県県"}
{"id":13,"name":"鳥海山木のおもちゃ美術館","location":"秋田県由利本荘市町村字鳴瀬台６５－１","business_hours":"9:00〜16:00 （※最終入館は15:30）","admission_fees":"おとな 800円こども（小学生以下） 600円","website_url":null,"phone_number":"0184-74-9070","area":"秋田県県県県"}
{"id":8,"name":"鎌鼬美術館","location":"秋田県雄勝郡羽後町田代梺６７－３","business_hours":"9時〜16時半（11月23日のみ10時開館）","admission_fees":"300円","website_url":null,"phone_number":"0183-62-5009","area":"秋田県県県県県"}
{"id":12,"name":"千秋美術館","location":"秋田県秋田市中通２－３－８","business_hours":"10:00〜18:00（入館は17:30まで）","admission_fees":"一般：３００円（２４０円） 大学生：２００円（１６０円） （　）は、２０人以上団体割引料金","website_url":null,"phone_number":"018-836-7860","area":"秋田県県県県"}
{"id":14,"name":"横手市増田まんが美術館","location":"秋田県横手市増田町増田字新町285","business_hours":"9:00〜17:00（16:30までに入館ください)","admission_fees":"常設展は無料（特別企画展は有料）","website_url":null,"phone_number":"0182-45-5569","area":"秋田県県県県"}
{"id":15,"name":"亀田城・佐藤八十八美術館","location":"秋田県由利本荘市岩城下蛇田高城","business_hours":"【3月〜10月】 9:00〜17:00【11月〜2月】 9:00〜16:00","admission_fees":"一般：210円学生：無料","website_url":null,"phone_number":"0184-74-2500","area":"秋田県県県県"}
{"id":16,"name":"鎌鼬美術館","location":"秋田県雄勝郡羽後町田代梺６７－３","business_hours":"9時〜16時半（11月23日のみ10時開館）","admission_fees":"300円","website_url":null,"phone_number":"0183-62-5009","area":"秋田県県県県"}
{"id":17,"name":"秋田県立美術館","location":"秋田県秋田市中通1丁目4-2","business_hours":"10：00〜18：00（竿燈期間中などは、閉館時間を延長する場合があります）","admission_fees":"【個人】一般：310円シニア（70歳以上）：280円大学生：210円高校生以下：無料※特別展開催時は特別展料金となります","website_url":null,"phone_number":"018-853-8686","area":"秋田県県県"}
{"id":18,"name":"仙北市平福記念美術館","location":"秋田県仙北市角館町表町上丁４－４","business_hours":"・4月〜11月　9時〜17時・12月〜3月　9時〜16時30分(入場は閉館30分前まで)","admission_fees":"大人(高校生以上) 300円小人(小中学生) 200円","website_url":null,"phone_number":"0187-54-3888","area":"秋田県県県"}
{"id":19,"name":"秋田県立近代美術館","location":"秋田県横手市赤坂字富ケ沢６２－４６","business_hours":"9:30〜17:00","admission_fees":"無料","website_url":null,"phone_number":"0182-33-8855","area":"秋田県県県"}
{"id":20,"name":"千秋美術館","location":"秋田県秋田市中通２－３－８","business_hours":"10:00〜18:00（入館は17:30まで）","admission_fees":"一般：３００円（２４０円） 大学生：２００円（１６０円） （　）は、２０人以上団体割引料金","website_url":null,"phone_number":"018-836-7860","area":"秋田県県県"}
{"id":24,"name":"鎌鼬美術館","location":"秋田県雄勝郡羽後町田代梺６７－３","business_hours":"9時〜16時半（11月23日のみ10時開館）","admission_fees":"300円","website_url":null,"phone_number":"0183-62-5009","area":"秋田県県県"}
{"id":21,"name":"鳥海山木のおもちゃ美術館","location":"秋田県由利本荘市町村字鳴瀬台６５－１","business_hours":"9:00〜16:00 （※最終入館は15:30）","admission_fees":"おとな 800円こども（小学生以下） 600円","website_url":null,"phone_number":"0184-74-9070","area":"秋田県県県"}
{"id":22,"name":"横手市増田まんが美術館","location":"秋田県横手市増田町増田字新町285","business_hours":"9:00〜17:00（16:30までに入館ください)","admission_fees":"常設展は無料（特別企画展は有料）","website_url":null,"phone_number":"0182-45-5569","area":"秋田県県県"}
{"id":23,"name":"亀田城・佐藤八十八美術館","location":"秋田県由利本荘市岩城下蛇田高城","business_hours":"【3月〜10月】 9:00〜17:00【11月〜2月】 9:00〜16:00","admission_fees":"一般：210円学生：無料","website_url":null,"phone_number":"0184-74-2500","area":"秋田県県県"}
{"id":25,"name":"秋田県立美術館","location":"秋田県秋田市中通1丁目4-2","business_hours":"10：00〜18：00（竿燈期間中などは、閉館時間を延長する場合があります）","admission_fees":"【個人】一般：310円シニア（70歳以上）：280円大学生：210円高校生以下：無料※特別展開催時は特別展料金となります","website_url":null,"phone_number":"018-853-8686","area":"秋田県県"}
{"id":26,"name":"仙北市平福記念美術館","location":"秋田県仙北市角館町表町上丁４－４","business_hours":"・4月〜11月　9時〜17時・12月〜3月　9時〜16時30分(入場は閉館30分前まで)","admission_fees":"大人(高校生以上) 300円小人(小中学生) 200円","website_url":null,"phone_number":"0187-54-3888","area":"秋田県県"}
{"id":27,"name":"秋田県立近代美術館","location":"秋田県横手市赤坂字富ケ沢６２－４６","business_hours":"9:30〜17:00","admission_fees":"無料","website_url":null,"phone_number":"0182-33-8855","area":"秋田県県"}
{"id":28,"name":"千秋美術館","location":"秋田県秋田市中通２－３－８","business_hours":"10:00〜18:00（入館は17:30まで）","admission_fees":"一般：３００円（２４０円） 大学生：２００円（１６０円） （　）は、２０人以上団体割引料金","website_url":null,"phone_number":"018-836-7860","area":"秋田県県"}
{"id":29,"name":"鳥海山木のおもちゃ美術館","location":"秋田県由利本荘市町村字鳴瀬台６５－１","business_hours":"9:00〜16:00 （※最終入館は15:30）","admission_fees":"おとな 800円こども（小学生以下） 600円","website_url":null,"phone_number":"0184-74-9070","area":"秋田県県"}
{"id":30,"name":"横手市増田まんが美術館","location":"秋田県横手市増田町増田字新町285","business_hours":"9:00〜17:00（16:30までに入館ください)","admission_fees":"常設展は無料（特別企画展は有料）","website_url":null,"phone_number":"0182-45-5569","area":"秋田県県"}
{"id":31,"name":"亀田城・佐藤八十八美術館","location":"秋田県由利本荘市岩城下蛇田高城","business_hours":"【3月〜10月】 9:00〜17:00【11月〜2月】 9:00〜16:00","admission_fees":"一般：210円学生：無料","website_url":null,"phone_number":"0184-74-2500","area":"秋田県県"}
{"id":32,"name":"鎌鼬美術館","location":"秋田県雄勝郡羽後町田代梺６７－３","business_hours":"9時〜16時半（11月23日のみ10時開館）","admission_fees":"300円","website_url":null,"phone_number":"0183-62-5009","area":"秋田県県"}
{"id":33,"name":"秋田県立美術館","location":"秋田県秋田市中通1丁目4-2","business_hours":"10：00〜18：00（竿燈期間中などは、閉館時間を延長する場合があります）","admission_fees":"【個人】一般：310円シニア（70歳以上）：280円大学生：210円高校生以下：無料※特別展開催時は特別展料金となります","website_url":null,"phone_number":"018-853-8686","area":"秋田県"}
{"id":34,"name":"仙北市平福記念美術館","location":"秋田県仙北市角館町表町上丁４－４","business_hours":"・4月〜11月　9時〜17時・12月〜3月　9時〜16時30分(入場は閉館30分前まで)","admission_fees":"大人(高校生以上) 300円小人(小中学生) 200円","website_url":null,"phone_number":"0187-54-3888","area":"秋田県"}
{"id":35,"name":"秋田県立近代美術館","location":"秋田県横手市赤坂字富ケ沢６２－４６","business_hours":"9:30〜17:00","admission_fees":"無料","website_url":null,"phone_number":"0182-33-8855","area":"秋田県"}
{"id":40,"name":"鎌鼬美術館","location":"秋田県雄勝郡羽後町田代梺６７－３","business_hours":"9時〜16時半（11月23日のみ10時開館）","admission_fees":"300円","website_url":null,"phone_number":"0183-62-5009","area":"秋田県"}
{"id":36,"name":"千秋美術館","location":"秋田県秋田市中通２－３－８","business_hours":"10:00〜18:00（入館は17:30まで）","admission_fees":"一般：３００円（２４０円） 大学生：２００円（１６０円） （　）は、２０人以上団体割引料金","website_url":null,"phone_number":"018-836-7860","area":"秋田県"}
{"id":37,"name":"鳥海山木のおもちゃ美術館","location":"秋田県由利本荘市町村字鳴瀬台６５－１","business_hours":"9:00〜16:00 （※最終入館は15:30）","admission_fees":"おとな 800円こども（小学生以下） 600円","website_url":null,"phone_number":"0184-74-9070","area":"秋田県"}
{"id":38,"name":"横手市増田まんが美術館","location":"秋田県横手市増田町増田字新町285","business_hours":"9:00〜17:00（16:30までに入館ください)","admission_fees":"常設展は無料（特別企画展は有料）","website_url":null,"phone_number":"0182-45-5569","area":"秋田県"}
{"id":39,"name":"亀田城・佐藤八十八美術館","location":"秋田県由利本荘市岩城下蛇田高城","business_hours":"【3月〜10月】 9:00〜17:00【11月〜2月】 9:00〜16:00","admission_fees":"一般：210円学生：無料","website_url":null,"phone_number":"0184-74-2500","area":"秋田県"}
