{"id":6,"name":"横須賀美術館","location":"神奈川県横須賀市鴨居４丁目１","business_hours":"10時〜18時","admission_fees":"一般　　310円高校生・大学生・65歳以上の方　210円中学生以下　無料","website_url":null,"phone_number":"046-845-1211","area":"神奈川県県"}
{"id":1,"name":"箱根ガラスの森美術館","location":"神奈川県足柄下郡箱根町仙石原940-48","business_hours":"午前9時から午後5時30分（ご入館は5時迄）","admission_fees":"【一般】大人￥1,500　大高生￥1,100　小中生￥600・シニア（65歳以上）割引￥1,500→￥1,400（他の割引との併用はできません）・障害者割引　ご本人様とお付添いの方1名様までそれぞれ800円で ご入館頂けます。(障害者手帳をご提示ください)","website_url":null,"phone_number":"0460-86-3111","area":"神奈川県県"}
{"id":2,"name":"彫刻の森美術館","location":"神奈川県足柄下郡箱根町二ノ平1121","business_hours":"9:00〜17:00※入館は閉館の30分前まで","admission_fees":"（個人）一般:1600円大学生・高校生:1200円中学生・小学生:800円（障害者手帳をお持ちの方）一般:1000円大学生・高校生:700円中学生・小学生:500円 ※「毎週土曜日はファミリー優待日」保護者1名につき小・中学生5名まで無料ご招待","website_url":null,"phone_number":"0460-82-1161","area":"神奈川県県"}
{"id":3,"name":"横浜美術館","location":"神奈川県横浜市西区みなとみらい3-4-1","business_hours":"10：00〜17：30（閉館は18：00）","admission_fees":"一般500円、高校・大学生300円、中学生100円、小学生以下無料（企画展は別料金）","website_url":null,"phone_number":"045-221-0300","area":"神奈川県県"}
{"id":4,"name":"箱根ラリック美術館","location":"神奈川県足柄下郡箱根町仙石原186-1","business_hours":"午前9時〜午後5時（美術館入館は4時30分まで）","admission_fees":"大人\\t￥1,500大学生・高校生・シニア（65歳以上）\\t￥1,300中学生・小学生\\t￥800","website_url":null,"phone_number":"0460-84-2255","area":"神奈川県県"}
{"id":5,"name":"平塚市美術館","location":"神奈川県平塚市西八幡１丁目３－３","business_hours":"9:30〜17:00（入場は〜16:30）休館日は　　● 月曜日（月曜日が祝日・国民の休日の場合は開館し翌日休館、振替休日の場合は開館）　　● 年末年始（12月29日〜1月3日）","admission_fees":"特集展　一般200円、高大生100円　企画展は展覧会ごとに異なります。","website_url":null,"phone_number":"0463-35-2111","area":"神奈川県県"}
{"id":7,"name":"箱根美術館","location":"神奈川県足柄下郡箱根町強羅１３００","business_hours":"【４月〜１１月】9:30〜16:30【１２月〜３月】9:30〜16:00※最終入館は閉館30分前 茶室真和亭の開席時間10:00〜15:30","admission_fees":"一般1,300円高大生600円中学生以下無料シニア割引1,100円障害者割引800円","website_url":null,"phone_number":"046-082-2623","area":"神奈川県県"}
{"id":8,"name":"岡本太郎美術館","location":"神奈川県川崎市多摩区枡形７丁目１－５","business_hours":"9:30〜17:00（入館は16:30まで）","admission_fees":"企画展が開催されていない時（常設展のみ開催時）は、一般500円、高校･大学生・65歳以上、300円です。　　※幼児、小・中学生は無料です。","website_url":null,"phone_number":"044-900-9898","area":"神奈川県県"}
{"id":9,"name":"中川一政美術館","location":"神奈川県足柄下郡真鶴町真鶴１１７８－１","business_hours":"午前9時30分から午後4：30分（入館は午後4時まで）","admission_fees":"大人　600円高校生以下　350円障がい者　無料","website_url":null,"phone_number":"0465-68-1128","area":"神奈川県県"}
{"id":10,"name":"箱根・芦ノ湖成川美術館","location":"神奈川県足柄下郡箱根町元箱根５７０","business_hours":"9:00〜17:00","admission_fees":"一般1,300円、高・大学生900円、小・中学生600円、幼児無料","website_url":null,"phone_number":"0460-83-6828","area":"神奈川県県"}
{"id":11,"name":"茅ケ崎市美術館","location":"神奈川県茅ヶ崎市東海岸北１－４－４５","business_hours":"10:00〜18:0011月〜3月は17:00まで（入館は閉館の30分前まで）","admission_fees":"一般200円大学生100円高校生以下・市内在住65歳以上は無料","website_url":null,"phone_number":"0467-88-1177","area":"神奈川県県"}
{"id":12,"name":"箱根ドールハウス美術館","location":"神奈川県足柄下郡箱根町芦之湯84-55","business_hours":"4月〜10月10:00〜17:30（最終入館 17:00）11月〜3月10:00〜17:00（最終入館 16:30）","admission_fees":"大人1,800円学生(中高大)1500円学生(小学校)1200円未就学児無料※障害者手帳をお持ちの方、および同伴者1名様まで半額","website_url":null,"phone_number":"0460-85-1321","area":"神奈川県県"}
{"id":13,"name":"湯河原美術館","location":"神奈川県足柄下郡湯河原町宮上６２３－１","business_hours":"9:00〜16:30（入館は16:00まで）","admission_fees":"大人　600円小・中学生　300円","website_url":null,"phone_number":"0465-63-7788","area":"神奈川県県"}
{"id":14,"name":"鎌倉市鏑木清方記念美術館","location":"神奈川県鎌倉市雪ノ下１丁目５－２５","business_hours":"9:00〜17:00","admission_fees":"一般200円 小・中学生100円","website_url":null,"phone_number":"0467-23-6405","area":"神奈川県県"}
{"id":16,"name":"箱根武士の里美術館","location":"神奈川県足柄下郡箱根町仙石原８１７－５８０","business_hours":"4月〜11月10:00〜17:0012月〜3月10:00〜16:00※閉館30分前","admission_fees":"大人（中学生以上）：800円中学生：600円小学生：400円","website_url":null,"phone_number":"0460-84-8177","area":"神奈川県県"}
{"id":15,"name":"近代美術館葉山","location":"神奈川県三浦郡葉山町一色２２０８－１","business_hours":"午前9時30分〜午後5時（入場は午後4時30分まで）月曜日（ただし祝日および振替休日の場合は開館）展示替期間（ただしレストランと駐車場は月曜を除き営業）年末年始（12月29日〜1月3日）","admission_fees":"展覧会によって異なります。（カッコ内は20名以上の団体料金）","website_url":null,"phone_number":"046-875-2800","area":"神奈川県県"}
{"id":17,"name":"ポーラ美術館","location":"神奈川県足柄下郡箱根町仙石原小塚山1285","business_hours":"午前9時〜午後5時（入館は午後4時30分まで）","admission_fees":"大人　￥1,800シニア割引（65歳以上）￥1,600大学・高校生　￥1,300中学生以下　無料 障害者手帳をお持ちのご本人及び付添者（1名まで）￥1,000","website_url":null,"phone_number":"0460-84-2111","area":"神奈川県県"}
{"id":18,"name":"そごう美術館","location":"神奈川県横浜市西区高島2-18-1そごう横浜店6Ｆ","business_hours":"10：00〜19：30（閉館は20：00）","admission_fees":"企画展により異なる","website_url":null,"phone_number":"045-465-5515","area":"神奈川県県"}
{"id":19,"name":"北鎌倉古民家ミュージアム","location":"神奈川県鎌倉市山ノ内392-1","business_hours":"開館時間：10時 〜 17時","admission_fees":"一般：500円，中高生：300円，小学生：200円","website_url":null,"phone_number":"0467-25-5641","area":"神奈川県県"}
{"id":20,"name":"川崎浮世絵ギャラリー","location":"神奈川県川崎市川崎区駅前本町１２－１","business_hours":"11:00〜18:30　(入館18:15まで)","admission_fees":"一般500円高校生以下無料","website_url":null,"phone_number":"044-280-9511","area":"神奈川県県"}
{"id":21,"name":"藤澤浮世絵館","location":"神奈川県藤沢市辻堂神台二丁目2番2号 ココテラス湘南7階","business_hours":"10:00〜19:00（入館は18:30まで）","admission_fees":"無料","website_url":null,"phone_number":"情報なし","area":"神奈川県県"}
{"id":22,"name":"岡田美術館","location":"神奈川県足柄下郡箱根町小涌谷493-1","business_hours":"午前9：00〜午後17：00（最終入館16：30）","admission_fees":"一般・大学生：2,800円小中高生　　：1,800円前売券一般・大学生：2,550円小中高生　　：1,550円","website_url":null,"phone_number":"0460-87-3931","area":"神奈川県県"}
{"id":23,"name":"国立映画アーカイブ　相模原分館","location":"神奈川県相模原市中央区高根３－１－４","business_hours":"11:00am-6:30pm（入室は6:00pmまで）＊毎月末金曜日は11:00am-8:00pm（入室は7:30pmまで）","admission_fees":"一般250円／大学生130円、高校生以下無料","website_url":null,"phone_number":"042-758-0128","area":"神奈川県県"}
{"id":24,"name":"光と緑の美術館","location":"神奈川県相模原市中央区横山３丁目６－１８","business_hours":"10：00－18：00","admission_fees":"一般250円、高・大・65才以上は100円、中学生以下無料","website_url":null,"phone_number":"042-757-7151","area":"神奈川県県"}
{"id":25,"name":"中村正義の美術館","location":"神奈川県川崎市麻生区細山７－２－８","business_hours":"11:00〜17:00","admission_fees":"一般500円、65歳以上300円、学生300円、小中生200円","website_url":null,"phone_number":"044-953-4936","area":"神奈川県県"}
{"id":26,"name":"箱根ガラスの森美術館","location":"神奈川県足柄下郡箱根町仙石原940-48","business_hours":"午前9時から午後5時30分（ご入館は5時迄）","admission_fees":"【一般】大人￥1,500　大高生￥1,100　小中生￥600・シニア（65歳以上）割引￥1,500→￥1,400（他の割引との併用はできません）・障害者割引　ご本人様とお付添いの方1名様までそれぞれ800円で ご入館頂けます。(障害者手帳をご提示ください)","website_url":null,"phone_number":"0460-86-3111","area":"神奈川県"}
{"id":27,"name":"彫刻の森美術館","location":"神奈川県足柄下郡箱根町二ノ平1121","business_hours":"9:00〜17:00※入館は閉館の30分前まで","admission_fees":"（個人）一般:1600円大学生・高校生:1200円中学生・小学生:800円（障害者手帳をお持ちの方）一般:1000円大学生・高校生:700円中学生・小学生:500円 ※「毎週土曜日はファミリー優待日」保護者1名につき小・中学生5名まで無料ご招待","website_url":null,"phone_number":"0460-82-1161","area":"神奈川県"}
{"id":28,"name":"横浜美術館","location":"神奈川県横浜市西区みなとみらい3-4-1","business_hours":"10：00〜17：30（閉館は18：00）","admission_fees":"一般500円、高校・大学生300円、中学生100円、小学生以下無料（企画展は別料金）","website_url":null,"phone_number":"045-221-0300","area":"神奈川県"}
{"id":29,"name":"箱根ラリック美術館","location":"神奈川県足柄下郡箱根町仙石原186-1","business_hours":"午前9時〜午後5時（美術館入館は4時30分まで）","admission_fees":"大人\\t￥1,500大学生・高校生・シニア（65歳以上）\\t￥1,300中学生・小学生\\t￥800","website_url":null,"phone_number":"0460-84-2255","area":"神奈川県"}
{"id":30,"name":"平塚市美術館","location":"神奈川県平塚市西八幡１丁目３－３","business_hours":"9:30〜17:00（入場は〜16:30）休館日は　　● 月曜日（月曜日が祝日・国民の休日の場合は開館し翌日休館、振替休日の場合は開館）　　● 年末年始（12月29日〜1月3日）","admission_fees":"特集展　一般200円、高大生100円　企画展は展覧会ごとに異なります。","website_url":null,"phone_number":"0463-35-2111","area":"神奈川県"}
{"id":31,"name":"横須賀美術館","location":"神奈川県横須賀市鴨居４丁目１","business_hours":"10時〜18時","admission_fees":"一般　　310円高校生・大学生・65歳以上の方　210円中学生以下　無料","website_url":null,"phone_number":"046-845-1211","area":"神奈川県"}
{"id":32,"name":"箱根美術館","location":"神奈川県足柄下郡箱根町強羅１３００","business_hours":"【４月〜１１月】9:30〜16:30【１２月〜３月】9:30〜16:00※最終入館は閉館30分前 茶室真和亭の開席時間10:00〜15:30","admission_fees":"一般1,300円高大生600円中学生以下無料シニア割引1,100円障害者割引800円","website_url":null,"phone_number":"046-082-2623","area":"神奈川県"}
{"id":33,"name":"岡本太郎美術館","location":"神奈川県川崎市多摩区枡形７丁目１－５","business_hours":"9:30〜17:00（入館は16:30まで）","admission_fees":"企画展が開催されていない時（常設展のみ開催時）は、一般500円、高校･大学生・65歳以上、300円です。　　※幼児、小・中学生は無料です。","website_url":null,"phone_number":"044-900-9898","area":"神奈川県"}
{"id":34,"name":"中川一政美術館","location":"神奈川県足柄下郡真鶴町真鶴１１７８－１","business_hours":"午前9時30分から午後4：30分（入館は午後4時まで）","admission_fees":"大人　600円高校生以下　350円障がい者　無料","website_url":null,"phone_number":"0465-68-1128","area":"神奈川県"}
{"id":35,"name":"箱根・芦ノ湖成川美術館","location":"神奈川県足柄下郡箱根町元箱根５７０","business_hours":"9:00〜17:00","admission_fees":"一般1,300円、高・大学生900円、小・中学生600円、幼児無料","website_url":null,"phone_number":"0460-83-6828","area":"神奈川県"}
{"id":36,"name":"茅ケ崎市美術館","location":"神奈川県茅ヶ崎市東海岸北１－４－４５","business_hours":"10:00〜18:0011月〜3月は17:00まで（入館は閉館の30分前まで）","admission_fees":"一般200円大学生100円高校生以下・市内在住65歳以上は無料","website_url":null,"phone_number":"0467-88-1177","area":"神奈川県"}
{"id":37,"name":"箱根ドールハウス美術館","location":"神奈川県足柄下郡箱根町芦之湯84-55","business_hours":"4月〜10月10:00〜17:30（最終入館 17:00）11月〜3月10:00〜17:00（最終入館 16:30）","admission_fees":"大人1,800円学生(中高大)1500円学生(小学校)1200円未就学児無料※障害者手帳をお持ちの方、および同伴者1名様まで半額","website_url":null,"phone_number":"0460-85-1321","area":"神奈川県"}
{"id":38,"name":"湯河原美術館","location":"神奈川県足柄下郡湯河原町宮上６２３－１","business_hours":"9:00〜16:30（入館は16:00まで）","admission_fees":"大人　600円小・中学生　300円","website_url":null,"phone_number":"0465-63-7788","area":"神奈川県"}
{"id":39,"name":"鎌倉市鏑木清方記念美術館","location":"神奈川県鎌倉市雪ノ下１丁目５－２５","business_hours":"9:00〜17:00","admission_fees":"一般200円 小・中学生100円","website_url":null,"phone_number":"0467-23-6405","area":"神奈川県"}
{"id":40,"name":"近代美術館葉山","location":"神奈川県三浦郡葉山町一色２２０８－１","business_hours":"午前9時30分〜午後5時（入場は午後4時30分まで）月曜日（ただし祝日および振替休日の場合は開館）展示替期間（ただしレストランと駐車場は月曜を除き営業）年末年始（12月29日〜1月3日）","admission_fees":"展覧会によって異なります。（カッコ内は20名以上の団体料金）","website_url":null,"phone_number":"046-875-2800","area":"神奈川県"}
{"id":41,"name":"箱根武士の里美術館","location":"神奈川県足柄下郡箱根町仙石原８１７－５８０","business_hours":"4月〜11月10:00〜17:0012月〜3月10:00〜16:00※閉館30分前","admission_fees":"大人（中学生以上）：800円中学生：600円小学生：400円","website_url":null,"phone_number":"0460-84-8177","area":"神奈川県"}
{"id":42,"name":"ポーラ美術館","location":"神奈川県足柄下郡箱根町仙石原小塚山1285","business_hours":"午前9時〜午後5時（入館は午後4時30分まで）","admission_fees":"大人　￥1,800シニア割引（65歳以上）￥1,600大学・高校生　￥1,300中学生以下　無料 障害者手帳をお持ちのご本人及び付添者（1名まで）￥1,000","website_url":null,"phone_number":"0460-84-2111","area":"神奈川県"}
{"id":43,"name":"そごう美術館","location":"神奈川県横浜市西区高島2-18-1そごう横浜店6Ｆ","business_hours":"10：00〜19：30（閉館は20：00）","admission_fees":"企画展により異なる","website_url":null,"phone_number":"045-465-5515","area":"神奈川県"}
{"id":44,"name":"北鎌倉古民家ミュージアム","location":"神奈川県鎌倉市山ノ内392-1","business_hours":"開館時間：10時 〜 17時","admission_fees":"一般：500円，中高生：300円，小学生：200円","website_url":null,"phone_number":"0467-25-5641","area":"神奈川県"}
{"id":45,"name":"川崎浮世絵ギャラリー","location":"神奈川県川崎市川崎区駅前本町１２－１","business_hours":"11:00〜18:30　(入館18:15まで)","admission_fees":"一般500円高校生以下無料","website_url":null,"phone_number":"044-280-9511","area":"神奈川県"}
{"id":46,"name":"藤澤浮世絵館","location":"神奈川県藤沢市辻堂神台二丁目2番2号 ココテラス湘南7階","business_hours":"10:00〜19:00（入館は18:30まで）","admission_fees":"無料","website_url":null,"phone_number":"情報なし","area":"神奈川県"}
{"id":47,"name":"岡田美術館","location":"神奈川県足柄下郡箱根町小涌谷493-1","business_hours":"午前9：00〜午後17：00（最終入館16：30）","admission_fees":"一般・大学生：2,800円小中高生　　：1,800円前売券一般・大学生：2,550円小中高生　　：1,550円","website_url":null,"phone_number":"0460-87-3931","area":"神奈川県"}
{"id":48,"name":"国立映画アーカイブ　相模原分館","location":"神奈川県相模原市中央区高根３－１－４","business_hours":"11:00am-6:30pm（入室は6:00pmまで）＊毎月末金曜日は11:00am-8:00pm（入室は7:30pmまで）","admission_fees":"一般250円／大学生130円、高校生以下無料","website_url":null,"phone_number":"042-758-0128","area":"神奈川県"}
{"id":49,"name":"光と緑の美術館","location":"神奈川県相模原市中央区横山３丁目６－１８","business_hours":"10：00－18：00","admission_fees":"一般250円、高・大・65才以上は100円、中学生以下無料","website_url":null,"phone_number":"042-757-7151","area":"神奈川県"}
{"id":50,"name":"中村正義の美術館","location":"神奈川県川崎市麻生区細山７－２－８","business_hours":"11:00〜17:00","admission_fees":"一般500円、65歳以上300円、学生300円、小中生200円","website_url":null,"phone_number":"044-953-4936","area":"神奈川県"}
