{"id":1,"name":"大分市美術館","location":"大分県大分市大字上野８６５","business_hours":"午前１０時〜午後６時（ただし、入館は午後５時３０分まで）","admission_fees":"【コレクション展観覧料】 一般  ３００円  高校生・大学生  ２００円 ※中学生以下は無料","website_url":null,"phone_number":"097-554-5800","area":"大分県県"}
{"id":2,"name":"中津市木村記念美術館","location":"大分県中津市片端町１３６６－３","business_hours":"9：00〜17：00（入館は16：30まで）","admission_fees":"一般 200円、高校・大学生 100円、中学生以下 無料","website_url":null,"phone_number":"0979-22-7767","area":"大分県県"}
{"id":3,"name":"別府市美術館","location":"大分県別府市上人ケ浜町１－１","business_hours":"9:00-16:00入館15:30まで","admission_fees":"一般・高校生 100円（70円）小・中学生 50円（30円）幼児無料※（ ）内は20名団体割引料金","website_url":null,"phone_number":"0977-67-0189","area":"大分県県"}
{"id":4,"name":"二階堂美術館","location":"大分県速見郡日出町川崎８３７－６","business_hours":"午前9時〜午後5時(入館は午後4時30分まで）","admission_fees":"一般800円、高・大学生500円、小・中学生300円","website_url":null,"phone_number":"0977-73-1100","area":"大分県県"}
{"id":5,"name":"不均質な自然と人の美術館","location":"大分県豊後高田市見目４０６０","business_hours":"情報なし","admission_fees":"情報なし","website_url":null,"phone_number":"0978-25-7116","area":"大分県県"}
{"id":6,"name":"大分市美術館","location":"大分県大分市大字上野８６５","business_hours":"午前１０時〜午後６時（ただし、入館は午後５時３０分まで）","admission_fees":"【コレクション展観覧料】 一般  ３００円  高校生・大学生  ２００円 ※中学生以下は無料","website_url":null,"phone_number":"097-554-5800","area":"大分県"}
{"id":7,"name":"中津市木村記念美術館","location":"大分県中津市片端町１３６６－３","business_hours":"9：00〜17：00（入館は16：30まで）","admission_fees":"一般 200円、高校・大学生 100円、中学生以下 無料","website_url":null,"phone_number":"0979-22-7767","area":"大分県"}
{"id":8,"name":"別府市美術館","location":"大分県別府市上人ケ浜町１－１","business_hours":"9:00-16:00入館15:30まで","admission_fees":"一般・高校生 100円（70円）小・中学生 50円（30円）幼児無料※（ ）内は20名団体割引料金","website_url":null,"phone_number":"0977-67-0189","area":"大分県"}
{"id":9,"name":"二階堂美術館","location":"大分県速見郡日出町川崎８３７－６","business_hours":"午前9時〜午後5時(入館は午後4時30分まで）","admission_fees":"一般800円、高・大学生500円、小・中学生300円","website_url":null,"phone_number":"0977-73-1100","area":"大分県"}
{"id":10,"name":"不均質な自然と人の美術館","location":"大分県豊後高田市見目４０６０","business_hours":"情報なし","admission_fees":"情報なし","website_url":null,"phone_number":"0978-25-7116","area":"大分県"}
