{"id":1,"name":"ルーブル彫刻美術館","location":"三重県津市白山町佐田１９５７","business_hours":"9：30〜17：00（入館は16：30まで）","admission_fees":"大人（高校生以上）：1500円60歳以上・学生・障害者：1000円小人（小・中学生）：800円小学生未満：無料＊大観音寺との共通割引券：大人　2000円　小人　1000円＊前売り入場券：1000円","website_url":null,"phone_number":"059-262-1111","area":"三重県県"}
{"id":2,"name":"三重県立美術館","location":"三重県津市大谷町１１","business_hours":"9:30〜17:00　最終入館16:30","admission_fees":"常設展示観覧料一般　300円大学生(要学生証)　200円※高校生以下無料(中学生以上は要学生証)。障害者割引あり(要証明書) 企画展観覧料※展覧会によって異なる","website_url":null,"phone_number":"059-227-2100","area":"三重県県"}
{"id":3,"name":"神宮徴古館","location":"三重県伊勢市神田久志本町１７５４－１","business_hours":"午前9時〜午後4時（観覧は午後4時30分まで）","admission_fees":"三館共通券大人：個人\\t700 円小・中学生：個人200 円","website_url":null,"phone_number":"0596-22-1700","area":"三重県県"}
{"id":4,"name":"神宮美術館","location":"三重県伊勢市神田久志本町1754-1","business_hours":"受付:9時〜16時（観覧は16時30分まで）","admission_fees":"大人 500円 小・中学生 100円 未就学児は無料","website_url":null,"phone_number":"0596-22-5533","area":"三重県県"}
{"id":5,"name":"伊賀市ミュージアム青山讃頌舎","location":"三重県伊賀市別府７１８－３","business_hours":"午前10時〜午後4時30分　(入館は午後4時まで)","admission_fees":"一般　300円　高校生以下　無料","website_url":null,"phone_number":"0595-52-2100","area":"三重県県"}
{"id":6,"name":"ＯＲＩＢＥ美術館","location":"三重県四日市市安島２丁目４－１８","business_hours":"10：00 〜 17：00","admission_fees":"一般   ： 400円高・大生 ： 300円中学生以下 ：200円","website_url":null,"phone_number":"059-351-2147","area":"三重県県"}
{"id":7,"name":"小坡美術館","location":"三重県伊勢市宇治浦田二丁目４－６５","business_hours":"9:30〜16:00","admission_fees":"一般   :300円高大生:200円小中生:100円","website_url":null,"phone_number":"0596-22-2554","area":"三重県県"}
{"id":8,"name":"伊勢現代美術館","location":"三重県度会郡南伊勢町五ケ所浦湾場１０２－８","business_hours":"10：00〜17：00 (入館受付は16：30までとなります)","admission_fees":"一般700円、中高大生500円、小学生以下無料","website_url":null,"phone_number":"0599-66-1138","area":"三重県県"}
{"id":9,"name":"澄懐堂美術館","location":"三重県四日市市水沢町２０１１","business_hours":"10：00〜16：00（入館は15：30まで）","admission_fees":"大人800円、高・大学生500円、小・中学生300円","website_url":null,"phone_number":"059-329-3335","area":"三重県県"}
{"id":10,"name":"ルーブル彫刻美術館","location":"三重県津市白山町佐田１９５７","business_hours":"9：30〜17：00（入館は16：30まで）","admission_fees":"大人（高校生以上）：1500円60歳以上・学生・障害者：1000円小人（小・中学生）：800円小学生未満：無料＊大観音寺との共通割引券：大人　2000円　小人　1000円＊前売り入場券：1000円","website_url":null,"phone_number":"059-262-1111","area":"三重県"}
{"id":11,"name":"三重県立美術館","location":"三重県津市大谷町１１","business_hours":"9:30〜17:00　最終入館16:30","admission_fees":"常設展示観覧料一般　300円大学生(要学生証)　200円※高校生以下無料(中学生以上は要学生証)。障害者割引あり(要証明書) 企画展観覧料※展覧会によって異なる","website_url":null,"phone_number":"059-227-2100","area":"三重県"}
{"id":12,"name":"神宮徴古館","location":"三重県伊勢市神田久志本町１７５４－１","business_hours":"午前9時〜午後4時（観覧は午後4時30分まで）","admission_fees":"三館共通券大人：個人\\t700 円小・中学生：個人200 円","website_url":null,"phone_number":"0596-22-1700","area":"三重県"}
{"id":13,"name":"神宮美術館","location":"三重県伊勢市神田久志本町1754-1","business_hours":"受付:9時〜16時（観覧は16時30分まで）","admission_fees":"大人 500円 小・中学生 100円 未就学児は無料","website_url":null,"phone_number":"0596-22-5533","area":"三重県"}
{"id":14,"name":"伊賀市ミュージアム青山讃頌舎","location":"三重県伊賀市別府７１８－３","business_hours":"午前10時〜午後4時30分　(入館は午後4時まで)","admission_fees":"一般　300円　高校生以下　無料","website_url":null,"phone_number":"0595-52-2100","area":"三重県"}
{"id":15,"name":"ＯＲＩＢＥ美術館","location":"三重県四日市市安島２丁目４－１８","business_hours":"10：00 〜 17：00","admission_fees":"一般   ： 400円高・大生 ： 300円中学生以下 ：200円","website_url":null,"phone_number":"059-351-2147","area":"三重県"}
{"id":16,"name":"小坡美術館","location":"三重県伊勢市宇治浦田二丁目４－６５","business_hours":"9:30〜16:00","admission_fees":"一般   :300円高大生:200円小中生:100円","website_url":null,"phone_number":"0596-22-2554","area":"三重県"}
{"id":17,"name":"伊勢現代美術館","location":"三重県度会郡南伊勢町五ケ所浦湾場１０２－８","business_hours":"10：00〜17：00 (入館受付は16：30までとなります)","admission_fees":"一般700円、中高大生500円、小学生以下無料","website_url":null,"phone_number":"0599-66-1138","area":"三重県"}
{"id":18,"name":"澄懐堂美術館","location":"三重県四日市市水沢町２０１１","business_hours":"10：00〜16：00（入館は15：30まで）","admission_fees":"大人800円、高・大学生500円、小・中学生300円","website_url":null,"phone_number":"059-329-3335","area":"三重県"}
