{"id":4,"name":"小樽美術館","location":"北海道小樽市色内１－９－５","business_hours":"9：30〜17：00","admission_fees":"無料","website_url":null,"phone_number":"0134-34-0035","area":"北海道県県"}
{"id":1,"name":"函館美術館","location":"北海道函館市五稜郭町３７－６","business_hours":"9：30〜17：00※入場は16：30まで","admission_fees":"一般　260円高大生　150円※中学生以下無料","website_url":null,"phone_number":"0138-56-6311","area":"北海道県県"}
{"id":2,"name":"北海道立近代美術館","location":"北海道札幌市中央区北１条西１７","business_hours":"9：30〜17：00","admission_fees":"常設展　大人510円　高大生250円　※特別展は別途","website_url":null,"phone_number":"011-644-6881","area":"北海道県県"}
{"id":3,"name":"小樽芸術村","location":"北海道小樽市色内1丁目3-1　","business_hours":"美術館の営業時間5月-10月/9:30-17:0011月-4月/10:00-16:00※入場は閉館30分前まで営業時間は変わる可能性あり ミュージアムショップの営業時間5月-10月/9:30-18:00(土曜は20時まで)11月-4月/10:00-16:00 閉館日5月-10月の第四水曜日11月-4月の水曜日（水曜祝日の場合木曜日）年末年始　12/30-1/2展示の準備片付けなどによる不定期の閉館あり ミュージアムショップのみ年中無休","admission_fees":"4館共通券大人：2900円大学生：2000円高校生：1500円中学生：1000円小学生：500円 西洋美術館大人：1500円大学生：1000円高校生：700円中学生：500円小学生：300円 似鳥美術館大人：1500円大学生：1000円高校生：700円中学生：500円小学生：300円 ステンドグラス美術館大人：1000円大学生：800円高校生：600円中学生：500円小学生：300円 旧三井銀行小樽支店大人：700円大学生：500円高校生：400円中学生：300円小学生：200円 小樽市民の小中学生は無料","website_url":null,"phone_number":"0134-31-1033","area":"北海道県県"}
{"id":5,"name":"札幌芸術の森美術館","location":"北海道札幌市南区芸術の森２丁目７５","business_hours":"午前9時45分〜午後5時6〜8月は午後5時30分まで開館（入館は閉館の30分前まで）","admission_fees":"展示により異なる 札幌芸術の森野外美術館　大人700円、中学生以下は無料","website_url":null,"phone_number":"011-591-0090","area":"北海道県県"}
{"id":6,"name":"釧路湿原美術館","location":"北海道釧路市阿寒町上阿寒２３線３８－１８","business_hours":"[4〜10月]10：00〜17：00(入場16：30まで)[11〜3月]10：00〜16：00(入場15：30まで)","admission_fees":"大人500円、高・大学生300円、小・中学生（父母同伴）無料","website_url":null,"phone_number":"0154-66-1117","area":"北海道県県"}
{"id":7,"name":"木田金次郎美術館","location":"北海道岩内郡岩内町字万代５１－３","business_hours":"午前10時から午後6時まで（入館は午後5時30分まで）","admission_fees":"一般 　     500円   (400円)高校生　     200円   (150円）小・中学生　100円  （80円）（　）は団体料金（10名様以上、JAF割引・リピーター割引）","website_url":null,"phone_number":"0135-63-2221","area":"北海道県県"}
{"id":8,"name":"旭川美術館","location":"北海道旭川市常磐公園内","business_hours":"9:30 〜 17:00　（入場は16:30まで）","admission_fees":"■ 第1展示室(企画展)展覧会によって異なります。 ■ 第2展示室(所蔵品展)一般　260円高校・大学生　150円65歳以上の方　無料中学生以下　無料","website_url":null,"phone_number":"0166-25-2577","area":"北海道県県"}
{"id":9,"name":"帯広美術館","location":"北海道帯広市緑ケ丘２","business_hours":"9：30〜17：00","admission_fees":"コレクションギャラリー　一般：260円　高・大学生：150円","website_url":null,"phone_number":"0155-22-6963","area":"北海道県県"}
{"id":10,"name":"北のアルプ美術館","location":"北海道斜里郡斜里町朝日町１１－２","business_hours":"夏期　 6月〜10月　　午前10時から午後5時まで 冬期　11月〜 5月　　午前10時から午後4時まで","admission_fees":"無料","website_url":null,"phone_number":"0152-23-4000","area":"北海道県県"}
{"id":11,"name":"神田日勝記念美術館","location":"北海道河東郡鹿追町東町３丁目２","business_hours":"10：00〜17：00","admission_fees":"一般：520円高校生：310円小・中学生：210円障害者手帳等お持ちの方は無料","website_url":null,"phone_number":"0156-66-1555","area":"北海道県県"}
{"id":12,"name":"森の美術館・木夢","location":"北海道紋別郡西興部村字西興部２７６","business_hours":"夏期（4月〜10月）・・・１０：００〜１７：００ 冬期（11月〜3月）・・・１０：００〜１６：３０","admission_fees":"【1日利用券】高校生以上 500円 小学校４年生〜中学生 300円 ３歳〜小学３年生以下 100円","website_url":null,"phone_number":"0158-87-2600","area":"北海道県県"}
{"id":13,"name":"中原悌二郎記念旭川市彫刻美術館","location":"北海道旭川市春光５条７丁目","business_hours":"午前8時45分から午後5時15分まで※ 但し、改修工事のため平成２９年まで長期休館中。","admission_fees":"一般：３００円高校生：２００円中学生以下：無料","website_url":null,"phone_number":"0166-52-0033","area":"北海道県県"}
{"id":14,"name":"トリックアート美術館","location":"北海道空知郡上富良野町西８線北３３号深山峠","business_hours":"４月・９月・１０月・１１月 \\t9:00〜17:00５月・６月・７月・８月 \\t9:00〜18:00１２月・１月・２月・３月 \\t10:00〜16:00 入館は閉館の30分前まで","admission_fees":"大人1,300円、中高生1,000円、小学5年生以上700円、小学4年生以下無料","website_url":null,"phone_number":"0167-45-3788","area":"北海道県県"}
{"id":15,"name":"金田心象書道美術館","location":"北海道天塩郡幌延町幌延１０２－１","business_hours":"10：00〜16：00","admission_fees":"一般：300円小・中・高校生：150円","website_url":null,"phone_number":"01632-5-2720","area":"北海道県県"}
{"id":16,"name":"網走市立美術館","location":"北海道網走市南６条西１丁目","business_hours":"火曜日〜日曜日　午前10時〜午後４時","admission_fees":"高校生以上　 120円 小中学生 60円 ※土曜日は市内小中学生は無料 です。","website_url":null,"phone_number":"0152-44-5045","area":"北海道県県"}
{"id":17,"name":"後藤純男美術館","location":"北海道空知郡上富良野町東４線北２６号","business_hours":"9：00〜17：00（11月〜3月 9：00〜16：00）","admission_fees":"大人1000円、小〜高校生500円","website_url":null,"phone_number":"0167-45-6181","area":"北海道県県"}
{"id":19,"name":"三岸好太郎美術館","location":"北海道札幌市中央区北２条西１５丁目","business_hours":"9:30〜17:00（入館は16:30まで）","admission_fees":"大人510円、高大学生250円、中学生以下無料","website_url":null,"phone_number":"011-644-8901","area":"北海道県県"}
{"id":22,"name":"釧路市立美術館","location":"北海道釧路市幣舞町４－２８","business_hours":"10：00〜17：00","admission_fees":"展覧会ごとに設定","website_url":null,"phone_number":"0154-42-6116","area":"北海道県県"}
{"id":18,"name":"太陽の森ディマシオ幻想美術館","location":"北海道新冠郡新冠町字太陽２０４－５","business_hours":"2019年3月30日（土）〜2019年11月24日（日）※無休期間（定休日なし）4月25日（木）〜5月6日（日）、7月18日（木）〜9月29日（木） 9:30-16:30（16:30まで入館できます）※無休期間は9:00〜17:00（17:00まで入館できます）","admission_fees":"大人1,100円、高・大学生900円、中学生300円、小学生以下無料","website_url":null,"phone_number":"0146-45-3312","area":"北海道県県"}
{"id":20,"name":"小川原脩記念美術館","location":"北海道虻田郡倶知安町北６条東７丁目１","business_hours":"9:00〜17:00 ※入館時間は16:30まで","admission_fees":"一般 500円高校生 300円小中学生 100円","website_url":null,"phone_number":"0136-21-4141","area":"北海道県県"}
{"id":21,"name":"西村計雄記念美術館","location":"北海道岩内郡共和町南幌似１４３－２","business_hours":"9：00〜17：00","admission_fees":"一般：500円高校生：200円小・中学生：100円","website_url":null,"phone_number":"0135-71-2525","area":"北海道県県"}
{"id":23,"name":"室蘭市民美術館","location":"北海道室蘭市幸町６－２３","business_hours":"10：00〜17：00","admission_fees":"無料","website_url":null,"phone_number":"0143-22-1124","area":"北海道県県"}
{"id":24,"name":"伏木田光夫美術館","location":"北海道浦河郡浦河町字西幌別","business_hours":"午前９時から午後４時まで","admission_fees":"無料","website_url":null,"phone_number":"0146-28-1304","area":"北海道県県"}
{"id":25,"name":"本郷新記念札幌彫刻美術館","location":"北海道札幌市中央区宮の森４条１２丁目２","business_hours":"10:00〜17:00（入館は16:30まで）","admission_fees":"一般300円、65歳以上250円、高大生200円、中学生以下無料","website_url":null,"phone_number":"011-642-5709","area":"北海道県県"}
{"id":26,"name":"相原求一朗美術館","location":"北海道河西郡中札内村栄東５線１７３－１","business_hours":"4月下旬〜9月 10:00〜17:0010月〜11月上旬 10:00〜16:00","admission_fees":"大人(高校生以上) 500円、中学生 300円、小学生 300円","website_url":null,"phone_number":"0155-68-3003","area":"北海道県県"}
{"id":27,"name":"荒井記念美術館","location":"北海道岩内郡岩内町字野束５０５","business_hours":"ＡＭ９：００ 〜 ＰＭ１７：００　（入館はＰＭ１６：３０まで）","admission_fees":"一般1000円、高・大学生700円、小中学生400円","website_url":null,"phone_number":"0135-63-1111","area":"北海道県県"}
{"id":28,"name":"荒川版画美術館","location":"北海道標津郡中標津町字俣落２０００－８","business_hours":"10:00〜17:00","admission_fees":"無料","website_url":null,"phone_number":"0153-73-7151","area":"北海道県県"}
{"id":29,"name":"かたるべの森美術館","location":"北海道上川郡当麻町伊香牛２区","business_hours":"10：00〜15：00","admission_fees":"300円","website_url":null,"phone_number":"0166-84-2880","area":"北海道県県"}
{"id":30,"name":"函館美術館","location":"北海道函館市五稜郭町３７－６","business_hours":"9：30〜17：00※入場は16：30まで","admission_fees":"一般　260円高大生　150円※中学生以下無料","website_url":null,"phone_number":"0138-56-6311","area":"北海道県"}
{"id":31,"name":"北海道立近代美術館","location":"北海道札幌市中央区北１条西１７","business_hours":"9：30〜17：00","admission_fees":"常設展　大人510円　高大生250円　※特別展は別途","website_url":null,"phone_number":"011-644-6881","area":"北海道県"}
{"id":51,"name":"釧路市立美術館","location":"北海道釧路市幣舞町４－２８","business_hours":"10：00〜17：00","admission_fees":"展覧会ごとに設定","website_url":null,"phone_number":"0154-42-6116","area":"北海道県"}
{"id":53,"name":"伏木田光夫美術館","location":"北海道浦河郡浦河町字西幌別","business_hours":"午前９時から午後４時まで","admission_fees":"無料","website_url":null,"phone_number":"0146-28-1304","area":"北海道県"}
{"id":56,"name":"荒井記念美術館","location":"北海道岩内郡岩内町字野束５０５","business_hours":"ＡＭ９：００ 〜 ＰＭ１７：００　（入館はＰＭ１６：３０まで）","admission_fees":"一般1000円、高・大学生700円、小中学生400円","website_url":null,"phone_number":"0135-63-1111","area":"北海道県"}
{"id":57,"name":"荒川版画美術館","location":"北海道標津郡中標津町字俣落２０００－８","business_hours":"10:00〜17:00","admission_fees":"無料","website_url":null,"phone_number":"0153-73-7151","area":"北海道県"}
{"id":58,"name":"かたるべの森美術館","location":"北海道上川郡当麻町伊香牛２区","business_hours":"10：00〜15：00","admission_fees":"300円","website_url":null,"phone_number":"0166-84-2880","area":"北海道県"}
{"id":54,"name":"本郷新記念札幌彫刻美術館","location":"北海道札幌市中央区宮の森４条１２丁目２","business_hours":"10:00〜17:00（入館は16:30まで）","admission_fees":"一般300円、65歳以上250円、高大生200円、中学生以下無料","website_url":null,"phone_number":"011-642-5709","area":"北海道県"}
{"id":55,"name":"相原求一朗美術館","location":"北海道河西郡中札内村栄東５線１７３－１","business_hours":"4月下旬〜9月 10:00〜17:0010月〜11月上旬 10:00〜16:00","admission_fees":"大人(高校生以上) 500円、中学生 300円、小学生 300円","website_url":null,"phone_number":"0155-68-3003","area":"北海道県"}
{"id":32,"name":"小樽芸術村","location":"北海道小樽市色内1丁目3-1　","business_hours":"美術館の営業時間5月-10月/9:30-17:0011月-4月/10:00-16:00※入場は閉館30分前まで営業時間は変わる可能性あり ミュージアムショップの営業時間5月-10月/9:30-18:00(土曜は20時まで)11月-4月/10:00-16:00 閉館日5月-10月の第四水曜日11月-4月の水曜日（水曜祝日の場合木曜日）年末年始　12/30-1/2展示の準備片付けなどによる不定期の閉館あり ミュージアムショップのみ年中無休","admission_fees":"4館共通券大人：2900円大学生：2000円高校生：1500円中学生：1000円小学生：500円 西洋美術館大人：1500円大学生：1000円高校生：700円中学生：500円小学生：300円 似鳥美術館大人：1500円大学生：1000円高校生：700円中学生：500円小学生：300円 ステンドグラス美術館大人：1000円大学生：800円高校生：600円中学生：500円小学生：300円 旧三井銀行小樽支店大人：700円大学生：500円高校生：400円中学生：300円小学生：200円 小樽市民の小中学生は無料","website_url":null,"phone_number":"0134-31-1033","area":"北海道県"}
{"id":33,"name":"小樽美術館","location":"北海道小樽市色内１－９－５","business_hours":"9：30〜17：00","admission_fees":"無料","website_url":null,"phone_number":"0134-34-0035","area":"北海道県"}
{"id":34,"name":"札幌芸術の森美術館","location":"北海道札幌市南区芸術の森２丁目７５","business_hours":"午前9時45分〜午後5時6〜8月は午後5時30分まで開館（入館は閉館の30分前まで）","admission_fees":"展示により異なる 札幌芸術の森野外美術館　大人700円、中学生以下は無料","website_url":null,"phone_number":"011-591-0090","area":"北海道県"}
{"id":35,"name":"釧路湿原美術館","location":"北海道釧路市阿寒町上阿寒２３線３８－１８","business_hours":"[4〜10月]10：00〜17：00(入場16：30まで)[11〜3月]10：00〜16：00(入場15：30まで)","admission_fees":"大人500円、高・大学生300円、小・中学生（父母同伴）無料","website_url":null,"phone_number":"0154-66-1117","area":"北海道県"}
{"id":36,"name":"木田金次郎美術館","location":"北海道岩内郡岩内町字万代５１－３","business_hours":"午前10時から午後6時まで（入館は午後5時30分まで）","admission_fees":"一般 　     500円   (400円)高校生　     200円   (150円）小・中学生　100円  （80円）（　）は団体料金（10名様以上、JAF割引・リピーター割引）","website_url":null,"phone_number":"0135-63-2221","area":"北海道県"}
{"id":37,"name":"旭川美術館","location":"北海道旭川市常磐公園内","business_hours":"9:30 〜 17:00　（入場は16:30まで）","admission_fees":"■ 第1展示室(企画展)展覧会によって異なります。 ■ 第2展示室(所蔵品展)一般　260円高校・大学生　150円65歳以上の方　無料中学生以下　無料","website_url":null,"phone_number":"0166-25-2577","area":"北海道県"}
{"id":38,"name":"帯広美術館","location":"北海道帯広市緑ケ丘２","business_hours":"9：30〜17：00","admission_fees":"コレクションギャラリー　一般：260円　高・大学生：150円","website_url":null,"phone_number":"0155-22-6963","area":"北海道県"}
{"id":39,"name":"北のアルプ美術館","location":"北海道斜里郡斜里町朝日町１１－２","business_hours":"夏期　 6月〜10月　　午前10時から午後5時まで 冬期　11月〜 5月　　午前10時から午後4時まで","admission_fees":"無料","website_url":null,"phone_number":"0152-23-4000","area":"北海道県"}
{"id":40,"name":"神田日勝記念美術館","location":"北海道河東郡鹿追町東町３丁目２","business_hours":"10：00〜17：00","admission_fees":"一般：520円高校生：310円小・中学生：210円障害者手帳等お持ちの方は無料","website_url":null,"phone_number":"0156-66-1555","area":"北海道県"}
{"id":41,"name":"森の美術館・木夢","location":"北海道紋別郡西興部村字西興部２７６","business_hours":"夏期（4月〜10月）・・・１０：００〜１７：００ 冬期（11月〜3月）・・・１０：００〜１６：３０","admission_fees":"【1日利用券】高校生以上 500円 小学校４年生〜中学生 300円 ３歳〜小学３年生以下 100円","website_url":null,"phone_number":"0158-87-2600","area":"北海道県"}
{"id":42,"name":"中原悌二郎記念旭川市彫刻美術館","location":"北海道旭川市春光５条７丁目","business_hours":"午前8時45分から午後5時15分まで※ 但し、改修工事のため平成２９年まで長期休館中。","admission_fees":"一般：３００円高校生：２００円中学生以下：無料","website_url":null,"phone_number":"0166-52-0033","area":"北海道県"}
{"id":43,"name":"トリックアート美術館","location":"北海道空知郡上富良野町西８線北３３号深山峠","business_hours":"４月・９月・１０月・１１月 \\t9:00〜17:00５月・６月・７月・８月 \\t9:00〜18:00１２月・１月・２月・３月 \\t10:00〜16:00 入館は閉館の30分前まで","admission_fees":"大人1,300円、中高生1,000円、小学5年生以上700円、小学4年生以下無料","website_url":null,"phone_number":"0167-45-3788","area":"北海道県"}
{"id":44,"name":"金田心象書道美術館","location":"北海道天塩郡幌延町幌延１０２－１","business_hours":"10：00〜16：00","admission_fees":"一般：300円小・中・高校生：150円","website_url":null,"phone_number":"01632-5-2720","area":"北海道県"}
{"id":45,"name":"網走市立美術館","location":"北海道網走市南６条西１丁目","business_hours":"火曜日〜日曜日　午前10時〜午後４時","admission_fees":"高校生以上　 120円 小中学生 60円 ※土曜日は市内小中学生は無料 です。","website_url":null,"phone_number":"0152-44-5045","area":"北海道県"}
{"id":46,"name":"後藤純男美術館","location":"北海道空知郡上富良野町東４線北２６号","business_hours":"9：00〜17：00（11月〜3月 9：00〜16：00）","admission_fees":"大人1000円、小〜高校生500円","website_url":null,"phone_number":"0167-45-6181","area":"北海道県"}
{"id":47,"name":"太陽の森ディマシオ幻想美術館","location":"北海道新冠郡新冠町字太陽２０４－５","business_hours":"2019年3月30日（土）〜2019年11月24日（日）※無休期間（定休日なし）4月25日（木）〜5月6日（日）、7月18日（木）〜9月29日（木） 9:30-16:30（16:30まで入館できます）※無休期間は9:00〜17:00（17:00まで入館できます）","admission_fees":"大人1,100円、高・大学生900円、中学生300円、小学生以下無料","website_url":null,"phone_number":"0146-45-3312","area":"北海道県"}
{"id":48,"name":"三岸好太郎美術館","location":"北海道札幌市中央区北２条西１５丁目","business_hours":"9:30〜17:00（入館は16:30まで）","admission_fees":"大人510円、高大学生250円、中学生以下無料","website_url":null,"phone_number":"011-644-8901","area":"北海道県"}
{"id":49,"name":"小川原脩記念美術館","location":"北海道虻田郡倶知安町北６条東７丁目１","business_hours":"9:00〜17:00 ※入館時間は16:30まで","admission_fees":"一般 500円高校生 300円小中学生 100円","website_url":null,"phone_number":"0136-21-4141","area":"北海道県"}
{"id":50,"name":"西村計雄記念美術館","location":"北海道岩内郡共和町南幌似１４３－２","business_hours":"9：00〜17：00","admission_fees":"一般：500円高校生：200円小・中学生：100円","website_url":null,"phone_number":"0135-71-2525","area":"北海道県"}
{"id":52,"name":"室蘭市民美術館","location":"北海道室蘭市幸町６－２３","business_hours":"10：00〜17：00","admission_fees":"無料","website_url":null,"phone_number":"0143-22-1124","area":"北海道県"}
