{"id":4,"name":"篠山市立歴史美術館","location":"兵庫県丹波篠山市呉服町５３","business_hours":"9:00〜17:00（受付は16:30まで）","admission_fees":"大人300円、高大生200円、中学生100円","website_url":null,"phone_number":"079-552-0601","area":"兵庫県"}
{"id":1,"name":"兵庫県立美術館","location":"兵庫県神戸市中央区脇浜海岸通１－１－１","business_hours":"10：00〜18：00（入場は17：30まで）※特別展会期中の金曜日と土曜日は夜間開館　10：00〜20：00（入場は19：30まで）","admission_fees":"県美プレミアム展（常設展）観覧料 \\t 大人\\t　　　　510円\\t65歳以上　　255円\\t大学生　　　410円\\t高校生　　　260円。 ・中学生以下無料。  ・障がいのある方は各観覧料金の半額、その介護者(１名)は無料。","website_url":null,"phone_number":"078-262-0901","area":"兵庫県"}
{"id":2,"name":"姫路市立美術館","location":"兵庫県姫路市本町６８－２５","business_hours":"午前10時〜午後５時（開門は９時より）","admission_fees":"一般200円\\t大高生150円\\t中小生100円どんぐりカード、ココロンカード、姫路市高齢者福祉優待カードの提示により常設展は無料入場可能。","website_url":null,"phone_number":"079-222-2288","area":"兵庫県"}
{"id":3,"name":"中浜稔猫美術館","location":"兵庫県淡路市浦６６８－２","business_hours":"開館時間：10：00〜18：00(入館は17：30まで)","admission_fees":"入館料：大人600円（540円）(★480円)　　　　生徒300円（270円）(★240円)　　　　児童200円（180円）(★160円)生徒とは高等学校、中学校及びこれらに準ずる学校の生徒。児童とは小学校及びこれらに準ずる学校の児童。※特別展の時は別に入館料を定めます。 ※障害者手帳のご提示で2割引になります。・・(★)内金額","website_url":null,"phone_number":"0799-75-2011","area":"兵庫県"}
{"id":5,"name":"小磯記念美術館","location":"兵庫県神戸市東灘区向洋町中５丁目７","business_hours":"10:00-17:00※入館は閉館30分前まで","admission_fees":"一般200円高校・大学生150円小学・中学以下100円","website_url":null,"phone_number":"078-857-5880","area":"兵庫県"}
{"id":6,"name":"兵庫県立美術館王子分館","location":"兵庫県神戸市灘区原田通３丁目８－３０","business_hours":"10：00〜18：00","admission_fees":"展覧会ごとに異なる","website_url":null,"phone_number":"078-801-1591","area":"兵庫県"}
{"id":7,"name":"伊藤清永美術館","location":"兵庫県豊岡市出石町内町９８","business_hours":"午前9時30分〜午後5時（ただし入館は午後4時30分まで）","admission_fees":"常設展期間中の料金　　　　　大人一般\\t500円ＪＡＦ会員証400円※会員証をご提示ください。　但馬ﾌｧﾝｸﾗﾌﾞ400円　※会員証をご提示ください。大学生・高校生\\t300円　※1中学生以下\\t無料障害者手帳をお持ちの方\\t250円　※265歳以上の方\\t250円　※4※1……大学生・高校生の方は、受付にて学生証・生徒手帳をご提示ください。 ※2……障害者手帳をお持ちの方は、受付にて身体障害者手帳、療育手帳、精神障害者保健福祉手帳をご提示ください。障害者手帳をお持ちで、学生の方は半額（常設展の場合は150円）になります。 ※3……65歳以上の方は、受付にて年齢のわかる証明書（運転免許証、保険証など）をご提示ください。","website_url":null,"phone_number":"0796-52-5456","area":"兵庫県"}
{"id":8,"name":"兵庫陶芸美術館","location":"兵庫県丹波篠山市今田町上立杭４","business_hours":"午前10時〜午後6時※ただし、ゴールデンウィーク期間 (4月29日〜5月5日) ：午前10時〜午後7時、　7〜8月の土曜日と日曜日：午前9時30分〜午後7時  ※いずれも入館は閉館の30分前までです","admission_fees":"展覧会ごとに異なります","website_url":null,"phone_number":"079-597-3961","area":"兵庫県"}
{"id":9,"name":"神戸ファッション美術館","location":"兵庫県神戸市東灘区向洋町中２－９－１","business_hours":"10：00〜18：00","admission_fees":"一般：500円、小・中学・高校生・65歳以上：250円","website_url":null,"phone_number":"078-858-0050","area":"兵庫県"}
{"id":10,"name":"神戸ゆかりの美術館","location":"兵庫県神戸市東灘区向洋町中２－９－１","business_hours":"10：00〜17：00（入館は16：30まで）","admission_fees":"山本二三展リターンズ（7/16〜9/4）一般：900円　大・高校生：700円　中・高校生：400円＊神戸市、隣接6市1町、淡路3市、鳴門市、徳島市の小中学生：全額免除＊神戸市すこやかカード提示：一般の半額＊障害者手帳等お持ちの方と介護者1名：無料","website_url":null,"phone_number":"078-858-1520","area":"兵庫県"}
{"id":11,"name":"西宮市大谷記念美術館","location":"兵庫県西宮市中浜町４－３８","business_hours":"10：00〜17：00（入館は16：30まで）","admission_fees":"展覧会の規模によりそのつど定めます","website_url":null,"phone_number":"0798-33-0164","area":"兵庫県"}
{"id":12,"name":"あさご芸術の森美術館","location":"兵庫県朝来市多々良木７３９－３","business_hours":"【9月〜5月】 10:00〜17:00【6月〜8月】 10:00〜18:00　（入館は閉館30分前まで）","admission_fees":"大人：500円高校生・大学生：300円小中学生：200円 障がい者手帳の提示で本人及び同伴者1名無料","website_url":null,"phone_number":"079-670-4111","area":"兵庫県"}
{"id":13,"name":"植野記念美術館","location":"兵庫県丹波市氷上町西中６１５－４","business_hours":"10:00〜17:00","admission_fees":"大人 300円大高生 210円小中生 100円","website_url":null,"phone_number":"0795-82-5945","area":"兵庫県"}
{"id":19,"name":"円山川公苑美術館","location":"兵庫県豊岡市小島１１６３","business_hours":"9:00〜17:00","admission_fees":"企 画 展　大人 360円(310円)　65歳以上・高校生180円(150円)・中学生以下無料常 設 展　大人 210円(150円)　65歳以上・高校生 100円(80円) ・中学生以下無料","website_url":null,"phone_number":"0796-28-3085","area":"兵庫県"}
{"id":14,"name":"香雪美術館","location":"兵庫県神戸市東灘区御影郡家2-12-1","business_hours":"AM10：00〜PM5：00（ご入館はPM4：30まで）","admission_fees":"展覧会（香雪美術館のコレクション展と企画展）によって料金が異なります《コレクション展》大人\\t700円（550円）、《企画展》800円（600円）《コレクション展》大高生450円（350円）\\t《企画展》500円（400円）・中学生以下無料・（ ）内は団体料金、団体割引は20名以上","website_url":null,"phone_number":"078-841-0652","area":"兵庫県"}
{"id":15,"name":"堀光美術館","location":"兵庫県三木市上の丸町４－５","business_hours":"10:00〜17:00　（入館は16:30まで）","admission_fees":"無料 （ただし、特別展の場合は有料）","website_url":null,"phone_number":"0794-82-9945","area":"兵庫県"}
{"id":16,"name":"伊丹市立美術館","location":"兵庫県伊丹市宮ノ前２丁目５－２０","business_hours":"10時〜18時","admission_fees":"一般 200円 高大生 150円 小中生 100円","website_url":null,"phone_number":"072-772-7447","area":"兵庫県"}
{"id":17,"name":"神戸北野美術館","location":"兵庫県神戸市中央区北野町2-9-6","business_hours":"9時30分〜17時30分（入館は17：00まで）","admission_fees":"大人（中学生以上）500円　小学生300円","website_url":null,"phone_number":"078-251-0581","area":"兵庫県"}
{"id":20,"name":"但陽美術館","location":"兵庫県朝来市生野町口銀谷５３８","business_hours":"9：00〜17：00","admission_fees":"但陽信金に確認","website_url":null,"phone_number":"079-679-2559","area":"兵庫県"}
{"id":18,"name":"滝川記念美術館玉青館","location":"兵庫県南あわじ市松帆西路１１３７－１","business_hours":"9：00〜17：00（入館16：30まで）","admission_fees":"一般大人         300円高・大学生 200円小・中学生 100円団体大人         240円高・大学生 160円小・中学生   80円※特別展は別に定めることがあります。","website_url":null,"phone_number":"0799-36-2314","area":"兵庫県"}
{"id":21,"name":"城崎美術館","location":"兵庫県豊岡市城崎町湯島９８５－２","business_hours":"午前9：00〜午後4：30","admission_fees":"大人300円、小学生以下無料","website_url":null,"phone_number":"0796-32-2851","area":"兵庫県"}
{"id":22,"name":"加東アート館","location":"兵庫県加東市下滝野１２６９－２","business_hours":"情報なし","admission_fees":"情報なし","website_url":null,"phone_number":"0795-48-4915","area":"兵庫県"}
{"id":23,"name":"エンバ中国近代美術館","location":"兵庫県芦屋市奥池町１２－１","business_hours":"会期中10時〜16時※入館は15時３0分まで","admission_fees":"一般800円、シニア500円、高・大学生400円、中学生以下無料","website_url":null,"phone_number":"0797-38-0021","area":"兵庫県"}
{"id":24,"name":"頴川美術館","location":"兵庫県西宮市上甲東園１－１０－４０","business_hours":"10時〜16時　(入館は15時30分までに)","admission_fees":"大人600円、大 学 生400円、専門学生400円、70歳以上300円*小・中・高校生は無料","website_url":null,"phone_number":"0798-51-3915","area":"兵庫県"}
{"id":25,"name":"宝塚市立文化芸術センター","location":"兵庫県宝塚市武庫川町７－６４","business_hours":"情報なし","admission_fees":"情報なし","website_url":null,"phone_number":"0797-62-6800","area":"兵庫県"}
