{"id":1,"name":"尾道市立美術館","location":"広島県尾道市西土堂町１７－１９","business_hours":"9時00分〜17時00分(入館は16時30分まで)","admission_fees":"特別展・企画展ごとにお問い合わせ下さい。","website_url":null,"phone_number":"0848-23-2281","area":"広島県県"}
{"id":2,"name":"広島県立美術館","location":"広島県広島市中区上幟町２－２２","business_hours":"9：00〜17：00（2016/4/1〜10/30の金曜は20：00まで）（2016/10/31〜2017/3/31の金曜は19：00まで）","admission_fees":"一般：510円大学生：310円高校生以下：無料65歳以上の方・障害者手帳等お持ちの方と介護者1名・県内の大学に在学する留学生等：無料","website_url":null,"phone_number":"082-221-6246","area":"広島県県"}
{"id":3,"name":"ふくやま美術館","location":"広島県福山市西町２丁目４－３","business_hours":"9：30〜17：00","admission_fees":"一般：300円高校生以下：無料","website_url":null,"phone_number":"084-932-2345","area":"広島県県"}
{"id":8,"name":"平山郁夫美術館","location":"広島県尾道市瀬戸田町沢２００－２","business_hours":"9：00〜17：00 （入館は16：30まで）","admission_fees":"一般900円、高・大学生400円、小・中学生200円","website_url":null,"phone_number":"0845-27-3800","area":"広島県県"}
{"id":9,"name":"三良坂平和美術館","location":"広島県三次市三良坂町三良坂２８２５","business_hours":"9:00〜17:00　（入館は16:30まで）","admission_fees":"一般：150円 高校生以下：無料65歳以上の方：無料障がい者手帳お持ちの方と介助者：無料","website_url":null,"phone_number":"0824-44-3214","area":"広島県県"}
{"id":10,"name":"呉市立美術館","location":"広島県呉市幸町","business_hours":"10:00〜17:00（入館は16:30まで）","admission_fees":"一般:300円高校生:180円小・中学生:120円","website_url":null,"phone_number":"0823-25-2007","area":"広島県県"}
{"id":11,"name":"下瀬美術館","location":"広島県大竹市晴海2丁目10-50","business_hours":"情報なし","admission_fees":"情報なし","website_url":null,"phone_number":"情報なし","area":"広島県県"}
{"id":12,"name":"東広島市立美術館","location":"広島県東広島市八本松南２丁目１－３","business_hours":"午前１０時〜午後５時(入館は午後４時３０分まで)","admission_fees":"？ 所蔵作品展一般  100円大学生　70円高校生以下　無料","website_url":null,"phone_number":"082-428-5713","area":"広島県県"}
{"id":13,"name":"ふくやま書道美術館","location":"広島県福山市西町１丁目１－１","business_hours":"10：00〜19：00","admission_fees":"一般150円高校生以下無料","website_url":null,"phone_number":"084-991-5112","area":"広島県県"}
{"id":14,"name":"ウッドワン美術館","location":"広島県廿日市市吉和４２７８","business_hours":"10：00 〜 17：00　※入館は16：30まで","admission_fees":"■ 企画展一　般　1,200円、高大生　600円 ■ 特別展一　般　1,400円、高大生　700円  ※中学生以下無料","website_url":null,"phone_number":"0829-40-3001","area":"広島県県"}
{"id":15,"name":"かぐや姫美術館","location":"広島県竹原市忠海床浦２丁目１２－８","business_hours":"10時00分から16時00分","admission_fees":"無料","website_url":null,"phone_number":"0846-26-0982","area":"広島県県"}
{"id":16,"name":"海の見える杜美術館","location":"広島県廿日市市大野亀ケ岡７０１","business_hours":"10：00〜17：00（入館は16：30まで）","admission_fees":"一般1,000円、高・大学生500円、中学生以下無料","website_url":null,"phone_number":"0829-56-3221","area":"広島県県"}
{"id":17,"name":"中川美術館","location":"広島県福山市熊野町","business_hours":"10:00〜16:00","admission_fees":"大人:900円、大学生:900円、高校生:900円、中学生:300円、小学生:300円","website_url":null,"phone_number":"084-959-1248","area":"広島県県"}
{"id":18,"name":"尾道市立美術館","location":"広島県尾道市西土堂町１７－１９","business_hours":"9時00分〜17時00分(入館は16時30分まで)","admission_fees":"特別展・企画展ごとにお問い合わせ下さい。","website_url":null,"phone_number":"0848-23-2281","area":"広島県"}
{"id":20,"name":"ふくやま美術館","location":"広島県福山市西町２丁目４－３","business_hours":"9：30〜17：00","admission_fees":"一般：300円高校生以下：無料","website_url":null,"phone_number":"084-932-2345","area":"広島県"}
{"id":4,"name":"広島市現代美術館","location":"広島県広島市南区比治山公園１－１","business_hours":"10：00〜17：00（19：00まで延長日あり）","admission_fees":"コレクション展　一般：370円　大学生：270円　高校生・65歳以上：170円　中学生以下・障害者手帳等お持ちの方と介護者1名・留学生・引率者・土曜日の高校生：無料","website_url":null,"phone_number":"082-264-1121","area":"広島県県"}
{"id":19,"name":"広島県立美術館","location":"広島県広島市中区上幟町２－２２","business_hours":"9：00〜17：00（2016/4/1〜10/30の金曜は20：00まで）（2016/10/31〜2017/3/31の金曜は19：00まで）","admission_fees":"一般：510円大学生：310円高校生以下：無料65歳以上の方・障害者手帳等お持ちの方と介護者1名・県内の大学に在学する留学生等：無料","website_url":null,"phone_number":"082-221-6246","area":"広島県"}
{"id":21,"name":"広島市現代美術館","location":"広島県広島市南区比治山公園１－１","business_hours":"10：00〜17：00（19：00まで延長日あり）","admission_fees":"コレクション展　一般：370円　大学生：270円　高校生・65歳以上：170円　中学生以下・障害者手帳等お持ちの方と介護者1名・留学生・引率者・土曜日の高校生：無料","website_url":null,"phone_number":"082-264-1121","area":"広島県"}
{"id":22,"name":"ひろしま美術館","location":"広島県広島市中区基町3-2","business_hours":"9:00〜17:00※入館は16:30まで","admission_fees":"一般：600円高・大学生：300円小・中学生：120円※65歳以上の方は一般当日料金の半額（300円）※メンバーズ制度加盟校の学生・教職員の方は無料","website_url":null,"phone_number":"082-223-2530","area":"広島県"}
{"id":23,"name":"招き猫美術館","location":"広島県尾道市東土堂町19－36","business_hours":"11時〜17時（土日祝10時〜）","admission_fees":"大人：100円その他：小学生未満無料","website_url":null,"phone_number":"0848-25-2201","area":"広島県"}
{"id":24,"name":"奥田元宋・小由女美術館","location":"広島県三次市東酒屋町４５３－６","business_hours":"■開館時間 ： ９：３０〜１７：００\\t（入館は閉館時間の30分前まで）　　　　　　　 　※満月の夜は開館時間を延長(2016年度の開館延長日程）","admission_fees":"大人800円大学生400円高校生・中学生・小学生　無料","website_url":null,"phone_number":"0824-65-0010","area":"広島県"}
{"id":25,"name":"平山郁夫美術館","location":"広島県尾道市瀬戸田町沢２００－２","business_hours":"9：00〜17：00 （入館は16：30まで）","admission_fees":"一般900円、高・大学生400円、小・中学生200円","website_url":null,"phone_number":"0845-27-3800","area":"広島県"}
{"id":26,"name":"三良坂平和美術館","location":"広島県三次市三良坂町三良坂２８２５","business_hours":"9:00〜17:00　（入館は16:30まで）","admission_fees":"一般：150円 高校生以下：無料65歳以上の方：無料障がい者手帳お持ちの方と介助者：無料","website_url":null,"phone_number":"0824-44-3214","area":"広島県"}
{"id":27,"name":"呉市立美術館","location":"広島県呉市幸町","business_hours":"10:00〜17:00（入館は16:30まで）","admission_fees":"一般:300円高校生:180円小・中学生:120円","website_url":null,"phone_number":"0823-25-2007","area":"広島県"}
{"id":28,"name":"下瀬美術館","location":"広島県大竹市晴海2丁目10-50","business_hours":"情報なし","admission_fees":"情報なし","website_url":null,"phone_number":"情報なし","area":"広島県"}
{"id":5,"name":"ひろしま美術館","location":"広島県広島市中区基町3-2","business_hours":"9:00〜17:00※入館は16:30まで","admission_fees":"一般：600円高・大学生：300円小・中学生：120円※65歳以上の方は一般当日料金の半額（300円）※メンバーズ制度加盟校の学生・教職員の方は無料","website_url":null,"phone_number":"082-223-2530","area":"広島県県"}
{"id":6,"name":"招き猫美術館","location":"広島県尾道市東土堂町19－36","business_hours":"11時〜17時（土日祝10時〜）","admission_fees":"大人：100円その他：小学生未満無料","website_url":null,"phone_number":"0848-25-2201","area":"広島県県"}
{"id":7,"name":"奥田元宋・小由女美術館","location":"広島県三次市東酒屋町４５３－６","business_hours":"■開館時間 ： ９：３０〜１７：００\\t（入館は閉館時間の30分前まで）　　　　　　　 　※満月の夜は開館時間を延長(2016年度の開館延長日程）","admission_fees":"大人800円大学生400円高校生・中学生・小学生　無料","website_url":null,"phone_number":"0824-65-0010","area":"広島県県"}
{"id":29,"name":"東広島市立美術館","location":"広島県東広島市八本松南２丁目１－３","business_hours":"午前１０時〜午後５時(入館は午後４時３０分まで)","admission_fees":"？ 所蔵作品展一般  100円大学生　70円高校生以下　無料","website_url":null,"phone_number":"082-428-5713","area":"広島県"}
{"id":30,"name":"ふくやま書道美術館","location":"広島県福山市西町１丁目１－１","business_hours":"10：00〜19：00","admission_fees":"一般150円高校生以下無料","website_url":null,"phone_number":"084-991-5112","area":"広島県"}
{"id":31,"name":"ウッドワン美術館","location":"広島県廿日市市吉和４２７８","business_hours":"10：00 〜 17：00　※入館は16：30まで","admission_fees":"■ 企画展一　般　1,200円、高大生　600円 ■ 特別展一　般　1,400円、高大生　700円  ※中学生以下無料","website_url":null,"phone_number":"0829-40-3001","area":"広島県"}
{"id":32,"name":"かぐや姫美術館","location":"広島県竹原市忠海床浦２丁目１２－８","business_hours":"10時00分から16時00分","admission_fees":"無料","website_url":null,"phone_number":"0846-26-0982","area":"広島県"}
{"id":33,"name":"海の見える杜美術館","location":"広島県廿日市市大野亀ケ岡７０１","business_hours":"10：00〜17：00（入館は16：30まで）","admission_fees":"一般1,000円、高・大学生500円、中学生以下無料","website_url":null,"phone_number":"0829-56-3221","area":"広島県"}
{"id":34,"name":"中川美術館","location":"広島県福山市熊野町","business_hours":"10:00〜16:00","admission_fees":"大人:900円、大学生:900円、高校生:900円、中学生:300円、小学生:300円","website_url":null,"phone_number":"084-959-1248","area":"広島県"}
