{"id":7,"name":"佐賀県立美術館","location":"佐賀県佐賀市城内１－１５－２３","business_hours":"9時30分〜18時","admission_fees":"常設展示一般並びに高校生以下・障害者無料当館主催企画展別に定める額","website_url":null,"phone_number":"0952-24-3947","area":"佐賀県県"}
{"id":8,"name":"有田陶磁美術館","location":"佐賀県西松浦郡有田町大樽１丁目４－２","business_hours":"午前9時〜午後4時30分","admission_fees":"大 人100円大高生50円 小中生30円","website_url":null,"phone_number":"0955-42-3372","area":"佐賀県県"}
{"id":1,"name":"佐賀県立美術館","location":"佐賀県佐賀市城内１－１５－２３","business_hours":"9時30分〜18時","admission_fees":"常設展示一般並びに高校生以下・障害者無料当館主催企画展別に定める額","website_url":null,"phone_number":"0952-24-3947","area":"佐賀県県県県県"}
{"id":2,"name":"有田陶磁美術館","location":"佐賀県西松浦郡有田町大樽１丁目４－２","business_hours":"午前9時〜午後4時30分","admission_fees":"大 人100円大高生50円 小中生30円","website_url":null,"phone_number":"0955-42-3372","area":"佐賀県県県県県"}
{"id":3,"name":"佐賀県立美術館","location":"佐賀県佐賀市城内１－１５－２３","business_hours":"9時30分〜18時","admission_fees":"常設展示一般並びに高校生以下・障害者無料当館主催企画展別に定める額","website_url":null,"phone_number":"0952-24-3947","area":"佐賀県県県県"}
{"id":4,"name":"有田陶磁美術館","location":"佐賀県西松浦郡有田町大樽１丁目４－２","business_hours":"午前9時〜午後4時30分","admission_fees":"大 人100円大高生50円 小中生30円","website_url":null,"phone_number":"0955-42-3372","area":"佐賀県県県県"}
{"id":5,"name":"佐賀県立美術館","location":"佐賀県佐賀市城内１－１５－２３","business_hours":"9時30分〜18時","admission_fees":"常設展示一般並びに高校生以下・障害者無料当館主催企画展別に定める額","website_url":null,"phone_number":"0952-24-3947","area":"佐賀県県県"}
{"id":6,"name":"有田陶磁美術館","location":"佐賀県西松浦郡有田町大樽１丁目４－２","business_hours":"午前9時〜午後4時30分","admission_fees":"大 人100円大高生50円 小中生30円","website_url":null,"phone_number":"0955-42-3372","area":"佐賀県県県"}
{"id":9,"name":"佐賀県立美術館","location":"佐賀県佐賀市城内１－１５－２３","business_hours":"9時30分〜18時","admission_fees":"常設展示一般並びに高校生以下・障害者無料当館主催企画展別に定める額","website_url":null,"phone_number":"0952-24-3947","area":"佐賀県"}
{"id":10,"name":"有田陶磁美術館","location":"佐賀県西松浦郡有田町大樽１丁目４－２","business_hours":"午前9時〜午後4時30分","admission_fees":"大 人100円大高生50円 小中生30円","website_url":null,"phone_number":"0955-42-3372","area":"佐賀県"}
