{"id":1,"name":"福島県立美術館","location":"福島県福島市森合字西養山１","business_hours":"9：30〜17：00（最終入館は16：30まで）","admission_fees":"【常設展】一般・大学生　270円高校生以下　無料 【企画展】展覧会ごとに異なります。","website_url":null,"phone_number":"024-531-5511","area":"福島県"}
{"id":2,"name":"諸橋近代美術館","location":"福島県耶麻郡北塩原村檜原字剣ヶ峰1093番23","business_hours":"【4/20-11/30】9:30-17:30 １１月は17：00閉館入館は閉館時間の３０分前まで","admission_fees":"一般　950円高校・大学生　500円小・中学生　無料","website_url":null,"phone_number":"0241-37-1088","area":"福島県"}
{"id":3,"name":"いわき市立美術館","location":"福島県いわき市平字堂根町４－４","business_hours":"9:30〜17:00　（展示室への入場は16:30まで） 【7月、8月の毎週金曜日】 9:30〜20:00　（展示室への入場は19:30まで）","admission_fees":"一般：210円高校・高専・大学生：150円小・中学生：70円","website_url":null,"phone_number":"0246-25-1111","area":"福島県"}
{"id":4,"name":"福島片岡鶴太郎美術庭園","location":"福島県福島市飯坂町字銀杏1-13","business_hours":"9：00〜17：00（1月〜3月は9：00〜16：00）","admission_fees":"一般・大学生：950円中高生：700円小学生以下：無料（同伴者必要）","website_url":null,"phone_number":"024-542-0555","area":"福島県"}
{"id":5,"name":"斎藤清美術館","location":"福島県河沼郡柳津町柳津字下平乙１８７","business_hours":"9:00〜16:30","admission_fees":"大人　510円高･大学生　300円※中学生以下無料。障害者割引あり(要証明書)","website_url":null,"phone_number":"0241-42-3630","area":"福島県"}
{"id":6,"name":"尾瀬写真美術館","location":"福島県南会津郡檜枝岐村字左通１２４－６","business_hours":"情報なし","admission_fees":"情報なし","website_url":null,"phone_number":"0241-75-2065","area":"福島県"}
{"id":7,"name":"喜多方市美術館","location":"福島県喜多方市押切２丁目２","business_hours":"10:00〜18:00入館は、17:30迄","admission_fees":"一般    300円大学生、高校生      200円小学生、中学生      100円展示会により変更有。","website_url":null,"phone_number":"0241-23-0404","area":"福島県"}
{"id":8,"name":"郡山市立美術館","location":"福島県郡山市安原町字大谷地１３０－２","business_hours":"9:30-17:00","admission_fees":"常設展一般　200円高・大生　100円小中学生　無料","website_url":null,"phone_number":"024-956-2200","area":"福島県"}
{"id":9,"name":"福島市写真美術館","location":"福島県福島市森合町１１－３６","business_hours":"午前9時から午後4時30分まで","admission_fees":"無料ただし、企画展開催中はその都度主催者が定めた料金になります。","website_url":null,"phone_number":"024-523-1201","area":"福島県"}
{"id":13,"name":"あぶくま高原美術館","location":"福島県東白川郡塙町大字那倉字吉元８６－２","business_hours":"情報なし","admission_fees":"情報なし","website_url":null,"phone_number":"0247-42-2510","area":"福島県"}
{"id":10,"name":"梁川美術館","location":"福島県伊達市梁川町中町１０","business_hours":"9時30分〜17時(最終入館は16時30分)","admission_fees":"一般200円高校生・大学生100円小・中学生50円無料開放日：毎月第3日曜日（市民）、毎週土曜日（小・中学生）","website_url":null,"phone_number":"024-527-2656","area":"福島県"}
{"id":11,"name":"妖精美術館","location":"福島県大沼郡金山町大字大栗山狐穴２７６５","business_hours":"9:00〜17:00","admission_fees":"大人(高校生以上)　300円小･中学生　200円※小学生未満無料","website_url":null,"phone_number":"0241-55-3180","area":"福島県"}
{"id":12,"name":"大山忠作美術館","location":"福島県二本松市本町２丁目３－１","business_hours":"午前９時３０分〜午後５時（入館は午後４時３０分まで）","admission_fees":"一般410円、高校生以下200円、未就学児無料","website_url":null,"phone_number":"0243-24-1217","area":"福島県"}
{"id":14,"name":"川俣町美術館","location":"福島県伊達郡川俣町大字西福沢山枡内２０","business_hours":"午前10時から午後4時","admission_fees":"大人100円、小学生から高校生50円、未就学児無料","website_url":null,"phone_number":"024-566-3367","area":"福島県"}
{"id":15,"name":"可月亭庭園美術館","location":"福島県会津若松市材木町２丁目５－７","business_hours":"午前１０時〜午後５時","admission_fees":"・庭園＋美術展示のセット　400円・庭園のみ　200円・美術展示のみ　300円（18歳未満は半額となります。）","website_url":null,"phone_number":"0242-27-2857","area":"福島県"}
{"id":16,"name":"東北電力奥会津水力館みお里","location":"福島県大沼郡金山町大字中川字上居平９３３","business_hours":"情報なし","admission_fees":"情報なし","website_url":null,"phone_number":"0241-42-7771","area":"福島県"}
