{"id":1,"name":"長崎県美術館","location":"長崎県長崎市出島町２－１","business_hours":"開館時間：10:00〜20:00（事業により時間を変更することがあります。）","admission_fees":"入館無料 コレクション展　観覧料金一般400円大学生300円小中高生200円シニア(70歳以上)300円","website_url":null,"phone_number":"095-833-2110","area":"長崎県県"}
{"id":2,"name":"雲仙ビードロ美術館","location":"長崎県雲仙市小浜町雲仙３２０","business_hours":"9：00〜18：00","admission_fees":"大人：700円中高生：500円小学生：300円幼児：無料","website_url":null,"phone_number":"0957-73-3133","area":"長崎県県"}
{"id":3,"name":"野口彌太郎記念美術館","location":"長崎県長崎市平野町７－８","business_hours":"午前9時〜午後5時（入館は、午後4時30分まで）","admission_fees":"一般：100円／団体80円小学生・中学生：50円／団体30円団体は15人以上の場合となります。","website_url":null,"phone_number":"095-843-8209","area":"長崎県県"}
{"id":4,"name":"ハウステンボス美術館","location":"長崎県佐世保市ハウステンボス町1-1","business_hours":"10:00‐18:00（ハウステンボスの営業時間により変動）","admission_fees":"ハウステンボスのパスポートをお持ちの方のみ利用が可能です。","website_url":null,"phone_number":"情報なし","area":"長崎県県"}
{"id":5,"name":"長崎県美術館","location":"長崎県長崎市出島町２－１","business_hours":"開館時間：10:00〜20:00（事業により時間を変更することがあります。）","admission_fees":"入館無料 コレクション展　観覧料金一般400円大学生300円小中高生200円シニア(70歳以上)300円","website_url":null,"phone_number":"095-833-2110","area":"長崎県"}
{"id":6,"name":"雲仙ビードロ美術館","location":"長崎県雲仙市小浜町雲仙３２０","business_hours":"9：00〜18：00","admission_fees":"大人：700円中高生：500円小学生：300円幼児：無料","website_url":null,"phone_number":"0957-73-3133","area":"長崎県"}
{"id":7,"name":"野口彌太郎記念美術館","location":"長崎県長崎市平野町７－８","business_hours":"午前9時〜午後5時（入館は、午後4時30分まで）","admission_fees":"一般：100円／団体80円小学生・中学生：50円／団体30円団体は15人以上の場合となります。","website_url":null,"phone_number":"095-843-8209","area":"長崎県"}
{"id":8,"name":"ハウステンボス美術館","location":"長崎県佐世保市ハウステンボス町1-1","business_hours":"10:00‐18:00（ハウステンボスの営業時間により変動）","admission_fees":"ハウステンボスのパスポートをお持ちの方のみ利用が可能です。","website_url":null,"phone_number":"情報なし","area":"長崎県"}
