{"id":1,"name":"福井市美術館","location":"福井県福井市下馬３丁目１１１１","business_hours":"開館時間:午前9時〜午後5時15分(入館は午後4時45分まで)","admission_fees":"常設展:一般,大・高校生   100円団体(20名以上)               50円中学生以下、70歳以上、障害者の方は無料企画展:展覧会によって異なります。","website_url":null,"phone_number":"0776-33-2990","area":"福井県県"}
{"id":2,"name":"愛宕坂茶道美術館","location":"福井県福井市足羽１丁目８－５","business_hours":"９時３０分から１６時３０分（入館は１６時まで）","admission_fees":"※企画展により異なる中学生以下無料","website_url":null,"phone_number":"0776-33-3933","area":"福井県県"}
{"id":3,"name":"ちひろの生まれた家　記念館","location":"福井県越前市天王町４－14","business_hours":"10:00〜16:00","admission_fees":"一般300円（高校生以下は無料）","website_url":null,"phone_number":"0778-66-7112","area":"福井県県"}
{"id":4,"name":"福井県立美術館","location":"福井県福井市文京３丁目１６－１","business_hours":"午前9時〜午後5時 (入館は午後4時30分まで)","admission_fees":"●常設展（所蔵品によるテーマ展）：　　一般・大学生　100円　（20名以上の団体は2割引）　　高校生以下、70歳以上、障害者手帳等をお持ちの方は無料。 　　＊ただし企画展開催中は、その鑑覧券でご覧いただけます。　　＊毎月第3日曜日「家庭の日」、2月7日「ふるさとの日」はテーマ展のみ無料開放。●企画展：そのつど定める料金による。","website_url":null,"phone_number":"0776-25-0452","area":"福井県県"}
{"id":5,"name":"熊川宿若狭美術館","location":"福井県三方上中郡若狭町熊川39-5-1","business_hours":"10:00~16:30","admission_fees":"通常時: 無料特別展示料: 有料","website_url":null,"phone_number":"050-3565-5885","area":"福井県県"}
{"id":6,"name":"能楽の里能面美術館","location":"福井県今立郡池田町志津原１７－２","business_hours":"平日　午前10時〜午後4時土・日曜　午前10時〜午後5時","admission_fees":"大人300円　　小人200円（小中学生）","website_url":null,"phone_number":"0778-44-7757","area":"福井県県"}
{"id":7,"name":"五色山公園匠の美術館","location":"福井県大飯郡高浜町山中６４－３－１","business_hours":"火〜日、祝日8:30〜17:00（入館〜16:30）","admission_fees":"大人　200円小中学生　100円","website_url":null,"phone_number":"0770-76-1640","area":"福井県県"}
{"id":8,"name":"福井市美術館","location":"福井県福井市下馬３丁目１１１１","business_hours":"開館時間:午前9時〜午後5時15分(入館は午後4時45分まで)","admission_fees":"常設展:一般,大・高校生   100円団体(20名以上)               50円中学生以下、70歳以上、障害者の方は無料企画展:展覧会によって異なります。","website_url":null,"phone_number":"0776-33-2990","area":"福井県"}
{"id":9,"name":"愛宕坂茶道美術館","location":"福井県福井市足羽１丁目８－５","business_hours":"９時３０分から１６時３０分（入館は１６時まで）","admission_fees":"※企画展により異なる中学生以下無料","website_url":null,"phone_number":"0776-33-3933","area":"福井県"}
{"id":10,"name":"ちひろの生まれた家　記念館","location":"福井県越前市天王町４－14","business_hours":"10:00〜16:00","admission_fees":"一般300円（高校生以下は無料）","website_url":null,"phone_number":"0778-66-7112","area":"福井県"}
{"id":11,"name":"福井県立美術館","location":"福井県福井市文京３丁目１６－１","business_hours":"午前9時〜午後5時 (入館は午後4時30分まで)","admission_fees":"●常設展（所蔵品によるテーマ展）：　　一般・大学生　100円　（20名以上の団体は2割引）　　高校生以下、70歳以上、障害者手帳等をお持ちの方は無料。 　　＊ただし企画展開催中は、その鑑覧券でご覧いただけます。　　＊毎月第3日曜日「家庭の日」、2月7日「ふるさとの日」はテーマ展のみ無料開放。●企画展：そのつど定める料金による。","website_url":null,"phone_number":"0776-25-0452","area":"福井県"}
{"id":12,"name":"熊川宿若狭美術館","location":"福井県三方上中郡若狭町熊川39-5-1","business_hours":"10:00~16:30","admission_fees":"通常時: 無料特別展示料: 有料","website_url":null,"phone_number":"050-3565-5885","area":"福井県"}
{"id":13,"name":"能楽の里能面美術館","location":"福井県今立郡池田町志津原１７－２","business_hours":"平日　午前10時〜午後4時土・日曜　午前10時〜午後5時","admission_fees":"大人300円　　小人200円（小中学生）","website_url":null,"phone_number":"0778-44-7757","area":"福井県"}
{"id":14,"name":"五色山公園匠の美術館","location":"福井県大飯郡高浜町山中６４－３－１","business_hours":"火〜日、祝日8:30〜17:00（入館〜16:30）","admission_fees":"大人　200円小中学生　100円","website_url":null,"phone_number":"0770-76-1640","area":"福井県"}
