{"id":1,"name":"京都市京セラ美術館（京都市美術館）","location":"京都府京都市左京区岡崎円勝寺町１２４","business_hours":"【開場時間】10：00〜18：00（最終入場は展覧会により異なります）","admission_fees":"入場料金は、展示内容によって異なります。","website_url":null,"phone_number":"075-771-4334","area":"京都府"}
{"id":2,"name":"京都国立近代美術館","location":"京都府京都市左京区岡崎円勝寺町","business_hours":"公開：9:30〜17:00 入館は16：30まで","admission_fees":"大人:430円 大学生:220円備考：高校生、18歳未満、65歳以上は無料その他：その他 企画展は別途","website_url":null,"phone_number":"075-761-4111","area":"京都府"}
{"id":3,"name":"佐藤太清記念美術館","location":"京都府福知山市岡ノ３２－６４","business_hours":"午前9：00〜午後5：00（但し、入館は4時30分まで。）","admission_fees":"常設展\\t\\t\\t\\t個人\\tおとな\\t210円\\t\\tこども\\t100円\\t\\t       団体\\tおとな     190円こども       90円\\t\\t\\t※こども…小･中学生\\t\\t\\t団体は30名以上です。\\t\\t共通券（福知山城・郷工資料館との共通券）個人\\tおとな\\t470円\\tこども\\t190円\\t団体おとな\\t450円こども\\t180円※こども…小･中学生\\t\\t\\t団体は30名以上です。","website_url":null,"phone_number":"0773-23-2316","area":"京都府"}
{"id":4,"name":"松花堂庭園・美術館","location":"京都府八幡市八幡女郎花４３","business_hours":"9：00〜17：00入園・入館は16:30まで","admission_fees":"おとな 400円 学　生 300円こども 200円","website_url":null,"phone_number":"075-981-0010","area":"京都府"}
{"id":5,"name":"堂本印象美術館","location":"京都府京都市北区平野上柳町２６－３","business_hours":"9：30〜17：00","admission_fees":"一般：500円大・高校生：400円小・中学生：200円65歳以上の方・障害者手帳等お持ちの方と介護者1名：無料","website_url":null,"phone_number":"075-463-0007","area":"京都府"}
{"id":6,"name":"細見美術館","location":"京都府京都市左京区岡崎最勝寺町6-3","business_hours":"情報なし","admission_fees":"情報なし","website_url":null,"phone_number":"075-752-5555","area":"京都府"}
{"id":7,"name":"ＺＥＮＢＩ鍵善良房ＫＡＧＩＺＥＮ　ＡＲＴ　ＭＵＳＥＵＭ","location":"京都府京都市東山区祇園町南側５７０－１０７","business_hours":"情報なし","admission_fees":"情報なし","website_url":null,"phone_number":"075-561-2875","area":"京都府"}
{"id":8,"name":"樂美術館","location":"京都府京都市上京区油小路通一条下る油橋詰町８７－１","business_hours":"10:00〜16:30（入館は16:00まで）","admission_fees":"展覧会により異なります。","website_url":null,"phone_number":"075-414-0304","area":"京都府"}
{"id":9,"name":"井伊美術館","location":"京都府京都市東山区花見小路四条下ル4丁目小松町564","business_hours":"13：00〜17：00（入館は16：30まで）","admission_fees":"大人・・・1,500円大学・高校生・・1,000円小・中学生・・・・500円","website_url":null,"phone_number":"075-525-3921","area":"京都府"}
{"id":10,"name":"堀川新文化ビルヂング","location":"京都府京都市上京区皀莢町２８７","business_hours":"情報なし","admission_fees":"情報なし","website_url":null,"phone_number":"075-431-5551","area":"京都府"}
{"id":11,"name":"聰山美術館","location":"京都府南丹市美山町江和下黒田","business_hours":"9:00〜16:30","admission_fees":"大人：500円／高校生以下：300円","website_url":null,"phone_number":"0771-77-0330","area":"京都府"}
{"id":12,"name":"京都市美術館　別館","location":"京都府京都市左京区岡崎最勝寺町13","business_hours":"情報なし","admission_fees":"情報なし","website_url":null,"phone_number":"情報なし","area":"京都府"}
