{"id": 1, "name": "県民文化の森 岐阜県美術館", "location": "岐阜県岐阜市宇佐4-1-22", "business_hours": "10:00~18:00(展示室の入場は17:30まで)、企画展開催時の第3金曜日(夜間開館日)は10:00~20:00(展示室の入場は19:30まで)", "admission_fees": "一般330円、大学生220円、高校生以下無料", "website_url": null, "phone_number": "058-271-1313", "area": "岐阜県"}
{"id": 2, "name": "岐阜市歴史博物館分館 加藤栄三・東一記念美術館", "location": "岐阜県岐阜市大宮町1-46", "business_hours": "9:00~17:00(入館は16:30まで)", "admission_fees": "高校生以上300円、小中学生150円、市内の70歳以上の方、身体障害者手帳、精神障害者保健福祉手帳、療育手帳の交付を受けている方、及びその介護の方1名様、家庭の日(毎月第３日曜日)に入館する中学生以下の方、家庭の日(毎月第３月曜日)に入館する中学生以下の方に同伴する家族(高校生以上)の方(特別展を除く)、市内の小中学生の方無料(証明ができるものの提示が必要)", "website_url": null, "phone_number": "058-264-6410", "area": "岐阜県"}
{"id": 3, "name": "齋藤美術館", "location": "岐阜県郡上市八幡町新町927", "business_hours": "10:00~16:00", "admission_fees": "300円", "website_url": null, "phone_number": "0575-65-3539", "area": "岐阜県"}
{"id": 4, "name": "飛騨高山美術館", "location": "岐阜県高山市上岡本町1-124-1", "business_hours": "9:00~17:00", "admission_fees": "一般1300円、大学生・高校生1000円、中学生・小学生800円", "website_url": null, "phone_number": "0577-35-3535", "area": "岐阜県"}
{"id": 5, "name": "飛騨市美術館", "location": "岐阜県飛騨市古川町若宮2-1-58", "business_hours": "9:00~17:00", "admission_fees": "一般200円、高校生以下無料", "website_url": null, "phone_number": "0577-73-3288", "area": "岐阜県"}
{"id": 6, "name": "中山道広重美術館", "location": "岐阜県恵那市大井町176-1", "business_hours": "9:30~17:00(入館は16:30まで)", "admission_fees": "企画展:大人510円、高校生以下、障害者本人無料、特別企画展:大人820円、高校生以下、障害者本人無料", "website_url": null, "phone_number": "0573-20-0522", "area": "岐阜県"}
{"id": 7, "name": "守屋多々志美術館", "location": "岐阜県大垣市郭町2-12", "business_hours": "9:00~17:00(入館は16:30まで)", "admission_fees": "300円、18歳以下無料", "website_url": null, "phone_number": "0584-81-0801", "area": "岐阜県"}
{"id": 8, "name": "市之倉さかづき美術館", "location": "岐阜県多治見市市之倉町6-30-1", "business_hours": "10:00~17:00(展示室への入場は16:30まで)", "admission_fees": "一般400円、大高生200円、中学生以下無料", "website_url": null, "phone_number": "0572-24-5911", "area": "岐阜県"}
{"id": 9, "name": "岐阜県現代陶芸美術館", "location": "岐阜県多治見市東町4-2-5", "business_hours": "10:00~18:00(入館は17:30まで)", "admission_fees": "一般330円、大学生220円、高校生以下無料", "website_url": null, "phone_number": "0572-28-3100", "area": "岐阜県"}
{"id": 10, "name": "光ミュージアム", "location": "岐阜県高山市中山町175", "business_hours": "10:00~17:00(入館は16:00まで)", "admission_fees": "一般1000円、小中学生300円、障害者300円", "website_url": null, "phone_number": "0577-34-6511", "area": "岐阜県"}
{"id": 11, "name": "関市武芸川ふるさと館", "location": "岐阜県関市武芸川町八幡1566", "business_hours": "9:00~16:30", "admission_fees": "通常無料、特別企画展開催時は有料(企画展による)", "website_url": null, "phone_number": "0575-45-3010", "area": "岐阜県"}
{"id": 12, "name": "岐阜現代美術館", "location": "岐阜県関市桃紅大地1", "business_hours": "9:00~16:30", "admission_fees": "入場無料", "website_url": null, "phone_number": "0575-23-1210", "area": "岐阜県"}