{"id": 1, "name": "大塚国際美術館", "location": "徳島県鳴門市鳴門町鳴門公園内", "business_hours": "9:30~17:00", "admission_fees": "小・中・高生540円、大学生2160円、一般3240円", "website_url": null, "phone_number": "088-687-3737", "area": "徳島県"}
{"id": 2, "name": "徳島県立近代美術館", "location": "徳島県徳島市八万町向寺山", "business_hours": "9:30~17:00", "admission_fees": "一般200円、高校生・大学生100円、小学生・中学生50円", "website_url": null, "phone_number": "088-668-1088", "area": "徳島県"}
{"id": 3, "name": "徳島木のおもちゃ美術館", "location": "徳島県板野郡板野町那東字キビガ谷45-22", "business_hours": "情報なし", "admission_fees": "情報なし", "website_url": null, "phone_number": "088-672-1122", "area": "徳島県"}
{"id": 4, "name": "相生森林美術館", "location": "徳島県那賀郡那賀町横石大板34", "business_hours": "9:30~16:30", "admission_fees": "高校生以上320円、中学生以下無料", "website_url": null, "phone_number": "0884-62-1117", "area": "徳島県"}
{"id": 5, "name": "鳴門ガレの森美術館", "location": "徳島県鳴門市撫養町林崎北殿町149", "business_hours": "10:00~15:30", "admission_fees": "大人800円、学生500円", "website_url": null, "phone_number": "088-684-4445", "area": "徳島県"}
{"id": 6, "name": "蘭夢美術館", "location": "徳島県美馬市脇町大字北庄562-1", "business_hours": "8:30~17:00", "admission_fees": "一般300円、小中学生150円", "website_url": null, "phone_number": "0883-52-2189", "area": "徳島県"}