{"id": 1, "name": "タオル美術館", "location": "愛媛県今治市朝倉上甲2930", "business_hours": "9:30~18:00", "admission_fees": "大人1000円、中高生800円、小学生600円", "website_url": null, "phone_number": "0898-56-1515", "area": "愛媛県"}
{"id": 2, "name": "愛媛県美術館", "location": "愛媛県松山市堀之内", "business_hours": "9:40~18:00(入室は17:30まで)", "admission_fees": "常設展:一般300円、高大生200円、中学生以下・65歳以上・障害者(要証明書提示)無料 企画展:別途必要(企画展チケットで所蔵品展無料)", "website_url": null, "phone_number": "089-932-0010", "area": "愛媛県"}
{"id": 3, "name": "大三島美術館", "location": "愛媛県今治市大三島町宮浦9099", "business_hours": "9:00~17:00", "admission_fees": "一般500円、学生250円、高校生以下または18歳未満無料、65歳以上団体料金適用、身体障害者手帳・療育手帳・精神障害者保険福祉手帳の所持者とその介助者(1名)無料(要提示)", "website_url": null, "phone_number": "0897-82-1234", "area": "愛媛県"}
{"id": 4, "name": "河野美術館", "location": "愛媛県今治市旭町1-4-8", "business_hours": "9:00~17:00", "admission_fees": "一般300円、学生150円、65歳以上240円、高校生以下または18歳未満無料 ※展覧会により料金変更あり ※身体障害者手帳、療育手帳、精神障害者保健福祉手帳の所持者及びその介助者(1名)は無料(要提示)", "website_url": null, "phone_number": "0898-23-3810", "area": "愛媛県"}
{"id": 5, "name": "玉川近代美術館", "location": "愛媛県今治市玉川町大野甲86-4", "business_hours": "9:00~17:00", "admission_fees": "大人500円、学生250円、高校生以下または18歳未満無料、65歳以上一般団体料金適用、身体障害者手帳・療育手帳・精神障害者保健福祉手帳所持者とその介助者(1名)無料(入館時提示)", "website_url": null, "phone_number": "0898-55-2738", "area": "愛媛県"}
{"id": 6, "name": "久万美術館", "location": "愛媛県上浮穴郡久万高原町菅生2番耕地1442-7", "business_hours": "9:30~17:00", "admission_fees": "大人500円、高大生400円、小中生300円、久万高原町内の小中学生無料", "website_url": null, "phone_number": "0892-21-2881", "area": "愛媛県"}
{"id": 7, "name": "ミウラート・ヴィレッジ", "location": "愛媛県松山市堀江町1165-1", "business_hours": "情報なし", "admission_fees": "情報なし", "website_url": null, "phone_number": "089-978-6838", "area": "愛媛県"}
{"id": 8, "name": "道後ぎやまんガラスミュージアム", "location": "愛媛県松山市道後鷺谷町459-1", "business_hours": "情報なし", "admission_fees": "情報なし", "website_url": null, "phone_number": "089-933-3637", "area": "愛媛県"}
{"id": 9, "name": "セキ美術館", "location": "愛媛県松山市道後喜多町4-42", "business_hours": "情報なし", "admission_fees": "情報なし", "website_url": null, "phone_number": "089-946-5678", "area": "愛媛県"}
{"id": 10, "name": "今治市立朝倉ふるさと美術古墳館", "location": "愛媛県今治市朝倉下", "business_hours": "情報なし", "admission_fees": "情報なし", "website_url": null, "phone_number": "0898-56-3754", "area": "愛媛県"}
{"id": 11, "name": "八幡浜市美術館", "location": "愛媛県八幡浜市62-1", "business_hours": "情報なし", "admission_fees": "情報なし", "website_url": null, "phone_number": "0894-21-3335", "area": "愛媛県"}
{"id": 12, "name": "西予市立ギャラリーしろかわ", "location": "愛媛県西予市城川町下相680", "business_hours": "情報なし", "admission_fees": "情報なし", "website_url": null, "phone_number": "0894-82-1001", "area": "愛媛県"}