{"id": 1, "name": "福井市美術館", "location": "福井県福井市下馬3丁目1111", "business_hours": "開館:9:00~17:15 (入館は16:45まで)", "admission_fees": "常設展:一般、大・高校生 100円 団体(20名以上)50円 中学生以下、70歳以上、障害者の方は無料 企画展:展覧会によって異なります。", "website_url": null, "phone_number": "0776-33-2990", "area": "福井県"}
{"id": 2, "name": "愛宕坂茶道美術館", "location": "福井県福井市足羽1丁目8-5", "business_hours": "9:30~16:30 (入館は16:00まで)", "admission_fees": "※企画展により異なる 中学生以下無料", "website_url": null, "phone_number": "0776-33-3933", "area": "福井県"}
{"id": 3, "name": "ちひろの生まれた家 記念館", "location": "福井県越前市天王町4-14", "business_hours": "10:00~16:00", "admission_fees": "一般300円 (高校生以下は無料)", "website_url": null, "phone_number": "0778-66-7112", "area": "福井県"}
{"id": 4, "name": "福井県立美術館", "location": "福井県福井市文京3丁目16-1", "business_hours": "9:00~17:00 (入館は16:30まで)", "admission_fees": "●常設展(所蔵品によるテーマ展): 一般・大学生 100円 (20名以上の団体は2割引) 高校生以下、70歳以上、障害者手帳等をお持ちの方は無料 ●企画展: そのつど定める料金による", "website_url": null, "phone_number": "0776-25-0452", "area": "福井県"}
{"id": 5, "name": "熊川宿若狭美術館", "location": "福井県三方上中郡若狭町熊川39-5-1", "business_hours": "10:00~16:30", "admission_fees": "通常時: 無料 特別展示料: 有料", "website_url": null, "phone_number": "050-3565-5885", "area": "福井県"}
{"id": 6, "name": "能楽の里能面美術館", "location": "福井県今立郡池田町志津原17-2", "business_hours": "平日 10:00~16:00 土・日曜 10:00~17:00", "admission_fees": "大人300円 小人200円 (小中学生)", "website_url": null, "phone_number": "0778-44-7757", "area": "福井県"}
{"id": 7, "name": "五色山公園匠の美術館", "location": "福井県大飯郡高浜町山中64-3-1", "business_hours": "火〜日、祝日 8:30~17:00 (入館は16:30まで)", "admission_fees": "大人200円 小中学生100円", "website_url": null, "phone_number": "0770-76-1640", "area": "福井県"}
