{"id": 1, "name": "岩手県立美術館", "location": "岩手県盛岡市本宮字松幅12-3", "business_hours": "9:30~18:00", "admission_fees": "一般410円、学生310円、高校生以下無料", "website_url": null, "phone_number": "019-658-1711", "area": "岩手県"}
{"id": 2, "name": "石神の丘美術館", "location": "岩手県岩手郡岩手町大字五日市10-121-21", "business_hours": "9:00~17:00", "admission_fees": "屋外展示:一般100円、大・高校生50円、中学生以下無料、75歳以上一般の半額、障害者手帳等お持ちの方と介助者1名無料", "website_url": null, "phone_number": "0195-62-1453", "area": "岩手県"}
{"id": 3, "name": "花巻おもちゃ美術館", "location": "岩手県花巻市上町6-2", "business_hours": "情報なし", "admission_fees": "情報なし", "website_url": null, "phone_number": "080-9257-7987", "area": "岩手県"}
{"id": 4, "name": "萬鉄五郎記念美術館", "location": "岩手県花巻市東和町土沢5区135", "business_hours": "8:30~17:00(入館は16:30まで)", "admission_fees": "大人400円、大学生250円、高校生250円、中学生150円、小学生150円", "website_url": null, "phone_number": "0198-42-4405", "area": "岩手県"}
{"id": 5, "name": "川村美術館", "location": "岩手県和賀郡西和賀町上野々39地割190-2", "business_hours": "9:30~17:00", "admission_fees": "大人500円、小中学生400円", "website_url": null, "phone_number": "0197-82-3240", "area": "岩手県"}
{"id": 6, "name": "利根山光人記念美術館", "location": "岩手県北上市立花5-153-2", "business_hours": "10:00~16:00(入館は15:30まで)", "admission_fees": "一般300円、高校生120円、小・中学生60円、小学生未満無料、障がい者無料(付添い1名無料)", "website_url": null, "phone_number": "0197-65-1808", "area": "岩手県"}
{"id": 7, "name": "川村美術館デッサン館", "location": "岩手県和賀郡西和賀町上野々39地割142-1", "business_hours": "4月中旬~11月中旬:9:00~16:30", "admission_fees": "一般100円、小・中学生50円", "website_url": null, "phone_number": "0197-82-3240", "area": "岩手県"}