{"id":1,"name":"聖徳記念絵画館","location":"東京都新宿区霞ケ丘町1番1号","business_hours":"平常　9：00〜17：00（最終入館16：30）年末年始（12月30日〜1月2日） 10：00〜17：00（最終入館16：30）","admission_fees":"500円","website_url":null,"phone_number":"03-3401-5179","area":"東京都"}
{"id":2,"name":"黒田記念館","location":"東京都台東区上野公園13-9","business_hours":"9：30〜17：00","admission_fees":"無料","website_url":null,"phone_number":"03-5777-8600","area":"東京都"}
{"id":3,"name":"ＳＯＭＰＯ美術館","location":"東京都新宿区西新宿１丁目２６－１","business_hours":"10:00 - 18:00（入館は閉館30分前まで）","admission_fees":"展覧会によって観覧料が異なります。大人　　1,500円前後大学生　1,100円前後小・中・高校生　無料障がい者の方　無料","website_url":null,"phone_number":"050-5541-8600","area":"東京都"}
{"id":4,"name":"熊谷守一美術館","location":"東京都豊島区千早２－２７－６","business_hours":"午前１０時３０分〜午後５時３０分（入館は閉館の３０分前まで）※金曜日は午後８時まで開館（３階ギャラリーは午後５時３０分まで）","admission_fees":"一般５００円高・大学生３００円小・中学生１００円小学生未満無料","website_url":null,"phone_number":"03-3957-3779","area":"東京都"}
{"id":5,"name":"世田谷美術館","location":"東京都世田谷区砧公園１－２","business_hours":"午前10時－午後6時 展覧会入場は閉館30分前まで","admission_fees":"一般：200円65歳以上：100円大高生：150円中小生：100円","website_url":null,"phone_number":"03-3415-6011","area":"東京都"}
{"id":6,"name":"ＰＬＡＹ！","location":"東京都立川市緑町３－１","business_hours":"平日：10：00〜17：00土日祝：10：00〜18：00","admission_fees":"展覧会毎に設定","website_url":null,"phone_number":"042-518-9625","area":"東京都"}
{"id":7,"name":"小平市平櫛田中彫刻美術館","location":"東京都小平市学園西町１丁目７－５","business_hours":"午前10時〜午後4時※なるべく午後3時30分までに入館してください。","admission_fees":"一般　　　　300円 小・中学生　150円*特別展はその都度定めます","website_url":null,"phone_number":"042-341-0098","area":"東京都"}
{"id":8,"name":"檜原森のおもちゃ美術館","location":"東京都西多摩郡檜原村３７８３","business_hours":"10：00〜16：00（最終15：30）","admission_fees":"大人（中学生以上）：1000円子供（小学生以下）：700円子供（生後6ヶ月未満）：無料シニア（65歳以上）：500円障害者：無料檜原村民大人（中学生以上）：500円※パスポート有り","website_url":null,"phone_number":"042-588-4044","area":"東京都"}
{"id":9,"name":"世田谷文学館","location":"東京都世田谷区南烏山1-10-10","business_hours":"展示室 10:00〜18:00（入場は17:30まで）ライブラリー ほんとわ 10:00〜18:00ミュージアムショップ 10:00〜17:30","admission_fees":"【コレクション展】一般　200円大学生・高校生　150円中学生・小学生　100円65歳以上　100円その他条件あり 【企画展】展示会ごとに異なります","website_url":null,"phone_number":"03-5374-9111","area":"東京都"}
{"id":10,"name":"みどりの美術館","location":"東京都立川市西砂町４丁目１－３","business_hours":"10:00〜16:00","admission_fees":"無料","website_url":null,"phone_number":"042-531-0123","area":"東京都"}
{"id":11,"name":"たましん美術館","location":"東京都立川市緑町３－４","business_hours":"情報なし","admission_fees":"情報なし","website_url":null,"phone_number":"042-526-7788","area":"東京都"}
{"id":12,"name":"サントリー美術館","location":"東京都港区赤坂9-7-4 東京ミッドタウン　ガレリア3階","business_hours":"情報なし","admission_fees":"情報なし","website_url":null,"phone_number":"情報なし","area":"東京都"}
{"id":13,"name":"たましん歴史・美術館","location":"東京都国立市中１丁目９－５２","business_hours":"午前10時〜午後6時　（入館は30分前まで）","admission_fees":"100円、中学生以下無料但し、企画展によって入館料を変更する場合があります（中学生以下は常に無料）","website_url":null,"phone_number":"042-574-1360","area":"東京都"}
{"id":14,"name":"東京タロット美術館","location":"東京都台東区柳橋２－４－２","business_hours":"平日：10：00〜19：00土曜：9：00〜18：00※予約制：キャンセル料有","admission_fees":"800円（キャッシュレス決済）","website_url":null,"phone_number":"情報なし","area":"東京都"}
{"id":15,"name":"中村研一記念小金井市立はけの森美術館","location":"東京都小金井市中町１丁目１１－３","business_hours":"10:00〜17:00","admission_fees":"入館料：一般200円、小中学生100円、未就学児および障害者手帳をお持ちの方は無料です。企画展は別","website_url":null,"phone_number":"042-384-9800","area":"東京都"}
{"id":16,"name":"国立映画アーカイブ","location":"東京都中央区京橋３丁目７－６","business_hours":"11:00から18:30まで入場は18:00まで。各上映により異なります。","admission_fees":"[上映] 一般 520円大学生・高校生・65歳以上310円小学生・中学生 100円 [展示室]一般210円大学生・シニア70円高校生以下・障害者手帳提示とその介護者1名 無料","website_url":null,"phone_number":"050-5541-8600","area":"東京都"}
{"id":17,"name":"奥多摩せせらぎの里美術館","location":"東京都西多摩郡奥多摩町川井丹縄５３","business_hours":"午前１０時より午後５時まで","admission_fees":"大人３００円・小中学生２００円","website_url":null,"phone_number":"0428-85-1109","area":"東京都"}
{"id":18,"name":"東京藝術大学大学美術館","location":"東京都台東区上野公園１２－８","business_hours":"展覧会ごとに異なる","admission_fees":"観覧料は展覧会ごとに異なります","website_url":null,"phone_number":"03-5685-7755","area":"東京都"}
{"id":19,"name":"石洞美術館","location":"東京都足立区千住橋戸町２３","business_hours":"午前10:00-午後5:00 （但し入館は午後4:30まで）","admission_fees":"大人 ５００円 、 学生 ３００円、小学生以下無料","website_url":null,"phone_number":"03-3888-7520","area":"東京都"}
{"id":20,"name":"八王子市夢美術館","location":"東京都八王子市八日町８－１","business_hours":"10:00 〜 19:00(入館は午後6時30分まで）","admission_fees":"小学生以上100円","website_url":null,"phone_number":"042-621-6777","area":"東京都"}
{"id":21,"name":"小島善太郎美術館","location":"東京都青梅市滝ノ上町１３４６－１","business_hours":"午前9時〜午後5時（入館は午後4時30分まで）","admission_fees":"大人200円、小・中学生50円 〈特別展〉別に定めます。 ##次の方は無料です。 1.市内在住の65歳以上の方 （要証明） 2.障害をお持ちの方 （要証明） 3.市内在住の小・中学生 （土曜日のみ）","website_url":null,"phone_number":"0428-24-1195","area":"東京都"}
{"id":25,"name":"静嘉堂文庫美術館","location":"東京都千代田区丸の内2-1-1 明治生命館1F","business_hours":"情報なし","admission_fees":"情報なし","website_url":null,"phone_number":"情報なし","area":"東京都"}
{"id":22,"name":"古代エジプト美術館","location":"東京都渋谷区神南1-12-18 メゾン渋谷801","business_hours":"【営業日】　土・日 (年末年始は休館）【営業時間】　12：00〜18：00　（入館は17：30まで）","admission_fees":"【入館料】一般 \\\\1,500　／大学生 \\\\1,200　／高校生以下 \\\\1,000","website_url":null,"phone_number":"03-6809-0718","area":"東京都"}
{"id":23,"name":"ヨックモックミュージアム","location":"東京都港区南青山６－１５－１","business_hours":"情報なし","admission_fees":"情報なし","website_url":null,"phone_number":"03-3486-8000","area":"東京都"}
{"id":24,"name":"ＷＨＡＴ　ＭＵＳＥＵＭ","location":"東京都品川区東品川2-6-10 寺田倉庫G号","business_hours":"11:00〜18:00（最終入場17:00）","admission_fees":"一般 1,500円大学生/専門学生 800円高校生以下 無料","website_url":null,"phone_number":"情報なし","area":"東京都"}
{"id":26,"name":"森アーツセンターギャラリー","location":"東京都港区六本木6丁目10－1 六本木ヒルズ森タワー","business_hours":"情報なし","admission_fees":"情報なし","website_url":null,"phone_number":"情報なし","area":"東京都"}
{"id":27,"name":"三菱一号館美術館","location":"東京都千代田区丸の内２丁目６－２","business_hours":"情報なし","admission_fees":"情報なし","website_url":null,"phone_number":"情報なし","area":"東京都"}
