{"id":3,"name":"塚本美術館","location":"千葉県佐倉市裏新町１－４","business_hours":"午前10時〜午後4時","admission_fees":"無料","website_url":null,"phone_number":"043-486-7097","area":"千葉県"}
{"id":1,"name":"佐倉市立美術館","location":"千葉県佐倉市新町２１０","business_hours":"午前10時〜午後6時（入館は午後5時30分まで）","admission_fees":"無料","website_url":null,"phone_number":"043-485-7851","area":"千葉県"}
{"id":2,"name":"千葉県立美術館","location":"千葉県千葉市中央区中央港１丁目１０－１","business_hours":"午前9時〜午後4時30分（入館は午後4時まで）","admission_fees":"常設展 一般300円（240円）、高校・大学生150円（120円）、中学生以下・65歳以上 無料","website_url":null,"phone_number":"043-242-8311","area":"千葉県"}
{"id":4,"name":"ホキ美術館","location":"千葉県千葉市緑区あすみが丘東３丁目１５","business_hours":"午前10時〜午後5時30分（入館受付は午後5時まで）※ナイトミュージアム開催日には営業時間が延長されます。","admission_fees":"一般1,800円、高校生・大学生・65歳以上1,300円、中学生900円、小学生以下無料（大人1人につき小学生2人まで）","website_url":null,"phone_number":"043-205-1500","area":"千葉県"}
{"id":5,"name":"千葉市美術館","location":"千葉県千葉市中央区中央３丁目１０－８","business_hours":"午前10時〜午後6時（入場は午後5時30分まで）、金・土曜日は午後8時まで開館（入場は午後7時30分まで）","admission_fees":"観覧料は展覧会毎に異なります。","website_url":null,"phone_number":"043-221-2311","area":"千葉県"}
{"id":6,"name":"市原湖畔美術館","location":"千葉県市原市不入75-1","business_hours":"平日：10:00〜17:00、土・休前日：9:30〜19:00、日・祝：9:30〜18:00","admission_fees":"一般600円、大高生500円、シニア（65歳以上）500円、中学生以下 無料","website_url":null,"phone_number":"0436-98-1525","area":"千葉県"}
{"id":7,"name":"茂原市立美術館・郷土資料館","location":"千葉県茂原市高師１３４５－１","business_hours":"年中無休","admission_fees":"無料","website_url":null,"phone_number":"0475-26-2131","area":"千葉県"}
{"id":8,"name":"ＤＩＣ川村記念美術館","location":"千葉県佐倉市坂戸６３１","business_hours":"9:30〜17:00（入館は16:30まで）","admission_fees":"一般1,000円、大学生800円、小中高校生600円、65歳以上800円","website_url":null,"phone_number":"043-498-2131","area":"千葉県"}
{"id":9,"name":"菱川師宣記念館","location":"千葉県安房郡鋸南町吉浜５１６","business_hours":"9:00〜17:00（入館は16:30まで）","admission_fees":"一般・大学生500円、小・中・高校生400円","website_url":null,"phone_number":"047-055-4061","area":"千葉県"}
{"id":10,"name":"千葉市民ギャラリー・いなげ","location":"千葉県千葉市稲毛区稲毛１丁目８－３５","business_hours":"9:00〜17:15","admission_fees":"無料","website_url":null,"phone_number":"043-248-8723","area":"千葉県"}
{"id":11,"name":"ふなばしアンデルセン公園子ども美術館","location":"千葉県船橋市金堀町５２５","business_hours":"9:30〜16:00（4月8日〜10月31日の土日祝日、3月20日〜4月7日、7月20日〜8月31日は17:00まで）","admission_fees":"無料","website_url":null,"phone_number":"047-457-6661","area":"千葉県"}
{"id":12,"name":"白浜海洋美術館","location":"千葉県南房総市白浜町白浜６２８－１","business_hours":"10:00〜17:00","admission_fees":"一般500円、学生400円、小・中学生200円","website_url":null,"phone_number":"0470-38-4551","area":"千葉県"}
{"id":13,"name":"中村順二美術館","location":"千葉県柏市大津ケ丘１丁目４１－５","business_hours":"10:00〜18:00","admission_fees":"無料","website_url":null,"phone_number":"04-7191-2299","area":"千葉県"}
{"id":14,"name":"ＳＧＴ美術館","location":"千葉県勝浦市守谷1512","business_hours":"―","admission_fees":"一般・大学生900円、中高生600円、小学生400円","website_url":null,"phone_number":"0470-64-6336","area":"千葉県"}
{"id":15,"name":"木更津わたくし美術館","location":"千葉県木更津市貝渕４丁目１１－７","business_hours":"午後1:00〜午後5:00（展示により開館日・時間が異なります）","admission_fees":"一般300円、中学生以下 無料","website_url":null,"phone_number":"0438-38-3003","area":"千葉県"}
{"id":16,"name":"城西国際大学水田美術館","location":"千葉県東金市求名１","business_hours":"午前10時〜午後4時","admission_fees":"展覧会により異なる","website_url":null,"phone_number":"0475-53-2562","area":"千葉県"}
{"id":17,"name":"佐倉市立美術館","location":"千葉県佐倉市新町２１０","business_hours":"午前10時〜午後6時（入館は午後5時30分まで）","admission_fees":"無料","website_url":null,"phone_number":"043-485-7851","area":"千葉県"}
{"id":18,"name":"千葉県立美術館","location":"千葉県千葉市中央区中央港１丁目１０－１","business_hours":"午前9時〜午後4時30分（入館は午後4時まで）","admission_fees":"常設展 一般300円（240円）、高校・大学生150円（120円）、中学生以下・65歳以上 無料","website_url":null,"phone_number":"043-242-8311","area":"千葉県"}
{"id":19,"name":"塚本美術館","location":"千葉県佐倉市裏新町１－４","business_hours":"午前10時〜午後4時","admission_fees":"無料","website_url":null,"phone_number":"043-486-7097","area":"千葉県"}
{"id":20,"name":"ホキ美術館","location":"千葉県千葉市緑区あすみが丘東３丁目１５","business_hours":"午前10時〜午後5時30分（入館受付は午後5時まで）※ナイトミュージアム開催日には営業時間が延長されます。","admission_fees":"一般1,800円、高校生・大学生・65歳以上1,300円、中学生900円、小学生以下無料（大人1人につき小学生2人まで）","website_url":null,"phone_number":"043-205-1500","area":"千葉県"}
{"id":21,"name":"千葉市美術館","location":"千葉県千葉市中央区中央３丁目１０－８","business_hours":"午前10時〜午後6時（入場は午後5時30分まで）、金・土曜日は午後8時まで開館（入場は午後7時30分まで）","admission_fees":"観覧料は展覧会毎に異なります。","website_url":null,"phone_number":"043-221-2311","area":"千葉県"}
{"id":22,"name":"市原湖畔美術館","location":"千葉県市原市不入75-1","business_hours":"平日：10:00〜17:00、土・休前日：9:30〜19:00、日・祝：9:30〜18:00","admission_fees":"一般600円、大高生500円、シニア（65歳以上）500円、中学生以下 無料","website_url":null,"phone_number":"0436-98-1525","area":"千葉県"}
{"id":23,"name":"茂原市立美術館・郷土資料館","location":"千葉県茂原市高師１３４５－１","business_hours":"年中無休","admission_fees":"無料","website_url":null,"phone_number":"0475-26-2131","area":"千葉県"}
{"id":24,"name":"ＤＩＣ川村記念美術館","location":"千葉県佐倉市坂戸６３１","business_hours":"9:30〜17:00（入館は16:30まで）","admission_fees":"一般1,000円、大学生800円、小中高校生600円、65歳以上800円","website_url":null,"phone_number":"043-498-2131","area":"千葉県"}
{"id":25,"name":"菱川師宣記念館","location":"千葉県安房郡鋸南町吉浜５１６","business_hours":"9:00〜17:00（入館は16:30まで）","admission_fees":"一般・大学生500円、小・中・高校生400円","website_url":null,"phone_number":"047-055-4061","area":"千葉県"}
{"id":26,"name":"千葉市民ギャラリー・いなげ","location":"千葉県千葉市稲毛区稲毛１丁目８－３５","business_hours":"9:00〜17:15","admission_fees":"無料","website_url":null,"phone_number":"043-248-8723","area":"千葉県"}
{"id":27,"name":"ふなばしアンデルセン公園子ども美術館","location":"千葉県船橋市金堀町５２５","business_hours":"9:30〜16:00（4月8日〜10月31日の土日祝日、3月20日〜4月7日、7月20日〜8月31日は17:00まで）","admission_fees":"無料","website_url":null,"phone_number":"047-457-6661","area":"千葉県"}
{"id":28,"name":"白浜海洋美術館","location":"千葉県南房総市白浜町白浜６２８－１","business_hours":"10:00〜17:00","admission_fees":"一般500円、学生400円、小・中学生200円","website_url":null,"phone_number":"0470-38-4551","area":"千葉県"}
{"id":29,"name":"中村順二美術館","location":"千葉県柏市大津ケ丘１丁目４１－５","business_hours":"10:00〜18:00","admission_fees":"無料","website_url":null,"phone_number":"04-7191-2299","area":"千葉県"}
{"id":30,"name":"ＳＧＴ美術館","location":"千葉県勝浦市守谷1512","business_hours":"―","admission_fees":"一般・大学生900円、中高生600円、小学生400円","website_url":null,"phone_number":"0470-64-6336","area":"千葉県"}
{"id":31,"name":"木更津わたくし美術館","location":"千葉県木更津市貝渕４丁目１１－７","business_hours":"午後1:00〜午後5:00（展示により開館日・時間が異なります）","admission_fees":"一般300円、中学生以下 無料","website_url":null,"phone_number":"0438-38-3003","area":"千葉県"}
{"id":32,"name":"城西国際大学水田美術館","location":"千葉県東金市求名１","business_hours":"午前10時〜午後4時","admission_fees":"展覧会により異なる","website_url":null,"phone_number":"0475-53-2562","area":"千葉県"}
