{"id":1,"name":"万代島美術館","location":"新潟県新潟市中央区万代島５－１","business_hours":"午前10時〜午後6時","admission_fees":"一般：310円大学生・高校生：150円中学生以下：無料","website_url":null,"phone_number":"025-290-6655","area":"新潟県"}
{"id":2,"name":"新潟市美術館","location":"新潟県新潟市中央区西大畑町５１９１－９","business_hours":"9:30〜18:00","admission_fees":"一般200円／大高生150円／中小生100円","website_url":null,"phone_number":"025-223-1622","area":"新潟県"}
{"id":3,"name":"新潟市新津美術館","location":"新潟県新潟市秋葉区蒲ヶ沢１０９－１","business_hours":"10:00〜17:00","admission_fees":"展覧会によって異なります。","website_url":null,"phone_number":"0250-25-1300","area":"新潟県"}
{"id":4,"name":"新潟県立近代美術館","location":"新潟県長岡市千秋３丁目２７８－１４","business_hours":"9:00〜17:00　最終入館16:30","admission_fees":"・一　般　 　　　430円・高校・大学生 200円・中学生以下無料 ※特別展の入館料は、お問い合わせください。","website_url":null,"phone_number":"0258-28-4111","area":"新潟県"}
{"id":5,"name":"雪梁舎美術館","location":"新潟県新潟市西区山田４５１","business_hours":"午前9時30分〜午後5時","admission_fees":"一般500円、中学生以下無料","website_url":null,"phone_number":"025-377-1888","area":"新潟県"}
{"id":6,"name":"胎内市美術館","location":"新潟県胎内市下赤谷３８７－１５","business_hours":"情報なし","admission_fees":"情報なし","website_url":null,"phone_number":"0254-47-2288","area":"新潟県"}
{"id":7,"name":"駒形十吉記念美術館","location":"新潟県長岡市今朝白２丁目１－４","business_hours":"情報なし","admission_fees":"情報なし","website_url":null,"phone_number":"0258-35-6111","area":"新潟県"}
{"id":8,"name":"知足美術館","location":"新潟県新潟市中央区新光町１０－２","business_hours":"情報なし","admission_fees":"情報なし","website_url":null,"phone_number":"025-281-2001","area":"新潟県"}
{"id":9,"name":"トミオカホワイト美術館","location":"新潟県南魚沼市上薬師堂１４２","business_hours":"４月〜１１月     ９：００〜１７：００  １２月〜３月   １０：００〜１７：００  ※入館は１６：３０までとなります。","admission_fees":"一般 　　５００円  小中高生 　２５０円","website_url":null,"phone_number":"025-775-3646","area":"新潟県"}
{"id":10,"name":"良寛の里美術館","location":"新潟県長岡市島崎３９３８","business_hours":"9:00〜17:00","admission_fees":"大人（高校生以上）…500円小・中学生…300円未就学児は無料","website_url":null,"phone_number":"0258-74-3700","area":"新潟県"}
{"id":11,"name":"池田記念美術館","location":"新潟県南魚沼市浦佐５４９３－３","business_hours":"情報なし","admission_fees":"情報なし","website_url":null,"phone_number":"025-780-4080","area":"新潟県"}
{"id":12,"name":"谷村美術館","location":"新潟県糸魚川市京ケ峰２丁目１－１３","business_hours":"情報なし","admission_fees":"情報なし","website_url":null,"phone_number":"025-552-9277","area":"新潟県"}
{"id":13,"name":"潟東樋口記念美術館","location":"新潟県新潟市西蒲区三方９２","business_hours":"9:00〜16:00","admission_fees":"一般：500円小・中学生：300円 身体障害者手帳、療育手帳、精神障がい者保健福祉手帳のお持ちの方：本人は無料、介助者は手帳提示者1名につき1名無料","website_url":null,"phone_number":"0256-86-3444","area":"新潟県"}
{"id":14,"name":"長岡市栃尾美術館","location":"新潟県長岡市上の原町１－１３","business_hours":"午前９時〜午後５時（発券は４時３０分まで）","admission_fees":"・企画展　その都度定めます。・館所蔵品展大人　　　　　２００円高校・大学生　１５０円小・中学生　　１００円幼児　　　　　無料","website_url":null,"phone_number":"0258-53-6300","area":"新潟県"}
{"id":15,"name":"小林古径記念美術館","location":"新潟県上越市本城町７－７","business_hours":"9:00〜17:00観桜会期間中の金・土・日は19時まで延長開館（小林古径記念美術館のみ）12月〜3月は10:00〜16:00","admission_fees":"一般300円、小中高校生150円","website_url":null,"phone_number":"025-523-8680","area":"新潟県"}
{"id":16,"name":"木村茶道美術館","location":"新潟県柏崎市緑町３－１","business_hours":"情報なし","admission_fees":"情報なし","website_url":null,"phone_number":"0257-23-8061","area":"新潟県"}
{"id":17,"name":"佐渡版画村美術館","location":"新潟県佐渡市相川米屋町３８－２","business_hours":"情報なし","admission_fees":"情報なし","website_url":null,"phone_number":"0259-74-3931","area":"新潟県"}
{"id":18,"name":"樹下美術館","location":"新潟県上越市頸城区城野腰４５１","business_hours":"情報なし","admission_fees":"情報なし","website_url":null,"phone_number":"025-530-4155","area":"新潟県"}
{"id":19,"name":"日本アマチュア秀作美術館","location":"新潟県佐渡市小木町１９４６－６","business_hours":"情報なし","admission_fees":"情報なし","website_url":null,"phone_number":"0259-86-3841","area":"新潟県"}
{"id":20,"name":"星と森の詩美術館","location":"新潟県十日町市稲葉１０９９－１","business_hours":"情報なし","admission_fees":"情報なし","website_url":null,"phone_number":"025-752-7202","area":"新潟県"}
{"id":2,"name":"蓼科高原美術館矢崎虎夫記念館","location":"長野県茅野市北山４０３５","business_hours":"10:00〜15:00","admission_fees":"大人：500円子供：300円","website_url":null,"phone_number":"0266-67-6171","area":"長野県"}
{"id":3,"name":"小さな美術館軽井沢草花館","location":"長野県北佐久郡軽井沢町軽井沢東19-40","business_hours":"10：00〜17：00","admission_fees":"中学生以上：500円小学生以下：無料","website_url":null,"phone_number":"0267-42-0716","area":"長野県"}
{"id":4,"name":"長野市立博物館分館信州新町美術館","location":"長野県長野市信州新町上条８８－３","business_hours":"9:00〜16:30　（入館は16:00まで）","admission_fees":"大人：500円高校生：300円小中学生：200円（毎週土曜日は無料）","website_url":null,"phone_number":"026-262-3500","area":"長野県"}
{"id":5,"name":"飯山市美術館","location":"長野県飯山市飯山１４３６－１","business_hours":"午前9時〜午後5時（入館は午後4時30分まで）","admission_fees":"大人　300円　　小中学生　200円","website_url":null,"phone_number":"0269-62-1501","area":"長野県"}
{"id":6,"name":"碌山美術館","location":"長野県安曇野市穂高5095-1","business_hours":"11月〜2月　9：00－16：103月〜10月　9：00－17：10※通年、入場は閉館の３０分前まで","admission_fees":"一    般 ９００円高校生 ３００円小中生 １５０円※障がい者手帳をお持ちの方は半額 20名様以上団体料金大人800円/高校生250円/小中生100円","website_url":null,"phone_number":"0263-82-2094","area":"長野県"}
{"id":7,"name":"トリックアートミュージアム軽井沢","location":"長野県北佐久郡軽井沢町旧軽井沢８０９","business_hours":"開館時間通常営業 10:00~18:00夏季営業(7/25~8/25)9:30~18:00","admission_fees":"大人1,500円 シニア(65歳以上)1,200円高校生1,000円 中学生900円 小学生800円幼児(3歳〜未就学児)500 2歳以下無料ペット 300円","website_url":null,"phone_number":"0267-41-1122","area":"長野県"}
{"id":8,"name":"ル・ヴァン美術館","location":"長野県北佐久郡軽井沢町長倉957-10","business_hours":"10：00〜17：00","admission_fees":"大人：800円　大学・高校生：600円　中学・小学生：400円（障害者割引あり）","website_url":null,"phone_number":"0267-46-1911","area":"長野県"}
{"id":9,"name":"軽井沢ボヘミアンガラス美術館","location":"長野県北佐久郡軽井沢町軽井沢1310-20","business_hours":"開館時間：10:00〜18:00　（7月20日頃〜8月は9：00〜20：00）休館日：冬期休館 11月中旬〜4月下旬","admission_fees":"一般： 800円中高生： 500円小学生以下： 無料","website_url":null,"phone_number":"0267-42-0880","area":"長野県"}
{"id":10,"name":"高橋節郎記念美術館","location":"長野県安曇野市穂高北穂高４０８－１","business_hours":"9:00〜17:00","admission_fees":"大人：400円高校生・大学生：300円中学生以下：無料","website_url":null,"phone_number":"0263-81-3030","area":"長野県"}
{"id":11,"name":"脇田美術館","location":"長野県北佐久郡軽井沢町軽井沢町旧道１５７０－４","business_hours":"4月〜11月 10:00〜17:00","admission_fees":"大人1000円　高・大学生600円　小・中学生0円","website_url":null,"phone_number":"0267-42-2639","area":"長野県"}
{"id":12,"name":"駒ヶ根高原美術館","location":"長野県駒ヶ根市赤穂８８","business_hours":"午前１０:００－午後４:３０（最終受付午後３:３０）","admission_fees":"大人 ８００円　大高生 ５００円　小中生 ３００円※障がい者手帳をお持ちの方は無料、付添いの方（大人1名）は500円に割引いたします。","website_url":null,"phone_number":"0265-83-5100","area":"長野県"}
{"id":14,"name":"斑尾高原絵本美術館","location":"長野県飯山市斑尾高原1492-224","business_hours":"9:30〜18:00","admission_fees":"大人700円","website_url":null,"phone_number":"0269-64-2807","area":"長野県"}
{"id":15,"name":"青木村郷土美術館","location":"長野県小県郡青木村当郷２０５１－１","business_hours":"開館時間：9:00〜16:30","admission_fees":"一般：200円学生（高校、大学）：150円児童生徒（小、中学生）：100円小学生未満：無料障がい者割引：本人と介護者1名50円引き","website_url":null,"phone_number":"0268-49-3838","area":"長野県"}
{"id":16,"name":"北野美術館","location":"長野県長野市若穂綿内７９６３","business_hours":"情報なし","admission_fees":"情報なし","website_url":null,"phone_number":"026-282-3450","area":"長野県"}
{"id":17,"name":"白馬美術館","location":"長野県北安曇郡白馬村北城２９６５","business_hours":"開館時間：9:30〜17:30","admission_fees":"一般：700円小中学生：400円","website_url":null,"phone_number":"0261-72-6084","area":"長野県"}
{"id":18,"name":"泰阜村立学校美術館","location":"長野県下伊那郡泰阜村万場３８１７－２","business_hours":"9:00〜17:00","admission_fees":"入場料0円","website_url":null,"phone_number":"0260-26-2052","area":"長野県"}
{"id":19,"name":"須坂版画美術館平塚運一版画美術館","location":"長野県須坂市野辺１３８６－８","business_hours":"9:00〜17:00","admission_fees":"300円、中学生以下無料","website_url":null,"phone_number":"026-248-6633","area":"長野県"}
{"id":20,"name":"須坂アートパーク","location":"長野県須坂市野辺1386-8","business_hours":"―","admission_fees":"大人：300円小中学生：100円※特別企画展の場合は入館料変更あり","website_url":null,"phone_number":"026-245-2340","area":"長野県"}
{"id":21,"name":"アンフォルメル中川村美術館","location":"長野県上伊那郡中川村大草２１２４","business_hours":"午前10時〜午後5時（入館受付終了午後4時30分）","admission_fees":"一般 … 400円高校生以下 … 無料団体（一般） … 300円","website_url":null,"phone_number":"0265-88-2680","area":"長野県"}
{"id":22,"name":"伊那アルプス美術館","location":"長野県上伊那郡箕輪町大字中箕輪１４８００－５５","business_hours":"開館時間：10:00〜18:00日曜日：13:00〜18:00","admission_fees":"高校生以上：400円中学生以下：無料","website_url":null,"phone_number":"0265-70-7020","area":"長野県"}
{"id":23,"name":"京都造形芸術大学附属康耀堂美術館","location":"長野県茅野市豊平４７３４－２１５","business_hours":"開館時間：10:00〜17：00（最終入館時間16：30）","admission_fees":"一般（高、大生含む）：300円中学生以下：無料","website_url":null,"phone_number":"0266-71-6811","area":"長野県"}
{"id":24,"name":"野花の詩写真美術館","location":"長野県長野市松代町清野１９４８","business_hours":"営業時間：10：00〜17：00","admission_fees":"一般（高校生以上）：300円小中学生：200円","website_url":null,"phone_number":"026-278-7235","area":"長野県"}
{"id":25,"name":"水村喜一郎美術館","location":"長野県東御市本海野６４５","business_hours":"午前10時 ~ 午後5時","admission_fees":"一般　500円65歳以上　400円小中学生無料","website_url":null,"phone_number":"0268-71-5242","area":"長野県"}
{"id":1,"name":"田崎美術館","location":"長野県北佐久郡軽井沢町長倉横吹２１４１－２７９","business_hours":"5月〜11月　10：00〜17：00 5月〜 9月　10：00〜17：00             　10月〜11月 10：30〜16：30      ※　入館は閉館の30分前まで","admission_fees":"一　　 般 　 900円 未就学児　　無　料 小・中学生　400円 高　校　生　700円","website_url":null,"phone_number":"0267-45-1186","area":"長野県"}
{"id":13,"name":"茅野市美術館","location":"長野県茅野市塚原１－１－１","business_hours":"情報なし","admission_fees":"情報なし","website_url":null,"phone_number":"0266-82-8222","area":"長野県"}
{"id":1,"name":"聖徳記念絵画館","location":"東京都新宿区霞ケ丘町1番1号","business_hours":"平常　9：00〜17：00（最終入館16：30）年末年始（12月30日〜1月2日） 10：00〜17：00（最終入館16：30）","admission_fees":"500円","website_url":null,"phone_number":"03-3401-5179","area":"東京都"}
{"id":2,"name":"黒田記念館","location":"東京都台東区上野公園13-9","business_hours":"9：30〜17：00","admission_fees":"無料","website_url":null,"phone_number":"03-5777-8600","area":"東京都"}
{"id":3,"name":"ＳＯＭＰＯ美術館","location":"東京都新宿区西新宿１丁目２６－１","business_hours":"10:00 - 18:00（入館は閉館30分前まで）","admission_fees":"展覧会によって観覧料が異なります。大人　　1,500円前後大学生　1,100円前後小・中・高校生　無料障がい者の方　無料","website_url":null,"phone_number":"050-5541-8600","area":"東京都"}
{"id":4,"name":"熊谷守一美術館","location":"東京都豊島区千早２－２７－６","business_hours":"午前１０時３０分〜午後５時３０分（入館は閉館の３０分前まで）※金曜日は午後８時まで開館（３階ギャラリーは午後５時３０分まで）","admission_fees":"一般５００円高・大学生３００円小・中学生１００円小学生未満無料","website_url":null,"phone_number":"03-3957-3779","area":"東京都"}
{"id":5,"name":"世田谷美術館","location":"東京都世田谷区砧公園１－２","business_hours":"午前10時－午後6時 展覧会入場は閉館30分前まで","admission_fees":"一般：200円65歳以上：100円大高生：150円中小生：100円","website_url":null,"phone_number":"03-3415-6011","area":"東京都"}
{"id":6,"name":"ＰＬＡＹ！","location":"東京都立川市緑町３－１","business_hours":"平日：10：00〜17：00土日祝：10：00〜18：00","admission_fees":"展覧会毎に設定","website_url":null,"phone_number":"042-518-9625","area":"東京都"}
{"id":7,"name":"小平市平櫛田中彫刻美術館","location":"東京都小平市学園西町１丁目７－５","business_hours":"午前10時〜午後4時※なるべく午後3時30分までに入館してください。","admission_fees":"一般　　　　300円 小・中学生　150円*特別展はその都度定めます","website_url":null,"phone_number":"042-341-0098","area":"東京都"}
{"id":8,"name":"檜原森のおもちゃ美術館","location":"東京都西多摩郡檜原村３７８３","business_hours":"10：00〜16：00（最終15：30）","admission_fees":"大人（中学生以上）：1000円子供（小学生以下）：700円子供（生後6ヶ月未満）：無料シニア（65歳以上）：500円障害者：無料檜原村民大人（中学生以上）：500円※パスポート有り","website_url":null,"phone_number":"042-588-4044","area":"東京都"}
{"id":9,"name":"世田谷文学館","location":"東京都世田谷区南烏山1-10-10","business_hours":"展示室 10:00〜18:00（入場は17:30まで）ライブラリー ほんとわ 10:00〜18:00ミュージアムショップ 10:00〜17:30","admission_fees":"【コレクション展】一般　200円大学生・高校生　150円中学生・小学生　100円65歳以上　100円その他条件あり 【企画展】展示会ごとに異なります","website_url":null,"phone_number":"03-5374-9111","area":"東京都"}
{"id":10,"name":"みどりの美術館","location":"東京都立川市西砂町４丁目１－３","business_hours":"10:00〜16:00","admission_fees":"無料","website_url":null,"phone_number":"042-531-0123","area":"東京都"}
{"id":11,"name":"たましん美術館","location":"東京都立川市緑町３－４","business_hours":"情報なし","admission_fees":"情報なし","website_url":null,"phone_number":"042-526-7788","area":"東京都"}
{"id":12,"name":"サントリー美術館","location":"東京都港区赤坂9-7-4 東京ミッドタウン　ガレリア3階","business_hours":"情報なし","admission_fees":"情報なし","website_url":null,"phone_number":"情報なし","area":"東京都"}
{"id":13,"name":"たましん歴史・美術館","location":"東京都国立市中１丁目９－５２","business_hours":"午前10時〜午後6時　（入館は30分前まで）","admission_fees":"100円、中学生以下無料但し、企画展によって入館料を変更する場合があります（中学生以下は常に無料）","website_url":null,"phone_number":"042-574-1360","area":"東京都"}
{"id":14,"name":"東京タロット美術館","location":"東京都台東区柳橋２－４－２","business_hours":"平日：10：00〜19：00土曜：9：00〜18：00※予約制：キャンセル料有","admission_fees":"800円（キャッシュレス決済）","website_url":null,"phone_number":"情報なし","area":"東京都"}
{"id":15,"name":"中村研一記念小金井市立はけの森美術館","location":"東京都小金井市中町１丁目１１－３","business_hours":"10:00〜17:00","admission_fees":"入館料：一般200円、小中学生100円、未就学児および障害者手帳をお持ちの方は無料です。企画展は別","website_url":null,"phone_number":"042-384-9800","area":"東京都"}
{"id":16,"name":"国立映画アーカイブ","location":"東京都中央区京橋３丁目７－６","business_hours":"11:00から18:30まで入場は18:00まで。各上映により異なります。","admission_fees":"[上映] 一般 520円大学生・高校生・65歳以上310円小学生・中学生 100円 [展示室]一般210円大学生・シニア70円高校生以下・障害者手帳提示とその介護者1名 無料","website_url":null,"phone_number":"050-5541-8600","area":"東京都"}
{"id":17,"name":"奥多摩せせらぎの里美術館","location":"東京都西多摩郡奥多摩町川井丹縄５３","business_hours":"午前１０時より午後５時まで","admission_fees":"大人３００円・小中学生２００円","website_url":null,"phone_number":"0428-85-1109","area":"東京都"}
{"id":18,"name":"東京藝術大学大学美術館","location":"東京都台東区上野公園１２－８","business_hours":"展覧会ごとに異なる","admission_fees":"観覧料は展覧会ごとに異なります","website_url":null,"phone_number":"03-5685-7755","area":"東京都"}
{"id":19,"name":"石洞美術館","location":"東京都足立区千住橋戸町２３","business_hours":"午前10:00-午後5:00 （但し入館は午後4:30まで）","admission_fees":"大人 ５００円 、 学生 ３００円、小学生以下無料","website_url":null,"phone_number":"03-3888-7520","area":"東京都"}
{"id":20,"name":"八王子市夢美術館","location":"東京都八王子市八日町８－１","business_hours":"10:00 〜 19:00(入館は午後6時30分まで）","admission_fees":"小学生以上100円","website_url":null,"phone_number":"042-621-6777","area":"東京都"}
{"id":21,"name":"小島善太郎美術館","location":"東京都青梅市滝ノ上町１３４６－１","business_hours":"午前9時〜午後5時（入館は午後4時30分まで）","admission_fees":"大人200円、小・中学生50円 〈特別展〉別に定めます。 ##次の方は無料です。 1.市内在住の65歳以上の方 （要証明） 2.障害をお持ちの方 （要証明） 3.市内在住の小・中学生 （土曜日のみ）","website_url":null,"phone_number":"0428-24-1195","area":"東京都"}
{"id":25,"name":"静嘉堂文庫美術館","location":"東京都千代田区丸の内2-1-1 明治生命館1F","business_hours":"情報なし","admission_fees":"情報なし","website_url":null,"phone_number":"情報なし","area":"東京都"}
{"id":22,"name":"古代エジプト美術館","location":"東京都渋谷区神南1-12-18 メゾン渋谷801","business_hours":"【営業日】　土・日 (年末年始は休館）【営業時間】　12：00〜18：00　（入館は17：30まで）","admission_fees":"【入館料】一般 \\\\1,500　／大学生 \\\\1,200　／高校生以下 \\\\1,000","website_url":null,"phone_number":"03-6809-0718","area":"東京都"}
{"id":23,"name":"ヨックモックミュージアム","location":"東京都港区南青山６－１５－１","business_hours":"情報なし","admission_fees":"情報なし","website_url":null,"phone_number":"03-3486-8000","area":"東京都"}
{"id":24,"name":"ＷＨＡＴ　ＭＵＳＥＵＭ","location":"東京都品川区東品川2-6-10 寺田倉庫G号","business_hours":"11:00〜18:00（最終入場17:00）","admission_fees":"一般 1,500円大学生/専門学生 800円高校生以下 無料","website_url":null,"phone_number":"情報なし","area":"東京都"}
{"id":26,"name":"森アーツセンターギャラリー","location":"東京都港区六本木6丁目10－1 六本木ヒルズ森タワー","business_hours":"情報なし","admission_fees":"情報なし","website_url":null,"phone_number":"情報なし","area":"東京都"}
{"id":27,"name":"三菱一号館美術館","location":"東京都千代田区丸の内２丁目６－２","business_hours":"情報なし","admission_fees":"情報なし","website_url":null,"phone_number":"情報なし","area":"東京都"}
